[
  {
    "id": 48282,
    "name": "Arnside",
    "state_id": 2495,
    "state_code": "LAN",
    "country_id": 232,
    "country_code": "GB",
    "latitude": "54.20179000",
    "longitude": "-2.83374000",
    "wikiDataId": null
  },
  {
    "id": 48400,
    "name": "Barnoldswick",
    "state_id": 2495,
    "state_code": "LAN",
    "country_id": 232,
    "country_code": "GB",
    "latitude": "53.91711000",
    "longitude": "-2.18705000",
    "wikiDataId": null
  },
  {
    "id": 48433,
    "name": "Bay Horse",
    "state_id": 2495,
    "state_code": "LAN",
    "country_id": 232,
    "country_code": "GB",
    "latitude": "53.96867000",
    "longitude": "-2.77603000",
    "wikiDataId": null
  },
  {
    "id": 48509,
    "name": "Billington",
    "state_id": 2495,
    "state_code": "LAN",
    "country_id": 232,
    "country_code": "GB",
    "latitude": "53.81570000",
    "longitude": "-2.42360000",
    "wikiDataId": null
  },
  {
    "id": 48588,
    "name": "Bolton le Sands",
    "state_id": 2495,
    "state_code": "LAN",
    "country_id": 232,
    "country_code": "GB",
    "latitude": "54.09632000",
    "longitude": "-2.80017000",
    "wikiDataId": null
  },
  {
    "id": 48865,
    "name": "Carnforth",
    "state_id": 2495,
    "state_code": "LAN",
    "country_id": 232,
    "country_code": "GB",
    "latitude": "54.13163000",
    "longitude": "-2.76914000",
    "wikiDataId": null
  },
  {
    "id": 48891,
    "name": "Caton",
    "state_id": 2495,
    "state_code": "LAN",
    "country_id": 232,
    "country_code": "GB",
    "latitude": "54.07624000",
    "longitude": "-2.71903000",
    "wikiDataId": null
  },
  {
    "id": 48893,
    "name": "Catterall",
    "state_id": 2495,
    "state_code": "LAN",
    "country_id": 232,
    "country_code": "GB",
    "latitude": "53.87965000",
    "longitude": "-2.76478000",
    "wikiDataId": null
  },
  {
    "id": 48932,
    "name": "Chatburn",
    "state_id": 2495,
    "state_code": "LAN",
    "country_id": 232,
    "country_code": "GB",
    "latitude": "53.89228000",
    "longitude": "-2.35495000",
    "wikiDataId": null
  },
  {
    "id": 49037,
    "name": "Clitheroe",
    "state_id": 2495,
    "state_code": "LAN",
    "country_id": 232,
    "country_code": "GB",
    "latitude": "53.86667000",
    "longitude": "-2.40000000",
    "wikiDataId": null
  },
  {
    "id": 49623,
    "name": "Galgate",
    "state_id": 2495,
    "state_code": "LAN",
    "country_id": 232,
    "country_code": "GB",
    "latitude": "53.99362000",
    "longitude": "-2.79201000",
    "wikiDataId": null
  },
  {
    "id": 49630,
    "name": "Garstang",
    "state_id": 2495,
    "state_code": "LAN",
    "country_id": 232,
    "country_code": "GB",
    "latitude": "53.90081000",
    "longitude": "-2.77417000",
    "wikiDataId": null
  },
  {
    "id": 49678,
    "name": "Goosnargh",
    "state_id": 2495,
    "state_code": "LAN",
    "country_id": 232,
    "country_code": "GB",
    "latitude": "53.82200000",
    "longitude": "-2.67017000",
    "wikiDataId": null
  },
  {
    "id": 49890,
    "name": "Hellifield",
    "state_id": 2495,
    "state_code": "LAN",
    "country_id": 232,
    "country_code": "GB",
    "latitude": "54.00486000",
    "longitude": "-2.22302000",
    "wikiDataId": null
  },
  {
    "id": 49923,
    "name": "High Bentham",
    "state_id": 2495,
    "state_code": "LAN",
    "country_id": 232,
    "country_code": "GB",
    "latitude": "54.11823000",
    "longitude": "-2.51199000",
    "wikiDataId": null
  },
  {
    "id": 50052,
    "name": "Ingleton",
    "state_id": 2495,
    "state_code": "LAN",
    "country_id": 232,
    "country_code": "GB",
    "latitude": "54.15392000",
    "longitude": "-2.46849000",
    "wikiDataId": null
  },
  {
    "id": 50198,
    "name": "Kirkby Lonsdale",
    "state_id": 2495,
    "state_code": "LAN",
    "country_id": 232,
    "country_code": "GB",
    "latitude": "54.20259000",
    "longitude": "-2.59827000",
    "wikiDataId": null
  },
  {
    "id": 50235,
    "name": "Lancashire",
    "state_id": 2495,
    "state_code": "LAN",
    "country_id": 232,
    "country_code": "GB",
    "latitude": "53.83333000",
    "longitude": "-2.50000000",
    "wikiDataId": null
  },
  {
    "id": 50236,
    "name": "Lancaster",
    "state_id": 2495,
    "state_code": "LAN",
    "country_id": 232,
    "country_code": "GB",
    "latitude": "54.04649000",
    "longitude": "-2.79988000",
    "wikiDataId": null
  },
  {
    "id": 50242,
    "name": "Langho",
    "state_id": 2495,
    "state_code": "LAN",
    "country_id": 232,
    "country_code": "GB",
    "latitude": "53.80217000",
    "longitude": "-2.45076000",
    "wikiDataId": null
  },
  {
    "id": 50409,
    "name": "Longridge",
    "state_id": 2495,
    "state_code": "LAN",
    "country_id": 232,
    "country_code": "GB",
    "latitude": "53.83212000",
    "longitude": "-2.59964000",
    "wikiDataId": null
  },
  {
    "id": 50592,
    "name": "Milnthorpe",
    "state_id": 2495,
    "state_code": "LAN",
    "country_id": 232,
    "country_code": "GB",
    "latitude": "54.22785000",
    "longitude": "-2.76939000",
    "wikiDataId": null
  },
  {
    "id": 50627,
    "name": "Morecambe",
    "state_id": 2495,
    "state_code": "LAN",
    "country_id": 232,
    "country_code": "GB",
    "latitude": "54.06835000",
    "longitude": "-2.86108000",
    "wikiDataId": null
  },
  {
    "id": 50987,
    "name": "Preston",
    "state_id": 2495,
    "state_code": "LAN",
    "country_id": 232,
    "country_code": "GB",
    "latitude": "53.76282000",
    "longitude": "-2.70452000",
    "wikiDataId": null
  },
  {
    "id": 51159,
    "name": "Sabden",
    "state_id": 2495,
    "state_code": "LAN",
    "country_id": 232,
    "country_code": "GB",
    "latitude": "53.83355000",
    "longitude": "-2.33728000",
    "wikiDataId": null
  },
  {
    "id": 51238,
    "name": "Settle",
    "state_id": 2495,
    "state_code": "LAN",
    "country_id": 232,
    "country_code": "GB",
    "latitude": "54.06865000",
    "longitude": "-2.27720000",
    "wikiDataId": null
  },
  {
    "id": 51310,
    "name": "Silverdale",
    "state_id": 2495,
    "state_code": "LAN",
    "country_id": 232,
    "country_code": "GB",
    "latitude": "54.16667000",
    "longitude": "-2.81667000",
    "wikiDataId": null
  },
  {
    "id": 51759,
    "name": "Warton",
    "state_id": 2495,
    "state_code": "LAN",
    "country_id": 232,
    "country_code": "GB",
    "latitude": "54.14715000",
    "longitude": "-2.76435000",
    "wikiDataId": null
  },
  {
    "id": 51858,
    "name": "Whalley",
    "state_id": 2495,
    "state_code": "LAN",
    "country_id": 232,
    "country_code": "GB",
    "latitude": "53.82209000",
    "longitude": "-2.40712000",
    "wikiDataId": null
  }
]