[
  {
    "id": 54383,
    "name": "Bakar",
    "state_id": 735,
    "state_code": "08",
    "country_id": 55,
    "country_code": "HR",
    "latitude": "45.30861000",
    "longitude": "14.53028000",
    "wikiDataId": null
  },
  {
    "id": 54386,
    "name": "Banjol",
    "state_id": 735,
    "state_code": "08",
    "country_id": 55,
    "country_code": "HR",
    "latitude": "44.75000000",
    "longitude": "14.78333000",
    "wikiDataId": null
  },
  {
    "id": 54388,
    "name": "Baška",
    "state_id": 735,
    "state_code": "08",
    "country_id": 55,
    "country_code": "HR",
    "latitude": "44.97028000",
    "longitude": "14.75333000",
    "wikiDataId": null
  },
  {
    "id": 54420,
    "name": "Bribir",
    "state_id": 735,
    "state_code": "08",
    "country_id": 55,
    "country_code": "HR",
    "latitude": "45.16111000",
    "longitude": "14.76472000",
    "wikiDataId": null
  },
  {
    "id": 54435,
    "name": "Buzdohanj",
    "state_id": 735,
    "state_code": "08",
    "country_id": 55,
    "country_code": "HR",
    "latitude": "45.34528000",
    "longitude": "14.48833000",
    "wikiDataId": null
  },
  {
    "id": 55016,
    "name": "Čavle",
    "state_id": 735,
    "state_code": "08",
    "country_id": 55,
    "country_code": "HR",
    "latitude": "45.35194000",
    "longitude": "14.48389000",
    "wikiDataId": null
  },
  {
    "id": 54442,
    "name": "Cernik",
    "state_id": 735,
    "state_code": "08",
    "country_id": 55,
    "country_code": "HR",
    "latitude": "45.34361000",
    "longitude": "14.50222000",
    "wikiDataId": null
  },
  {
    "id": 54444,
    "name": "Cres",
    "state_id": 735,
    "state_code": "08",
    "country_id": 55,
    "country_code": "HR",
    "latitude": "44.96111000",
    "longitude": "14.40840000",
    "wikiDataId": null
  },
  {
    "id": 54445,
    "name": "Crikvenica",
    "state_id": 735,
    "state_code": "08",
    "country_id": 55,
    "country_code": "HR",
    "latitude": "45.17722000",
    "longitude": "14.69278000",
    "wikiDataId": null
  },
  {
    "id": 54452,
    "name": "Delnice",
    "state_id": 735,
    "state_code": "08",
    "country_id": 55,
    "country_code": "HR",
    "latitude": "45.40083000",
    "longitude": "14.79972000",
    "wikiDataId": null
  },
  {
    "id": 54465,
    "name": "Dražice",
    "state_id": 735,
    "state_code": "08",
    "country_id": 55,
    "country_code": "HR",
    "latitude": "45.39083000",
    "longitude": "14.47028000",
    "wikiDataId": null
  },
  {
    "id": 54466,
    "name": "Drenova",
    "state_id": 735,
    "state_code": "08",
    "country_id": 55,
    "country_code": "HR",
    "latitude": "45.35000000",
    "longitude": "14.43028000",
    "wikiDataId": null
  },
  {
    "id": 54485,
    "name": "Fužine",
    "state_id": 735,
    "state_code": "08",
    "country_id": 55,
    "country_code": "HR",
    "latitude": "45.30528000",
    "longitude": "14.71556000",
    "wikiDataId": null
  },
  {
    "id": 54569,
    "name": "Grad Čabar",
    "state_id": 735,
    "state_code": "08",
    "country_id": 55,
    "country_code": "HR",
    "latitude": "45.58333000",
    "longitude": "14.58333000",
    "wikiDataId": null
  },
  {
    "id": 54507,
    "name": "Grad Crikvenica",
    "state_id": 735,
    "state_code": "08",
    "country_id": 55,
    "country_code": "HR",
    "latitude": "45.16667000",
    "longitude": "14.70000000",
    "wikiDataId": null
  },
  {
    "id": 54509,
    "name": "Grad Delnice",
    "state_id": 735,
    "state_code": "08",
    "country_id": 55,
    "country_code": "HR",
    "latitude": "45.39806000",
    "longitude": "14.80111000",
    "wikiDataId": null
  },
  {
    "id": 54528,
    "name": "Grad Krk",
    "state_id": 735,
    "state_code": "08",
    "country_id": 55,
    "country_code": "HR",
    "latitude": "45.02829000",
    "longitude": "14.57233000",
    "wikiDataId": null
  },
  {
    "id": 54538,
    "name": "Grad Opatija",
    "state_id": 735,
    "state_code": "08",
    "country_id": 55,
    "country_code": "HR",
    "latitude": "45.33333000",
    "longitude": "14.26667000",
    "wikiDataId": null
  },
  {
    "id": 54546,
    "name": "Grad Rijeka",
    "state_id": 735,
    "state_code": "08",
    "country_id": 55,
    "country_code": "HR",
    "latitude": "45.32693000",
    "longitude": "14.43758000",
    "wikiDataId": null
  },
  {
    "id": 54563,
    "name": "Grad Vrbovsko",
    "state_id": 735,
    "state_code": "08",
    "country_id": 55,
    "country_code": "HR",
    "latitude": "45.37542000",
    "longitude": "15.07856000",
    "wikiDataId": null
  },
  {
    "id": 54598,
    "name": "Hreljin",
    "state_id": 735,
    "state_code": "08",
    "country_id": 55,
    "country_code": "HR",
    "latitude": "45.28250000",
    "longitude": "14.59917000",
    "wikiDataId": null
  },
  {
    "id": 54609,
    "name": "Jadranovo",
    "state_id": 735,
    "state_code": "08",
    "country_id": 55,
    "country_code": "HR",
    "latitude": "45.23111000",
    "longitude": "14.61833000",
    "wikiDataId": null
  },
  {
    "id": 54628,
    "name": "Kampor",
    "state_id": 735,
    "state_code": "08",
    "country_id": 55,
    "country_code": "HR",
    "latitude": "44.77500000",
    "longitude": "14.71861000",
    "wikiDataId": null
  },
  {
    "id": 54635,
    "name": "Kastav",
    "state_id": 735,
    "state_code": "08",
    "country_id": 55,
    "country_code": "HR",
    "latitude": "45.37528000",
    "longitude": "14.34861000",
    "wikiDataId": null
  },
  {
    "id": 54647,
    "name": "Klana",
    "state_id": 735,
    "state_code": "08",
    "country_id": 55,
    "country_code": "HR",
    "latitude": "45.44694000",
    "longitude": "14.37694000",
    "wikiDataId": null
  },
  {
    "id": 54666,
    "name": "Kraljevica",
    "state_id": 735,
    "state_code": "08",
    "country_id": 55,
    "country_code": "HR",
    "latitude": "45.27395000",
    "longitude": "14.56830000",
    "wikiDataId": null
  },
  {
    "id": 54668,
    "name": "Krasica",
    "state_id": 735,
    "state_code": "08",
    "country_id": 55,
    "country_code": "HR",
    "latitude": "45.30972000",
    "longitude": "14.55556000",
    "wikiDataId": null
  },
  {
    "id": 54671,
    "name": "Krk",
    "state_id": 735,
    "state_code": "08",
    "country_id": 55,
    "country_code": "HR",
    "latitude": "45.02744000",
    "longitude": "14.57542000",
    "wikiDataId": null
  },
  {
    "id": 54696,
    "name": "Lopar",
    "state_id": 735,
    "state_code": "08",
    "country_id": 55,
    "country_code": "HR",
    "latitude": "44.83250000",
    "longitude": "14.73028000",
    "wikiDataId": null
  },
  {
    "id": 54699,
    "name": "Lovran",
    "state_id": 735,
    "state_code": "08",
    "country_id": 55,
    "country_code": "HR",
    "latitude": "45.29194000",
    "longitude": "14.27417000",
    "wikiDataId": null
  },
  {
    "id": 54712,
    "name": "Mali Lošinj",
    "state_id": 735,
    "state_code": "08",
    "country_id": 55,
    "country_code": "HR",
    "latitude": "44.53056000",
    "longitude": "14.46861000",
    "wikiDataId": null
  },
  {
    "id": 54713,
    "name": "Malinska-Dubašnica",
    "state_id": 735,
    "state_code": "08",
    "country_id": 55,
    "country_code": "HR",
    "latitude": "45.12277000",
    "longitude": "14.52873000",
    "wikiDataId": null
  },
  {
    "id": 54723,
    "name": "Marčelji",
    "state_id": 735,
    "state_code": "08",
    "country_id": 55,
    "country_code": "HR",
    "latitude": "45.39611000",
    "longitude": "14.38944000",
    "wikiDataId": null
  },
  {
    "id": 54716,
    "name": "Marinići",
    "state_id": 735,
    "state_code": "08",
    "country_id": 55,
    "country_code": "HR",
    "latitude": "45.36500000",
    "longitude": "14.39389000",
    "wikiDataId": null
  },
  {
    "id": 54724,
    "name": "Matulji",
    "state_id": 735,
    "state_code": "08",
    "country_id": 55,
    "country_code": "HR",
    "latitude": "45.36167000",
    "longitude": "14.32500000",
    "wikiDataId": null
  },
  {
    "id": 54729,
    "name": "Mihotići",
    "state_id": 735,
    "state_code": "08",
    "country_id": 55,
    "country_code": "HR",
    "latitude": "45.36125000",
    "longitude": "14.30553000",
    "wikiDataId": null
  },
  {
    "id": 54743,
    "name": "Mrkopalj",
    "state_id": 735,
    "state_code": "08",
    "country_id": 55,
    "country_code": "HR",
    "latitude": "45.31556000",
    "longitude": "14.85528000",
    "wikiDataId": null
  },
  {
    "id": 54755,
    "name": "Njivice",
    "state_id": 735,
    "state_code": "08",
    "country_id": 55,
    "country_code": "HR",
    "latitude": "45.15806000",
    "longitude": "14.53861000",
    "wikiDataId": null
  },
  {
    "id": 54759,
    "name": "Novi Vinodolski",
    "state_id": 735,
    "state_code": "08",
    "country_id": 55,
    "country_code": "HR",
    "latitude": "45.12806000",
    "longitude": "14.78889000",
    "wikiDataId": null
  },
  {
    "id": 54776,
    "name": "Omišalj",
    "state_id": 735,
    "state_code": "08",
    "country_id": 55,
    "country_code": "HR",
    "latitude": "45.21134000",
    "longitude": "14.55495000",
    "wikiDataId": null
  },
  {
    "id": 54777,
    "name": "Opatija",
    "state_id": 735,
    "state_code": "08",
    "country_id": 55,
    "country_code": "HR",
    "latitude": "45.33771000",
    "longitude": "14.30515000",
    "wikiDataId": null
  },
  {
    "id": 54815,
    "name": "Podhum",
    "state_id": 735,
    "state_code": "08",
    "country_id": 55,
    "country_code": "HR",
    "latitude": "45.38722000",
    "longitude": "14.47944000",
    "wikiDataId": null
  },
  {
    "id": 54846,
    "name": "Punat",
    "state_id": 735,
    "state_code": "08",
    "country_id": 55,
    "country_code": "HR",
    "latitude": "45.01472000",
    "longitude": "14.62889000",
    "wikiDataId": null
  },
  {
    "id": 54849,
    "name": "Rab",
    "state_id": 735,
    "state_code": "08",
    "country_id": 55,
    "country_code": "HR",
    "latitude": "44.75769000",
    "longitude": "14.75906000",
    "wikiDataId": null
  },
  {
    "id": 54863,
    "name": "Rijeka",
    "state_id": 735,
    "state_code": "08",
    "country_id": 55,
    "country_code": "HR",
    "latitude": "45.32673000",
    "longitude": "14.44241000",
    "wikiDataId": null
  },
  {
    "id": 54870,
    "name": "Rubeši",
    "state_id": 735,
    "state_code": "08",
    "country_id": 55,
    "country_code": "HR",
    "latitude": "45.36694000",
    "longitude": "14.34806000",
    "wikiDataId": null
  },
  {
    "id": 54882,
    "name": "Selce",
    "state_id": 735,
    "state_code": "08",
    "country_id": 55,
    "country_code": "HR",
    "latitude": "45.15639000",
    "longitude": "14.72111000",
    "wikiDataId": null
  },
  {
    "id": 54893,
    "name": "Skrad",
    "state_id": 735,
    "state_code": "08",
    "country_id": 55,
    "country_code": "HR",
    "latitude": "45.42778000",
    "longitude": "14.91111000",
    "wikiDataId": null
  },
  {
    "id": 55033,
    "name": "Škrljevo",
    "state_id": 735,
    "state_code": "08",
    "country_id": 55,
    "country_code": "HR",
    "latitude": "45.32053000",
    "longitude": "14.53268000",
    "wikiDataId": null
  },
  {
    "id": 54924,
    "name": "Supetarska Draga",
    "state_id": 735,
    "state_code": "08",
    "country_id": 55,
    "country_code": "HR",
    "latitude": "44.79750000",
    "longitude": "14.72472000",
    "wikiDataId": null
  },
  {
    "id": 54970,
    "name": "Vinodolska općina",
    "state_id": 735,
    "state_code": "08",
    "country_id": 55,
    "country_code": "HR",
    "latitude": "45.22219000",
    "longitude": "14.68941000",
    "wikiDataId": null
  },
  {
    "id": 54976,
    "name": "Viškovo",
    "state_id": 735,
    "state_code": "08",
    "country_id": 55,
    "country_code": "HR",
    "latitude": "45.37572000",
    "longitude": "14.38400000",
    "wikiDataId": null
  },
  {
    "id": 54990,
    "name": "Vrbnik",
    "state_id": 735,
    "state_code": "08",
    "country_id": 55,
    "country_code": "HR",
    "latitude": "45.07583000",
    "longitude": "14.67250000",
    "wikiDataId": null
  },
  {
    "id": 54992,
    "name": "Vrbovsko",
    "state_id": 735,
    "state_code": "08",
    "country_id": 55,
    "country_code": "HR",
    "latitude": "45.36861000",
    "longitude": "15.07833000",
    "wikiDataId": null
  }
]