[
  {
    "id": 48216,
    "name": "Alexandria",
    "state_id": 2440,
    "state_code": "WDU",
    "country_id": 232,
    "country_code": "GB",
    "latitude": "55.99379000",
    "longitude": "-4.58640000",
    "wikiDataId": null
  },
  {
    "id": 48344,
    "name": "Balfron",
    "state_id": 2440,
    "state_code": "WDU",
    "country_id": 232,
    "country_code": "GB",
    "latitude": "56.06809000",
    "longitude": "-4.33559000",
    "wikiDataId": null
  },
  {
    "id": 48350,
    "name": "Balloch",
    "state_id": 2440,
    "state_code": "WDU",
    "country_id": 232,
    "country_code": "GB",
    "latitude": "56.00000000",
    "longitude": "-4.58333000",
    "wikiDataId": null
  },
  {
    "id": 48537,
    "name": "Bishopton",
    "state_id": 2440,
    "state_code": "WDU",
    "country_id": 232,
    "country_code": "GB",
    "latitude": "55.90969000",
    "longitude": "-4.50560000",
    "wikiDataId": null
  },
  {
    "id": 48590,
    "name": "Bonhill",
    "state_id": 2440,
    "state_code": "WDU",
    "country_id": 232,
    "country_code": "GB",
    "latitude": "55.97944000",
    "longitude": "-4.56380000",
    "wikiDataId": null
  },
  {
    "id": 48857,
    "name": "Cardross",
    "state_id": 2440,
    "state_code": "WDU",
    "country_id": 232,
    "country_code": "GB",
    "latitude": "55.96184000",
    "longitude": "-4.65316000",
    "wikiDataId": null
  },
  {
    "id": 49340,
    "name": "Dumbarton",
    "state_id": 2440,
    "state_code": "WDU",
    "country_id": 232,
    "country_code": "GB",
    "latitude": "55.94433000",
    "longitude": "-4.57061000",
    "wikiDataId": null
  },
  {
    "id": 49365,
    "name": "Duntocher",
    "state_id": 2440,
    "state_code": "WDU",
    "country_id": 232,
    "country_code": "GB",
    "latitude": "55.92437000",
    "longitude": "-4.41545000",
    "wikiDataId": null
  },
  {
    "id": 49514,
    "name": "Faifley",
    "state_id": 2440,
    "state_code": "WDU",
    "country_id": 232,
    "country_code": "GB",
    "latitude": "55.92853000",
    "longitude": "-4.38509000",
    "wikiDataId": null
  },
  {
    "id": 50147,
    "name": "Killearn",
    "state_id": 2440,
    "state_code": "WDU",
    "country_id": 232,
    "country_code": "GB",
    "latitude": "56.04239000",
    "longitude": "-4.36840000",
    "wikiDataId": null
  },
  {
    "id": 50803,
    "name": "Old Kilpatrick",
    "state_id": 2440,
    "state_code": "WDU",
    "country_id": 232,
    "country_code": "GB",
    "latitude": "55.92241000",
    "longitude": "-4.45567000",
    "wikiDataId": null
  },
  {
    "id": 51062,
    "name": "Renton",
    "state_id": 2440,
    "state_code": "WDU",
    "country_id": 232,
    "country_code": "GB",
    "latitude": "55.97200000",
    "longitude": "-4.58399000",
    "wikiDataId": null
  },
  {
    "id": 51713,
    "name": "Vale of Leven",
    "state_id": 2440,
    "state_code": "WDU",
    "country_id": 232,
    "country_code": "GB",
    "latitude": "55.97132000",
    "longitude": "-4.57928000",
    "wikiDataId": null
  },
  {
    "id": 51815,
    "name": "West Dunbartonshire",
    "state_id": 2440,
    "state_code": "WDU",
    "country_id": 232,
    "country_code": "GB",
    "latitude": "55.96667000",
    "longitude": "-4.53333000",
    "wikiDataId": null
  }
]