[
  {
    "id": 32254,
    "name": "Allariz",
    "state_id": 5091,
    "state_code": "OR",
    "country_id": 207,
    "country_code": "ES",
    "latitude": "42.19044000",
    "longitude": "-7.80175000",
    "wikiDataId": null
  },
  {
    "id": 32352,
    "name": "Ambía",
    "state_id": 5091,
    "state_code": "OR",
    "country_id": 207,
    "country_code": "ES",
    "latitude": "42.20578000",
    "longitude": "-7.73707000",
    "wikiDataId": null
  },
  {
    "id": 32355,
    "name": "Amoeiro",
    "state_id": 5091,
    "state_code": "OR",
    "country_id": 207,
    "country_code": "ES",
    "latitude": "42.41667000",
    "longitude": "-7.95000000",
    "wikiDataId": null
  },
  {
    "id": 151095,
    "name": "Arnoia A",
    "state_id": 5091,
    "state_code": "OR",
    "country_id": 207,
    "country_code": "ES",
    "latitude": "42.25666970",
    "longitude": "-8.14048750",
    "wikiDataId": null
  },
  {
    "id": 32569,
    "name": "Avión",
    "state_id": 5091,
    "state_code": "OR",
    "country_id": 207,
    "country_code": "ES",
    "latitude": "42.38333000",
    "longitude": "-8.25000000",
    "wikiDataId": null
  },
  {
    "id": 32630,
    "name": "Baltar",
    "state_id": 5091,
    "state_code": "OR",
    "country_id": 207,
    "country_code": "ES",
    "latitude": "41.95200000",
    "longitude": "-7.71581000",
    "wikiDataId": null
  },
  {
    "id": 32632,
    "name": "Bande",
    "state_id": 5091,
    "state_code": "OR",
    "country_id": 207,
    "country_code": "ES",
    "latitude": "42.03120000",
    "longitude": "-7.97489000",
    "wikiDataId": null
  },
  {
    "id": 32703,
    "name": "Baños de Molgas",
    "state_id": 5091,
    "state_code": "OR",
    "country_id": 207,
    "country_code": "ES",
    "latitude": "42.24148000",
    "longitude": "-7.67223000",
    "wikiDataId": null
  },
  {
    "id": 151096,
    "name": "Barbadás",
    "state_id": 5091,
    "state_code": "OR",
    "country_id": 207,
    "country_code": "ES",
    "latitude": "42.29814510",
    "longitude": "-7.88712730",
    "wikiDataId": null
  },
  {
    "id": 151097,
    "name": "Barco de Valdeorras O",
    "state_id": 5091,
    "state_code": "OR",
    "country_id": 207,
    "country_code": "ES",
    "latitude": "42.39713180",
    "longitude": "-6.98534740",
    "wikiDataId": null
  },
  {
    "id": 32714,
    "name": "Beade",
    "state_id": 5091,
    "state_code": "OR",
    "country_id": 207,
    "country_code": "ES",
    "latitude": "42.33074000",
    "longitude": "-8.12950000",
    "wikiDataId": null
  },
  {
    "id": 151098,
    "name": "Beariz",
    "state_id": 5091,
    "state_code": "OR",
    "country_id": 207,
    "country_code": "ES",
    "latitude": "42.46671900",
    "longitude": "-8.27372960",
    "wikiDataId": null
  },
  {
    "id": 151099,
    "name": "Blancos Os",
    "state_id": 5091,
    "state_code": "OR",
    "country_id": 207,
    "country_code": "ES",
    "latitude": "41.99746000",
    "longitude": "-7.75228560",
    "wikiDataId": null
  },
  {
    "id": 32921,
    "name": "Boborás",
    "state_id": 5091,
    "state_code": "OR",
    "country_id": 207,
    "country_code": "ES",
    "latitude": "42.43332000",
    "longitude": "-8.14431000",
    "wikiDataId": null
  },
  {
    "id": 151100,
    "name": "Bola A",
    "state_id": 5091,
    "state_code": "OR",
    "country_id": 207,
    "country_code": "ES",
    "latitude": "42.15104360",
    "longitude": "-7.90482000",
    "wikiDataId": null
  },
  {
    "id": 151101,
    "name": "Bolo O",
    "state_id": 5091,
    "state_code": "OR",
    "country_id": 207,
    "country_code": "ES",
    "latitude": "42.30168960",
    "longitude": "-7.10363960",
    "wikiDataId": null
  },
  {
    "id": 151102,
    "name": "Calvos de Randín",
    "state_id": 5091,
    "state_code": "OR",
    "country_id": 207,
    "country_code": "ES",
    "latitude": "41.90534310",
    "longitude": "-7.87470560",
    "wikiDataId": null
  },
  {
    "id": 33282,
    "name": "Carballeda de Avia",
    "state_id": 5091,
    "state_code": "OR",
    "country_id": 207,
    "country_code": "ES",
    "latitude": "42.32140000",
    "longitude": "-8.16456000",
    "wikiDataId": null
  },
  {
    "id": 151103,
    "name": "Carballeda de Valdeorras",
    "state_id": 5091,
    "state_code": "OR",
    "country_id": 207,
    "country_code": "ES",
    "latitude": "42.32655290",
    "longitude": "-6.85654270",
    "wikiDataId": null
  },
  {
    "id": 151104,
    "name": "Carballiño O",
    "state_id": 5091,
    "state_code": "OR",
    "country_id": 207,
    "country_code": "ES",
    "latitude": "42.43163110",
    "longitude": "-8.07750760",
    "wikiDataId": null
  },
  {
    "id": 33339,
    "name": "Cartelle",
    "state_id": 5091,
    "state_code": "OR",
    "country_id": 207,
    "country_code": "ES",
    "latitude": "42.25109000",
    "longitude": "-8.07062000",
    "wikiDataId": null
  },
  {
    "id": 33473,
    "name": "Castrelo de Miño",
    "state_id": 5091,
    "state_code": "OR",
    "country_id": 207,
    "country_code": "ES",
    "latitude": "42.29798000",
    "longitude": "-8.06697000",
    "wikiDataId": null
  },
  {
    "id": 151105,
    "name": "Castrelo do Val",
    "state_id": 5091,
    "state_code": "OR",
    "country_id": 207,
    "country_code": "ES",
    "latitude": "41.98961620",
    "longitude": "-7.42258810",
    "wikiDataId": null
  },
  {
    "id": 33487,
    "name": "Castro Caldelas",
    "state_id": 5091,
    "state_code": "OR",
    "country_id": 207,
    "country_code": "ES",
    "latitude": "42.37366000",
    "longitude": "-7.42578000",
    "wikiDataId": null
  },
  {
    "id": 33563,
    "name": "Celanova",
    "state_id": 5091,
    "state_code": "OR",
    "country_id": 207,
    "country_code": "ES",
    "latitude": "42.15303000",
    "longitude": "-7.95513000",
    "wikiDataId": null
  },
  {
    "id": 33572,
    "name": "Cenlle",
    "state_id": 5091,
    "state_code": "OR",
    "country_id": 207,
    "country_code": "ES",
    "latitude": "42.34183000",
    "longitude": "-8.08982000",
    "wikiDataId": null
  },
  {
    "id": 151107,
    "name": "Chandrexa de Queixa",
    "state_id": 5091,
    "state_code": "OR",
    "country_id": 207,
    "country_code": "ES",
    "latitude": "42.25477690",
    "longitude": "-7.38145520",
    "wikiDataId": null
  },
  {
    "id": 33727,
    "name": "Coles",
    "state_id": 5091,
    "state_code": "OR",
    "country_id": 207,
    "country_code": "ES",
    "latitude": "42.40000000",
    "longitude": "-7.83333000",
    "wikiDataId": null
  },
  {
    "id": 151106,
    "name": "Cortegada",
    "state_id": 5091,
    "state_code": "OR",
    "country_id": 207,
    "country_code": "ES",
    "latitude": "42.20732230",
    "longitude": "-8.17012000",
    "wikiDataId": null
  },
  {
    "id": 33843,
    "name": "Cualedro",
    "state_id": 5091,
    "state_code": "OR",
    "country_id": 207,
    "country_code": "ES",
    "latitude": "41.98897000",
    "longitude": "-7.59464000",
    "wikiDataId": null
  },
  {
    "id": 34063,
    "name": "Entrimo",
    "state_id": 5091,
    "state_code": "OR",
    "country_id": 207,
    "country_code": "ES",
    "latitude": "41.93297000",
    "longitude": "-8.11725000",
    "wikiDataId": null
  },
  {
    "id": 34095,
    "name": "Esgos",
    "state_id": 5091,
    "state_code": "OR",
    "country_id": 207,
    "country_code": "ES",
    "latitude": "42.32549000",
    "longitude": "-7.69691000",
    "wikiDataId": null
  },
  {
    "id": 151108,
    "name": "Gomesende",
    "state_id": 5091,
    "state_code": "OR",
    "country_id": 207,
    "country_code": "ES",
    "latitude": "42.16322380",
    "longitude": "-8.10348050",
    "wikiDataId": null
  },
  {
    "id": 151109,
    "name": "Gudiña A",
    "state_id": 5091,
    "state_code": "OR",
    "country_id": 207,
    "country_code": "ES",
    "latitude": "42.06057390",
    "longitude": "-7.13930290",
    "wikiDataId": null
  },
  {
    "id": 151110,
    "name": "Irixo O",
    "state_id": 5091,
    "state_code": "OR",
    "country_id": 207,
    "country_code": "ES",
    "latitude": "42.51231640",
    "longitude": "-8.11822650",
    "wikiDataId": null
  },
  {
    "id": 151113,
    "name": "Larouco",
    "state_id": 5091,
    "state_code": "OR",
    "country_id": 207,
    "country_code": "ES",
    "latitude": "42.34651170",
    "longitude": "-7.16084480",
    "wikiDataId": null
  },
  {
    "id": 35007,
    "name": "Laza",
    "state_id": 5091,
    "state_code": "OR",
    "country_id": 207,
    "country_code": "ES",
    "latitude": "42.06136000",
    "longitude": "-7.46200000",
    "wikiDataId": null
  },
  {
    "id": 151114,
    "name": "Leiro",
    "state_id": 5091,
    "state_code": "OR",
    "country_id": 207,
    "country_code": "ES",
    "latitude": "42.36937040",
    "longitude": "-8.14478040",
    "wikiDataId": null
  },
  {
    "id": 151115,
    "name": "Lobeira",
    "state_id": 5091,
    "state_code": "OR",
    "country_id": 207,
    "country_code": "ES",
    "latitude": "41.98645690",
    "longitude": "-8.03958980",
    "wikiDataId": null
  },
  {
    "id": 35095,
    "name": "Lobios",
    "state_id": 5091,
    "state_code": "OR",
    "country_id": 207,
    "country_code": "ES",
    "latitude": "42.40746000",
    "longitude": "-7.53164000",
    "wikiDataId": null
  },
  {
    "id": 35161,
    "name": "Luintra",
    "state_id": 5091,
    "state_code": "OR",
    "country_id": 207,
    "country_code": "ES",
    "latitude": "42.40964000",
    "longitude": "-7.72682000",
    "wikiDataId": null
  },
  {
    "id": 35181,
    "name": "Maceda",
    "state_id": 5091,
    "state_code": "OR",
    "country_id": 207,
    "country_code": "ES",
    "latitude": "42.26972000",
    "longitude": "-7.65052000",
    "wikiDataId": null
  },
  {
    "id": 35268,
    "name": "Manzaneda",
    "state_id": 5091,
    "state_code": "OR",
    "country_id": 207,
    "country_code": "ES",
    "latitude": "42.30962000",
    "longitude": "-7.23209000",
    "wikiDataId": null
  },
  {
    "id": 35323,
    "name": "Maside",
    "state_id": 5091,
    "state_code": "OR",
    "country_id": 207,
    "country_code": "ES",
    "latitude": "42.41031000",
    "longitude": "-8.02582000",
    "wikiDataId": null
  },
  {
    "id": 35392,
    "name": "Melón",
    "state_id": 5091,
    "state_code": "OR",
    "country_id": 207,
    "country_code": "ES",
    "latitude": "42.26016000",
    "longitude": "-8.21400000",
    "wikiDataId": null
  },
  {
    "id": 151116,
    "name": "Merca A",
    "state_id": 5091,
    "state_code": "OR",
    "country_id": 207,
    "country_code": "ES",
    "latitude": "42.22228080",
    "longitude": "-7.90548160",
    "wikiDataId": null
  },
  {
    "id": 151117,
    "name": "Mezquita A",
    "state_id": 5091,
    "state_code": "OR",
    "country_id": 207,
    "country_code": "ES",
    "latitude": "42.34697080",
    "longitude": "-7.85456320",
    "wikiDataId": null
  },
  {
    "id": 35547,
    "name": "Montederramo",
    "state_id": 5091,
    "state_code": "OR",
    "country_id": 207,
    "country_code": "ES",
    "latitude": "42.27554000",
    "longitude": "-7.50138000",
    "wikiDataId": null
  },
  {
    "id": 151118,
    "name": "Monterrei",
    "state_id": 5091,
    "state_code": "OR",
    "country_id": 207,
    "country_code": "ES",
    "latitude": "41.94701790",
    "longitude": "-7.44923960",
    "wikiDataId": null
  },
  {
    "id": 35660,
    "name": "Muiños",
    "state_id": 5091,
    "state_code": "OR",
    "country_id": 207,
    "country_code": "ES",
    "latitude": "41.95609000",
    "longitude": "-7.97396000",
    "wikiDataId": null
  },
  {
    "id": 35817,
    "name": "Nogueira de Ramuín",
    "state_id": 5091,
    "state_code": "OR",
    "country_id": 207,
    "country_code": "ES",
    "latitude": "42.41712000",
    "longitude": "-7.74982000",
    "wikiDataId": null
  },
  {
    "id": 35846,
    "name": "O Barco de Valdeorras",
    "state_id": 5091,
    "state_code": "OR",
    "country_id": 207,
    "country_code": "ES",
    "latitude": "42.41642000",
    "longitude": "-6.99005000",
    "wikiDataId": null
  },
  {
    "id": 35847,
    "name": "O Carballiño",
    "state_id": 5091,
    "state_code": "OR",
    "country_id": 207,
    "country_code": "ES",
    "latitude": "42.43163000",
    "longitude": "-8.07899000",
    "wikiDataId": null
  },
  {
    "id": 35865,
    "name": "Oimbra",
    "state_id": 5091,
    "state_code": "OR",
    "country_id": 207,
    "country_code": "ES",
    "latitude": "41.88554000",
    "longitude": "-7.47216000",
    "wikiDataId": null
  },
  {
    "id": 35983,
    "name": "Ourense",
    "state_id": 5091,
    "state_code": "OR",
    "country_id": 207,
    "country_code": "ES",
    "latitude": "42.33669000",
    "longitude": "-7.86407000",
    "wikiDataId": null
  },
  {
    "id": 151119,
    "name": "Paderne de Allariz",
    "state_id": 5091,
    "state_code": "OR",
    "country_id": 207,
    "country_code": "ES",
    "latitude": "42.27146620",
    "longitude": "-7.75094040",
    "wikiDataId": null
  },
  {
    "id": 35993,
    "name": "Padrenda",
    "state_id": 5091,
    "state_code": "OR",
    "country_id": 207,
    "country_code": "ES",
    "latitude": "42.13333000",
    "longitude": "-8.15000000",
    "wikiDataId": null
  },
  {
    "id": 151120,
    "name": "Parada de Sil",
    "state_id": 5091,
    "state_code": "OR",
    "country_id": 207,
    "country_code": "ES",
    "latitude": "42.38242790",
    "longitude": "-7.56772080",
    "wikiDataId": null
  },
  {
    "id": 36147,
    "name": "Pereiro de Aguiar",
    "state_id": 5091,
    "state_code": "OR",
    "country_id": 207,
    "country_code": "ES",
    "latitude": "42.34524000",
    "longitude": "-7.80008000",
    "wikiDataId": null
  },
  {
    "id": 151121,
    "name": "Pereiro de Aguiar O",
    "state_id": 5091,
    "state_code": "OR",
    "country_id": 207,
    "country_code": "ES",
    "latitude": "42.34634330",
    "longitude": "-7.80026370",
    "wikiDataId": null
  },
  {
    "id": 151122,
    "name": "Peroxa A",
    "state_id": 5091,
    "state_code": "OR",
    "country_id": 207,
    "country_code": "ES",
    "latitude": "42.45231580",
    "longitude": "-7.79601180",
    "wikiDataId": null
  },
  {
    "id": 36159,
    "name": "Petín",
    "state_id": 5091,
    "state_code": "OR",
    "country_id": 207,
    "country_code": "ES",
    "latitude": "42.38191000",
    "longitude": "-7.12899000",
    "wikiDataId": null
  },
  {
    "id": 36232,
    "name": "Piñor",
    "state_id": 5091,
    "state_code": "OR",
    "country_id": 207,
    "country_code": "ES",
    "latitude": "42.50120000",
    "longitude": "-8.00151000",
    "wikiDataId": null
  },
  {
    "id": 151123,
    "name": "Pobra de Trives A",
    "state_id": 5091,
    "state_code": "OR",
    "country_id": 207,
    "country_code": "ES",
    "latitude": "42.33934680",
    "longitude": "-7.25380970",
    "wikiDataId": null
  },
  {
    "id": 151124,
    "name": "Pontedeva",
    "state_id": 5091,
    "state_code": "OR",
    "country_id": 207,
    "country_code": "ES",
    "latitude": "42.16561270",
    "longitude": "-8.13768240",
    "wikiDataId": null
  },
  {
    "id": 36278,
    "name": "Porqueira",
    "state_id": 5091,
    "state_code": "OR",
    "country_id": 207,
    "country_code": "ES",
    "latitude": "42.01667000",
    "longitude": "-7.85000000",
    "wikiDataId": null
  },
  {
    "id": 151125,
    "name": "Punxín",
    "state_id": 5091,
    "state_code": "OR",
    "country_id": 207,
    "country_code": "ES",
    "latitude": "42.37862830",
    "longitude": "-8.01379400",
    "wikiDataId": null
  },
  {
    "id": 36527,
    "name": "Quintela de Leirado",
    "state_id": 5091,
    "state_code": "OR",
    "country_id": 207,
    "country_code": "ES",
    "latitude": "42.13967000",
    "longitude": "-8.10126000",
    "wikiDataId": null
  },
  {
    "id": 36542,
    "name": "Rairiz de Veiga",
    "state_id": 5091,
    "state_code": "OR",
    "country_id": 207,
    "country_code": "ES",
    "latitude": "42.08364000",
    "longitude": "-7.83503000",
    "wikiDataId": null
  },
  {
    "id": 151126,
    "name": "Ramirás",
    "state_id": 5091,
    "state_code": "OR",
    "country_id": 207,
    "country_code": "ES",
    "latitude": "42.28320310",
    "longitude": "-8.01928670",
    "wikiDataId": null
  },
  {
    "id": 36607,
    "name": "Ribadavia",
    "state_id": 5091,
    "state_code": "OR",
    "country_id": 207,
    "country_code": "ES",
    "latitude": "42.28804000",
    "longitude": "-8.14362000",
    "wikiDataId": null
  },
  {
    "id": 36642,
    "name": "Riós",
    "state_id": 5091,
    "state_code": "OR",
    "country_id": 207,
    "country_code": "ES",
    "latitude": "41.97457000",
    "longitude": "-7.28234000",
    "wikiDataId": null
  },
  {
    "id": 151128,
    "name": "Rúa A",
    "state_id": 5091,
    "state_code": "OR",
    "country_id": 207,
    "country_code": "ES",
    "latitude": "42.33932800",
    "longitude": "-7.84871580",
    "wikiDataId": null
  },
  {
    "id": 151129,
    "name": "Rubiá",
    "state_id": 5091,
    "state_code": "OR",
    "country_id": 207,
    "country_code": "ES",
    "latitude": "42.47145850",
    "longitude": "-6.88872020",
    "wikiDataId": null
  },
  {
    "id": 36801,
    "name": "San Amaro",
    "state_id": 5091,
    "state_code": "OR",
    "country_id": 207,
    "country_code": "ES",
    "latitude": "42.37385000",
    "longitude": "-8.07347000",
    "wikiDataId": null
  },
  {
    "id": 151130,
    "name": "San Cibrao das Viñas",
    "state_id": 5091,
    "state_code": "OR",
    "country_id": 207,
    "country_code": "ES",
    "latitude": "42.29484450",
    "longitude": "-7.87284030",
    "wikiDataId": null
  },
  {
    "id": 151131,
    "name": "San Cristovo de Cea",
    "state_id": 5091,
    "state_code": "OR",
    "country_id": 207,
    "country_code": "ES",
    "latitude": "42.50038680",
    "longitude": "-7.94838980",
    "wikiDataId": null
  },
  {
    "id": 151127,
    "name": "San Xoán de Río",
    "state_id": 5091,
    "state_code": "OR",
    "country_id": 207,
    "country_code": "ES",
    "latitude": "42.37059030",
    "longitude": "-7.29937170",
    "wikiDataId": null
  },
  {
    "id": 151132,
    "name": "Sandiás",
    "state_id": 5091,
    "state_code": "OR",
    "country_id": 207,
    "country_code": "ES",
    "latitude": "42.10250340",
    "longitude": "-7.75253520",
    "wikiDataId": null
  },
  {
    "id": 37167,
    "name": "Sarreaus",
    "state_id": 5091,
    "state_code": "OR",
    "country_id": 207,
    "country_code": "ES",
    "latitude": "42.08784000",
    "longitude": "-7.60348000",
    "wikiDataId": null
  },
  {
    "id": 37345,
    "name": "Taboadela",
    "state_id": 5091,
    "state_code": "OR",
    "country_id": 207,
    "country_code": "ES",
    "latitude": "42.24234000",
    "longitude": "-7.82719000",
    "wikiDataId": null
  },
  {
    "id": 151133,
    "name": "Teixeira A",
    "state_id": 5091,
    "state_code": "OR",
    "country_id": 207,
    "country_code": "ES",
    "latitude": "42.39118320",
    "longitude": "-7.47280100",
    "wikiDataId": null
  },
  {
    "id": 37610,
    "name": "Toén",
    "state_id": 5091,
    "state_code": "OR",
    "country_id": 207,
    "country_code": "ES",
    "latitude": "42.31765000",
    "longitude": "-7.95435000",
    "wikiDataId": null
  },
  {
    "id": 37620,
    "name": "Trasmiras",
    "state_id": 5091,
    "state_code": "OR",
    "country_id": 207,
    "country_code": "ES",
    "latitude": "42.02540000",
    "longitude": "-7.61735000",
    "wikiDataId": null
  },
  {
    "id": 151134,
    "name": "Veiga A",
    "state_id": 5091,
    "state_code": "OR",
    "country_id": 207,
    "country_code": "ES",
    "latitude": "42.13776390",
    "longitude": "-7.92993400",
    "wikiDataId": null
  },
  {
    "id": 37951,
    "name": "Verea",
    "state_id": 5091,
    "state_code": "OR",
    "country_id": 207,
    "country_code": "ES",
    "latitude": "42.10653000",
    "longitude": "-8.00092000",
    "wikiDataId": null
  },
  {
    "id": 37955,
    "name": "Verín",
    "state_id": 5091,
    "state_code": "OR",
    "country_id": 207,
    "country_code": "ES",
    "latitude": "41.94149000",
    "longitude": "-7.43809000",
    "wikiDataId": null
  },
  {
    "id": 151135,
    "name": "Viana do Bolo",
    "state_id": 5091,
    "state_code": "OR",
    "country_id": 207,
    "country_code": "ES",
    "latitude": "42.33896300",
    "longitude": "-7.85202770",
    "wikiDataId": null
  },
  {
    "id": 151136,
    "name": "Vilamarín",
    "state_id": 5091,
    "state_code": "OR",
    "country_id": 207,
    "country_code": "ES",
    "latitude": "42.46507870",
    "longitude": "-7.89018920",
    "wikiDataId": null
  },
  {
    "id": 151137,
    "name": "Vilamartín de Valdeorras",
    "state_id": 5091,
    "state_code": "OR",
    "country_id": 207,
    "country_code": "ES",
    "latitude": "42.41339370",
    "longitude": "-7.05925530",
    "wikiDataId": null
  },
  {
    "id": 151138,
    "name": "Vilar de Barrio",
    "state_id": 5091,
    "state_code": "OR",
    "country_id": 207,
    "country_code": "ES",
    "latitude": "42.15979160",
    "longitude": "-7.61277720",
    "wikiDataId": null
  },
  {
    "id": 151139,
    "name": "Vilar de Santos",
    "state_id": 5091,
    "state_code": "OR",
    "country_id": 207,
    "country_code": "ES",
    "latitude": "42.08612310",
    "longitude": "-7.79465270",
    "wikiDataId": null
  },
  {
    "id": 151140,
    "name": "Vilardevós",
    "state_id": 5091,
    "state_code": "OR",
    "country_id": 207,
    "country_code": "ES",
    "latitude": "41.90731400",
    "longitude": "-7.31255920",
    "wikiDataId": null
  },
  {
    "id": 151141,
    "name": "Vilariño de Conso",
    "state_id": 5091,
    "state_code": "OR",
    "country_id": 207,
    "country_code": "ES",
    "latitude": "42.16605680",
    "longitude": "-7.18327240",
    "wikiDataId": null
  },
  {
    "id": 38422,
    "name": "Xinzo de Limia",
    "state_id": 5091,
    "state_code": "OR",
    "country_id": 207,
    "country_code": "ES",
    "latitude": "42.06350000",
    "longitude": "-7.72459000",
    "wikiDataId": null
  },
  {
    "id": 151111,
    "name": "Xunqueira de Ambía",
    "state_id": 5091,
    "state_code": "OR",
    "country_id": 207,
    "country_code": "ES",
    "latitude": "42.20362720",
    "longitude": "-7.73691740",
    "wikiDataId": null
  },
  {
    "id": 151112,
    "name": "Xunqueira de Espadanedo",
    "state_id": 5091,
    "state_code": "OR",
    "country_id": 207,
    "country_code": "ES",
    "latitude": "42.31837970",
    "longitude": "-7.62938430",
    "wikiDataId": null
  }
]