[
  {
    "id": 130708,
    "name": "Al Ma'afer",
    "state_id": 1231,
    "state_code": "TA",
    "country_id": 245,
    "country_code": "YE",
    "latitude": "13.37420000",
    "longitude": "43.92620000",
    "wikiDataId": null
  },
  {
    "id": 130728,
    "name": "Al Mawasit",
    "state_id": 1231,
    "state_code": "TA",
    "country_id": 245,
    "country_code": "YE",
    "latitude": "13.30420000",
    "longitude": "44.10050000",
    "wikiDataId": null
  },
  {
    "id": 130734,
    "name": "Al Misrakh",
    "state_id": 1231,
    "state_code": "TA",
    "country_id": 245,
    "country_code": "YE",
    "latitude": "13.47020000",
    "longitude": "44.03770000",
    "wikiDataId": null
  },
  {
    "id": 130736,
    "name": "Al Mudhaffar",
    "state_id": 1231,
    "state_code": "TA",
    "country_id": 245,
    "country_code": "YE",
    "latitude": "13.58310000",
    "longitude": "43.99270000",
    "wikiDataId": null
  },
  {
    "id": 130739,
    "name": "Al Mukhā’",
    "state_id": 1231,
    "state_code": "TA",
    "country_id": 245,
    "country_code": "YE",
    "latitude": "13.51998000",
    "longitude": "43.42798000",
    "wikiDataId": null
  },
  {
    "id": 130747,
    "name": "Al Qahirah",
    "state_id": 1231,
    "state_code": "TA",
    "country_id": 245,
    "country_code": "YE",
    "latitude": "13.58490000",
    "longitude": "44.01010000",
    "wikiDataId": null
  },
  {
    "id": 130753,
    "name": "Al Wazi'iyah",
    "state_id": 1231,
    "state_code": "TA",
    "country_id": 245,
    "country_code": "YE",
    "latitude": "13.18460000",
    "longitude": "43.72980000",
    "wikiDataId": null
  },
  {
    "id": 130783,
    "name": "As Silw",
    "state_id": 1231,
    "state_code": "TA",
    "country_id": 245,
    "country_code": "YE",
    "latitude": "13.34590000",
    "longitude": "44.20720000",
    "wikiDataId": null
  },
  {
    "id": 130790,
    "name": "Ash Shamayatayn",
    "state_id": 1231,
    "state_code": "TA",
    "country_id": 245,
    "country_code": "YE",
    "latitude": "13.18220000",
    "longitude": "43.98000000",
    "wikiDataId": null
  },
  {
    "id": 130798,
    "name": "At Ta‘izzīyah",
    "state_id": 1231,
    "state_code": "TA",
    "country_id": 245,
    "country_code": "YE",
    "latitude": "13.69479000",
    "longitude": "44.00941000",
    "wikiDataId": null
  },
  {
    "id": 130838,
    "name": "Dhubab",
    "state_id": 1231,
    "state_code": "TA",
    "country_id": 245,
    "country_code": "YE",
    "latitude": "12.96590000",
    "longitude": "43.47240000",
    "wikiDataId": null
  },
  {
    "id": 130840,
    "name": "Dimnat Khadir",
    "state_id": 1231,
    "state_code": "TA",
    "country_id": 245,
    "country_code": "YE",
    "latitude": "13.43860000",
    "longitude": "44.25420000",
    "wikiDataId": null
  },
  {
    "id": 130861,
    "name": "Hayfan",
    "state_id": 1231,
    "state_code": "TA",
    "country_id": 245,
    "country_code": "YE",
    "latitude": "13.29060000",
    "longitude": "44.26070000",
    "wikiDataId": null
  },
  {
    "id": 130874,
    "name": "Jabal Habashy",
    "state_id": 1231,
    "state_code": "TA",
    "country_id": 245,
    "country_code": "YE",
    "latitude": "13.46650000",
    "longitude": "43.88100000",
    "wikiDataId": null
  },
  {
    "id": 130911,
    "name": "Maqbanah",
    "state_id": 1231,
    "state_code": "TA",
    "country_id": 245,
    "country_code": "YE",
    "latitude": "13.62120000",
    "longitude": "43.66740000",
    "wikiDataId": null
  },
  {
    "id": 130914,
    "name": "Mashra'a Wa Hadnan",
    "state_id": 1231,
    "state_code": "TA",
    "country_id": 245,
    "country_code": "YE",
    "latitude": "13.54170000",
    "longitude": "43.99830000",
    "wikiDataId": null
  },
  {
    "id": 130932,
    "name": "Māwīyah",
    "state_id": 1231,
    "state_code": "TA",
    "country_id": 245,
    "country_code": "YE",
    "latitude": "13.58461000",
    "longitude": "44.31912000",
    "wikiDataId": null
  },
  {
    "id": 130917,
    "name": "Mawza",
    "state_id": 1231,
    "state_code": "TA",
    "country_id": 245,
    "country_code": "YE",
    "latitude": "13.37820000",
    "longitude": "43.61450000",
    "wikiDataId": null
  },
  {
    "id": 130960,
    "name": "Sabir Al Mawadim",
    "state_id": 1231,
    "state_code": "TA",
    "country_id": 245,
    "country_code": "YE",
    "latitude": "13.53180000",
    "longitude": "44.04620000",
    "wikiDataId": null
  },
  {
    "id": 130962,
    "name": "Salh",
    "state_id": 1231,
    "state_code": "TA",
    "country_id": 245,
    "country_code": "YE",
    "latitude": "13.58390000",
    "longitude": "44.04020000",
    "wikiDataId": null
  },
  {
    "id": 130963,
    "name": "Sama",
    "state_id": 1231,
    "state_code": "TA",
    "country_id": 245,
    "country_code": "YE",
    "latitude": "13.38090000",
    "longitude": "44.11660000",
    "wikiDataId": null
  },
  {
    "id": 130976,
    "name": "Shara'b Ar Rawnah",
    "state_id": 1231,
    "state_code": "TA",
    "country_id": 245,
    "country_code": "YE",
    "latitude": "13.73360000",
    "longitude": "43.76720000",
    "wikiDataId": null
  },
  {
    "id": 130977,
    "name": "Shara'b As Salam",
    "state_id": 1231,
    "state_code": "TA",
    "country_id": 245,
    "country_code": "YE",
    "latitude": "13.78320000",
    "longitude": "43.88610000",
    "wikiDataId": null
  },
  {
    "id": 130988,
    "name": "Ta‘izz",
    "state_id": 1231,
    "state_code": "TA",
    "country_id": 245,
    "country_code": "YE",
    "latitude": "13.57952000",
    "longitude": "44.02091000",
    "wikiDataId": null
  },
  {
    "id": 130995,
    "name": "Village of Alamrah",
    "state_id": 1231,
    "state_code": "TA",
    "country_id": 245,
    "country_code": "YE",
    "latitude": "13.74318000",
    "longitude": "43.72992000",
    "wikiDataId": null
  }
]