[
  {
    "id": 57434,
    "name": "Abū Ghaush",
    "state_id": 1370,
    "state_code": "JM",
    "country_id": 106,
    "country_code": "IL",
    "latitude": "31.80592000",
    "longitude": "35.10930000",
    "wikiDataId": null
  },
  {
    "id": 57447,
    "name": "Bet Shemesh",
    "state_id": 1370,
    "state_code": "JM",
    "country_id": 106,
    "country_code": "IL",
    "latitude": "31.73072000",
    "longitude": "34.99293000",
    "wikiDataId": null
  },
  {
    "id": 57475,
    "name": "Har Adar",
    "state_id": 1370,
    "state_code": "JM",
    "country_id": 106,
    "country_code": "IL",
    "latitude": "31.82754000",
    "longitude": "35.13093000",
    "wikiDataId": null
  },
  {
    "id": 57484,
    "name": "Jerusalem",
    "state_id": 1370,
    "state_code": "JM",
    "country_id": 106,
    "country_code": "IL",
    "latitude": "31.76904000",
    "longitude": "35.21633000",
    "wikiDataId": null
  },
  {
    "id": 57509,
    "name": "Mevasseret Ẕiyyon",
    "state_id": 1370,
    "state_code": "JM",
    "country_id": 106,
    "country_code": "IL",
    "latitude": "31.80186000",
    "longitude": "35.15072000",
    "wikiDataId": null
  },
  {
    "id": 57514,
    "name": "Modiin Ilit",
    "state_id": 1370,
    "state_code": "JM",
    "country_id": 106,
    "country_code": "IL",
    "latitude": "31.93221000",
    "longitude": "35.04416000",
    "wikiDataId": null
  },
  {
    "id": 57571,
    "name": "West Jerusalem",
    "state_id": 1370,
    "state_code": "JM",
    "country_id": 106,
    "country_code": "IL",
    "latitude": "31.78199000",
    "longitude": "35.21961000",
    "wikiDataId": null
  },
  {
    "id": 57579,
    "name": "Ẕur Hadassa",
    "state_id": 1370,
    "state_code": "JM",
    "country_id": 106,
    "country_code": "IL",
    "latitude": "31.71912000",
    "longitude": "35.09708000",
    "wikiDataId": null
  }
]