[
  {
    "id": 48259,
    "name": "Antrim",
    "state_id": 2412,
    "state_code": "ANN",
    "country_id": 232,
    "country_code": "GB",
    "latitude": "54.70000000",
    "longitude": "-6.20000000",
    "wikiDataId": null
  },
  {
    "id": 48260,
    "name": "Antrim and Newtownabbey",
    "state_id": 2412,
    "state_code": "ANN",
    "country_id": 232,
    "country_code": "GB",
    "latitude": "54.70177000",
    "longitude": "-6.19770000",
    "wikiDataId": null
  },
  {
    "id": 48352,
    "name": "Ballyclare",
    "state_id": 2412,
    "state_code": "ANN",
    "country_id": 232,
    "country_code": "GB",
    "latitude": "54.75089000",
    "longitude": "-5.99944000",
    "wikiDataId": null
  },
  {
    "id": 49188,
    "name": "Crumlin",
    "state_id": 2412,
    "state_code": "ANN",
    "country_id": 232,
    "country_code": "GB",
    "latitude": "54.62054000",
    "longitude": "-6.21414000",
    "wikiDataId": null
  },
  {
    "id": 49296,
    "name": "Doagh",
    "state_id": 2412,
    "state_code": "ANN",
    "country_id": 232,
    "country_code": "GB",
    "latitude": "54.75000000",
    "longitude": "-6.08333000",
    "wikiDataId": null
  },
  {
    "id": 49656,
    "name": "Glenavy",
    "state_id": 2412,
    "state_code": "ANN",
    "country_id": 232,
    "country_code": "GB",
    "latitude": "54.59231000",
    "longitude": "-6.21371000",
    "wikiDataId": null
  },
  {
    "id": 51030,
    "name": "Randalstown",
    "state_id": 2412,
    "state_code": "ANN",
    "country_id": 232,
    "country_code": "GB",
    "latitude": "54.75000000",
    "longitude": "-6.30000000",
    "wikiDataId": null
  },
  {
    "id": 51572,
    "name": "Templepatrick",
    "state_id": 2412,
    "state_code": "ANN",
    "country_id": 232,
    "country_code": "GB",
    "latitude": "54.68333000",
    "longitude": "-6.08333000",
    "wikiDataId": null
  }
]