[
  {
    "id": 18975,
    "name": "Corral",
    "state_id": 2834,
    "state_code": "LR",
    "country_id": 44,
    "country_code": "CL",
    "latitude": "-39.88730000",
    "longitude": "-73.43101000",
    "wikiDataId": null
  },
  {
    "id": 148493,
    "name": "Futrono",
    "state_id": 2834,
    "state_code": "LR",
    "country_id": 44,
    "country_code": "CL",
    "latitude": "-40.13333333",
    "longitude": "-72.40000000",
    "wikiDataId": null
  },
  {
    "id": 18995,
    "name": "La Unión",
    "state_id": 2834,
    "state_code": "LR",
    "country_id": 44,
    "country_code": "CL",
    "latitude": "-40.29313000",
    "longitude": "-73.08167000",
    "wikiDataId": null
  },
  {
    "id": 148494,
    "name": "Lago Ranco",
    "state_id": 2834,
    "state_code": "LR",
    "country_id": 44,
    "country_code": "CL",
    "latitude": "-40.31666667",
    "longitude": "-72.50000000",
    "wikiDataId": null
  },
  {
    "id": 148495,
    "name": "Lanco",
    "state_id": 2834,
    "state_code": "LR",
    "country_id": 44,
    "country_code": "CL",
    "latitude": "-39.45246000",
    "longitude": "-72.77117000",
    "wikiDataId": null
  },
  {
    "id": 148496,
    "name": "Los Lagos",
    "state_id": 2834,
    "state_code": "LR",
    "country_id": 44,
    "country_code": "CL",
    "latitude": "-39.85000000",
    "longitude": "-72.83333333",
    "wikiDataId": null
  },
  {
    "id": 148498,
    "name": "Máfil",
    "state_id": 2834,
    "state_code": "LR",
    "country_id": 44,
    "country_code": "CL",
    "latitude": "-39.65000000",
    "longitude": "-72.95000000",
    "wikiDataId": null
  },
  {
    "id": 148497,
    "name": "Mariquina",
    "state_id": 2834,
    "state_code": "LR",
    "country_id": 44,
    "country_code": "CL",
    "latitude": "-39.51666667",
    "longitude": "-72.96666667",
    "wikiDataId": null
  },
  {
    "id": 148499,
    "name": "Paillaco",
    "state_id": 2834,
    "state_code": "LR",
    "country_id": 44,
    "country_code": "CL",
    "latitude": "-40.07060000",
    "longitude": "-72.87270000",
    "wikiDataId": null
  },
  {
    "id": 19022,
    "name": "Panguipulli",
    "state_id": 2834,
    "state_code": "LR",
    "country_id": 44,
    "country_code": "CL",
    "latitude": "-39.64355000",
    "longitude": "-72.33269000",
    "wikiDataId": null
  },
  {
    "id": 19098,
    "name": "Río Bueno",
    "state_id": 2834,
    "state_code": "LR",
    "country_id": 44,
    "country_code": "CL",
    "latitude": "-40.33494000",
    "longitude": "-72.95564000",
    "wikiDataId": null
  },
  {
    "id": 19121,
    "name": "Valdivia",
    "state_id": 2834,
    "state_code": "LR",
    "country_id": 44,
    "country_code": "CL",
    "latitude": "-39.81422000",
    "longitude": "-73.24589000",
    "wikiDataId": null
  }
]