[
  {
    "id": 107126,
    "name": "Alaçam",
    "state_id": 2220,
    "state_code": "55",
    "country_id": 225,
    "country_code": "TR",
    "latitude": "41.61563000",
    "longitude": "35.60632000",
    "wikiDataId": null
  },
  {
    "id": 107200,
    "name": "Asarcık",
    "state_id": 2220,
    "state_code": "55",
    "country_id": 225,
    "country_code": "TR",
    "latitude": "41.03556000",
    "longitude": "36.23556000",
    "wikiDataId": null
  },
  {
    "id": 107206,
    "name": "Atakum",
    "state_id": 2220,
    "state_code": "55",
    "country_id": 225,
    "country_code": "TR",
    "latitude": "41.34730000",
    "longitude": "36.23051000",
    "wikiDataId": null
  },
  {
    "id": 107230,
    "name": "Ayvacık",
    "state_id": 2220,
    "state_code": "55",
    "country_id": 225,
    "country_code": "TR",
    "latitude": "40.99111000",
    "longitude": "36.63139000",
    "wikiDataId": null
  },
  {
    "id": 107257,
    "name": "Bafra",
    "state_id": 2220,
    "state_code": "55",
    "country_id": 225,
    "country_code": "TR",
    "latitude": "41.46082000",
    "longitude": "35.84435000",
    "wikiDataId": null
  },
  {
    "id": 107423,
    "name": "Canik",
    "state_id": 2220,
    "state_code": "55",
    "country_id": 225,
    "country_code": "TR",
    "latitude": "41.23858000",
    "longitude": "36.33694000",
    "wikiDataId": null
  },
  {
    "id": 108783,
    "name": "Çarşamba",
    "state_id": 2220,
    "state_code": "55",
    "country_id": 225,
    "country_code": "TR",
    "latitude": "41.19889000",
    "longitude": "36.72194000",
    "wikiDataId": null
  },
  {
    "id": 107809,
    "name": "Havza",
    "state_id": 2220,
    "state_code": "55",
    "country_id": 225,
    "country_code": "TR",
    "latitude": "40.97056000",
    "longitude": "35.66222000",
    "wikiDataId": null
  },
  {
    "id": 108891,
    "name": "İlkadım",
    "state_id": 2220,
    "state_code": "55",
    "country_id": 225,
    "country_code": "TR",
    "latitude": "41.29161000",
    "longitude": "36.30106000",
    "wikiDataId": null
  },
  {
    "id": 107940,
    "name": "Kavak",
    "state_id": 2220,
    "state_code": "55",
    "country_id": 225,
    "country_code": "TR",
    "latitude": "41.07833000",
    "longitude": "36.04250000",
    "wikiDataId": null
  },
  {
    "id": 108125,
    "name": "Ladik",
    "state_id": 2220,
    "state_code": "55",
    "country_id": 225,
    "country_code": "TR",
    "latitude": "40.91056000",
    "longitude": "35.89194000",
    "wikiDataId": null
  },
  {
    "id": 108269,
    "name": "Ondokuzmayıs",
    "state_id": 2220,
    "state_code": "55",
    "country_id": 225,
    "country_code": "TR",
    "latitude": "41.51188000",
    "longitude": "36.07298000",
    "wikiDataId": null
  },
  {
    "id": 108377,
    "name": "Salıpazarı",
    "state_id": 2220,
    "state_code": "55",
    "country_id": 225,
    "country_code": "TR",
    "latitude": "41.09352000",
    "longitude": "36.81718000",
    "wikiDataId": null
  },
  {
    "id": 108561,
    "name": "Tekkeköy",
    "state_id": 2220,
    "state_code": "55",
    "country_id": 225,
    "country_code": "TR",
    "latitude": "41.14493000",
    "longitude": "36.46205000",
    "wikiDataId": null
  },
  {
    "id": 108573,
    "name": "Terme",
    "state_id": 2220,
    "state_code": "55",
    "country_id": 225,
    "country_code": "TR",
    "latitude": "41.20917000",
    "longitude": "36.97389000",
    "wikiDataId": null
  },
  {
    "id": 108651,
    "name": "Vezirköprü",
    "state_id": 2220,
    "state_code": "55",
    "country_id": 225,
    "country_code": "TR",
    "latitude": "41.14361000",
    "longitude": "35.45472000",
    "wikiDataId": null
  },
  {
    "id": 108660,
    "name": "Yakakent",
    "state_id": 2220,
    "state_code": "55",
    "country_id": 225,
    "country_code": "TR",
    "latitude": "41.63250000",
    "longitude": "35.52889000",
    "wikiDataId": null
  }
]