[
  {
    "id": 68019,
    "name": "Abelardo L. Rodríguez",
    "state_id": 3475,
    "state_code": "CAM",
    "country_id": 142,
    "country_code": "MX",
    "latitude": "18.72842000",
    "longitude": "-90.90456000",
    "wikiDataId": null
  },
  {
    "id": 68197,
    "name": "Alfredo V. Bonfil",
    "state_id": 3475,
    "state_code": "CAM",
    "country_id": 142,
    "country_code": "MX",
    "latitude": "19.53032000",
    "longitude": "-90.18214000",
    "wikiDataId": null
  },
  {
    "id": 68223,
    "name": "Altamira de Zináparo",
    "state_id": 3475,
    "state_code": "CAM",
    "country_id": 142,
    "country_code": "MX",
    "latitude": "18.58208000",
    "longitude": "-90.25610000",
    "wikiDataId": null
  },
  {
    "id": 68393,
    "name": "Atasta",
    "state_id": 3475,
    "state_code": "CAM",
    "country_id": 142,
    "country_code": "MX",
    "latitude": "18.61954000",
    "longitude": "-92.10326000",
    "wikiDataId": null
  },
  {
    "id": 68481,
    "name": "Bacabchén",
    "state_id": 3475,
    "state_code": "CAM",
    "country_id": 142,
    "country_code": "MX",
    "latitude": "20.28903000",
    "longitude": "-90.05602000",
    "wikiDataId": null
  },
  {
    "id": 68696,
    "name": "Bécal",
    "state_id": 3475,
    "state_code": "CAM",
    "country_id": 142,
    "country_code": "MX",
    "latitude": "20.44172000",
    "longitude": "-90.02738000",
    "wikiDataId": null
  },
  {
    "id": 68606,
    "name": "Benito Juárez Uno",
    "state_id": 3475,
    "state_code": "CAM",
    "country_id": 142,
    "country_code": "MX",
    "latitude": "18.27695000",
    "longitude": "-91.09914000",
    "wikiDataId": null
  },
  {
    "id": 68630,
    "name": "Bolonchén de Rejón",
    "state_id": 3475,
    "state_code": "CAM",
    "country_id": 142,
    "country_code": "MX",
    "latitude": "20.00386000",
    "longitude": "-89.74663000",
    "wikiDataId": null
  },
  {
    "id": 68726,
    "name": "Calakmul",
    "state_id": 3475,
    "state_code": "CAM",
    "country_id": 142,
    "country_code": "MX",
    "latitude": "18.00000000",
    "longitude": "-89.75000000",
    "wikiDataId": null
  },
  {
    "id": 68741,
    "name": "Calkiní",
    "state_id": 3475,
    "state_code": "CAM",
    "country_id": 142,
    "country_code": "MX",
    "latitude": "20.38583000",
    "longitude": "-89.98764000",
    "wikiDataId": null
  },
  {
    "id": 68770,
    "name": "Campeche",
    "state_id": 3475,
    "state_code": "CAM",
    "country_id": 142,
    "country_code": "MX",
    "latitude": "19.84386000",
    "longitude": "-90.52554000",
    "wikiDataId": null
  },
  {
    "id": 68789,
    "name": "Candelaria",
    "state_id": 3475,
    "state_code": "CAM",
    "country_id": 142,
    "country_code": "MX",
    "latitude": "18.00000000",
    "longitude": "-90.75000000",
    "wikiDataId": null
  },
  {
    "id": 68827,
    "name": "Carmen",
    "state_id": 3475,
    "state_code": "CAM",
    "country_id": 142,
    "country_code": "MX",
    "latitude": "18.63000000",
    "longitude": "-91.83000000",
    "wikiDataId": null
  },
  {
    "id": 68838,
    "name": "Carrillo Puerto",
    "state_id": 3475,
    "state_code": "CAM",
    "country_id": 142,
    "country_code": "MX",
    "latitude": "19.09400000",
    "longitude": "-90.52279000",
    "wikiDataId": null
  },
  {
    "id": 68858,
    "name": "Castamay",
    "state_id": 3475,
    "state_code": "CAM",
    "country_id": 142,
    "country_code": "MX",
    "latitude": "19.83782000",
    "longitude": "-90.43181000",
    "wikiDataId": null
  },
  {
    "id": 68968,
    "name": "Champotón",
    "state_id": 3475,
    "state_code": "CAM",
    "country_id": 142,
    "country_code": "MX",
    "latitude": "19.35042000",
    "longitude": "-90.70991000",
    "wikiDataId": null
  },
  {
    "id": 69019,
    "name": "Chicbul",
    "state_id": 3475,
    "state_code": "CAM",
    "country_id": 142,
    "country_code": "MX",
    "latitude": "18.77558000",
    "longitude": "-90.92429000",
    "wikiDataId": null
  },
  {
    "id": 69087,
    "name": "Chiná",
    "state_id": 3475,
    "state_code": "CAM",
    "country_id": 142,
    "country_code": "MX",
    "latitude": "19.76993000",
    "longitude": "-90.49595000",
    "wikiDataId": null
  },
  {
    "id": 69117,
    "name": "Chunchintok",
    "state_id": 3475,
    "state_code": "CAM",
    "country_id": 142,
    "country_code": "MX",
    "latitude": "19.36145000",
    "longitude": "-89.58218000",
    "wikiDataId": null
  },
  {
    "id": 69195,
    "name": "Ciudad del Carmen",
    "state_id": 3475,
    "state_code": "CAM",
    "country_id": 142,
    "country_code": "MX",
    "latitude": "18.64592000",
    "longitude": "-91.82991000",
    "wikiDataId": null
  },
  {
    "id": 69294,
    "name": "Colonia Emiliano Zapata",
    "state_id": 3475,
    "state_code": "CAM",
    "country_id": 142,
    "country_code": "MX",
    "latitude": "18.66504000",
    "longitude": "-92.31088000",
    "wikiDataId": null
  },
  {
    "id": 69463,
    "name": "Constitución",
    "state_id": 3475,
    "state_code": "CAM",
    "country_id": 142,
    "country_code": "MX",
    "latitude": "18.62675000",
    "longitude": "-90.13584000",
    "wikiDataId": null
  },
  {
    "id": 69636,
    "name": "Cumpich",
    "state_id": 3475,
    "state_code": "CAM",
    "country_id": 142,
    "country_code": "MX",
    "latitude": "20.18612000",
    "longitude": "-89.97081000",
    "wikiDataId": null
  },
  {
    "id": 69689,
    "name": "División del Norte",
    "state_id": 3475,
    "state_code": "CAM",
    "country_id": 142,
    "country_code": "MX",
    "latitude": "18.52946000",
    "longitude": "-90.76416000",
    "wikiDataId": null
  },
  {
    "id": 69712,
    "name": "Don Samuel",
    "state_id": 3475,
    "state_code": "CAM",
    "country_id": 142,
    "country_code": "MX",
    "latitude": "18.36000000",
    "longitude": "-90.85722000",
    "wikiDataId": null
  },
  {
    "id": 69735,
    "name": "Dzibalchén",
    "state_id": 3475,
    "state_code": "CAM",
    "country_id": 142,
    "country_code": "MX",
    "latitude": "19.45847000",
    "longitude": "-89.73111000",
    "wikiDataId": null
  },
  {
    "id": 69741,
    "name": "Dzitbalché",
    "state_id": 3475,
    "state_code": "CAM",
    "country_id": 142,
    "country_code": "MX",
    "latitude": "20.31857000",
    "longitude": "-90.05611000",
    "wikiDataId": null
  },
  {
    "id": 69824,
    "name": "El Aguacatal",
    "state_id": 3475,
    "state_code": "CAM",
    "country_id": 142,
    "country_code": "MX",
    "latitude": "18.21361000",
    "longitude": "-91.51095000",
    "wikiDataId": null
  },
  {
    "id": 70058,
    "name": "El Naranjo",
    "state_id": 3475,
    "state_code": "CAM",
    "country_id": 142,
    "country_code": "MX",
    "latitude": "18.02193000",
    "longitude": "-91.12654000",
    "wikiDataId": null
  },
  {
    "id": 70324,
    "name": "Escárcega",
    "state_id": 3475,
    "state_code": "CAM",
    "country_id": 142,
    "country_code": "MX",
    "latitude": "18.61404000",
    "longitude": "-90.72870000",
    "wikiDataId": null
  },
  {
    "id": 70662,
    "name": "Hampolol",
    "state_id": 3475,
    "state_code": "CAM",
    "country_id": 142,
    "country_code": "MX",
    "latitude": "19.92716000",
    "longitude": "-90.38924000",
    "wikiDataId": null
  },
  {
    "id": 70663,
    "name": "Haro",
    "state_id": 3475,
    "state_code": "CAM",
    "country_id": 142,
    "country_code": "MX",
    "latitude": "18.44418000",
    "longitude": "-90.79153000",
    "wikiDataId": null
  },
  {
    "id": 70664,
    "name": "Hecelchakán",
    "state_id": 3475,
    "state_code": "CAM",
    "country_id": 142,
    "country_code": "MX",
    "latitude": "20.16667000",
    "longitude": "-90.13333000",
    "wikiDataId": null
  },
  {
    "id": 70707,
    "name": "Hool",
    "state_id": 3475,
    "state_code": "CAM",
    "country_id": 142,
    "country_code": "MX",
    "latitude": "19.51294000",
    "longitude": "-90.44631000",
    "wikiDataId": null
  },
  {
    "id": 70708,
    "name": "Hopelchén",
    "state_id": 3475,
    "state_code": "CAM",
    "country_id": 142,
    "country_code": "MX",
    "latitude": "19.74671000",
    "longitude": "-89.84437000",
    "wikiDataId": null
  },
  {
    "id": 70883,
    "name": "Isla Aguada",
    "state_id": 3475,
    "state_code": "CAM",
    "country_id": 142,
    "country_code": "MX",
    "latitude": "18.78714000",
    "longitude": "-91.49277000",
    "wikiDataId": null
  },
  {
    "id": 70892,
    "name": "Iturbide",
    "state_id": 3475,
    "state_code": "CAM",
    "country_id": 142,
    "country_code": "MX",
    "latitude": "19.57903000",
    "longitude": "-89.60222000",
    "wikiDataId": null
  },
  {
    "id": 71331,
    "name": "La Joya",
    "state_id": 3475,
    "state_code": "CAM",
    "country_id": 142,
    "country_code": "MX",
    "latitude": "19.48028000",
    "longitude": "-90.67333000",
    "wikiDataId": null
  },
  {
    "id": 71354,
    "name": "La Libertad",
    "state_id": 3475,
    "state_code": "CAM",
    "country_id": 142,
    "country_code": "MX",
    "latitude": "18.57042000",
    "longitude": "-90.51399000",
    "wikiDataId": null
  },
  {
    "id": 71663,
    "name": "Lerma",
    "state_id": 3475,
    "state_code": "CAM",
    "country_id": 142,
    "country_code": "MX",
    "latitude": "19.80404000",
    "longitude": "-90.60088000",
    "wikiDataId": null
  },
  {
    "id": 71677,
    "name": "Licenciado Gustavo Díaz Ordaz (18 de Marzo)",
    "state_id": 3475,
    "state_code": "CAM",
    "country_id": 142,
    "country_code": "MX",
    "latitude": "18.63222000",
    "longitude": "-91.00278000",
    "wikiDataId": null
  },
  {
    "id": 71808,
    "name": "Los Laureles",
    "state_id": 3475,
    "state_code": "CAM",
    "country_id": 142,
    "country_code": "MX",
    "latitude": "19.48778000",
    "longitude": "-89.99444000",
    "wikiDataId": null
  },
  {
    "id": 71951,
    "name": "Mamantel",
    "state_id": 3475,
    "state_code": "CAM",
    "country_id": 142,
    "country_code": "MX",
    "latitude": "18.52512000",
    "longitude": "-91.08885000",
    "wikiDataId": null
  },
  {
    "id": 72016,
    "name": "Matamoros",
    "state_id": 3475,
    "state_code": "CAM",
    "country_id": 142,
    "country_code": "MX",
    "latitude": "18.58414000",
    "longitude": "-90.64669000",
    "wikiDataId": null
  },
  {
    "id": 72030,
    "name": "Maya Tecún I",
    "state_id": 3475,
    "state_code": "CAM",
    "country_id": 142,
    "country_code": "MX",
    "latitude": "19.15292000",
    "longitude": "-90.50641000",
    "wikiDataId": null
  },
  {
    "id": 72405,
    "name": "Nuevo Progreso",
    "state_id": 3475,
    "state_code": "CAM",
    "country_id": 142,
    "country_code": "MX",
    "latitude": "18.62294000",
    "longitude": "-92.29124000",
    "wikiDataId": null
  },
  {
    "id": 72426,
    "name": "Nunkiní",
    "state_id": 3475,
    "state_code": "CAM",
    "country_id": 142,
    "country_code": "MX",
    "latitude": "20.40046000",
    "longitude": "-90.14803000",
    "wikiDataId": null
  },
  {
    "id": 72584,
    "name": "Palizada",
    "state_id": 3475,
    "state_code": "CAM",
    "country_id": 142,
    "country_code": "MX",
    "latitude": "18.25261000",
    "longitude": "-92.07779000",
    "wikiDataId": null
  },
  {
    "id": 72759,
    "name": "Pich",
    "state_id": 3475,
    "state_code": "CAM",
    "country_id": 142,
    "country_code": "MX",
    "latitude": "19.48568000",
    "longitude": "-90.11795000",
    "wikiDataId": null
  },
  {
    "id": 72830,
    "name": "Pocboc",
    "state_id": 3475,
    "state_code": "CAM",
    "country_id": 142,
    "country_code": "MX",
    "latitude": "20.23541000",
    "longitude": "-90.10219000",
    "wikiDataId": null
  },
  {
    "id": 72847,
    "name": "Pomuch",
    "state_id": 3475,
    "state_code": "CAM",
    "country_id": 142,
    "country_code": "MX",
    "latitude": "20.13727000",
    "longitude": "-90.17488000",
    "wikiDataId": null
  },
  {
    "id": 73190,
    "name": "Sabancuy",
    "state_id": 3475,
    "state_code": "CAM",
    "country_id": 142,
    "country_code": "MX",
    "latitude": "18.97270000",
    "longitude": "-91.17783000",
    "wikiDataId": null
  },
  {
    "id": 73331,
    "name": "San Antonio Cárdenas",
    "state_id": 3475,
    "state_code": "CAM",
    "country_id": 142,
    "country_code": "MX",
    "latitude": "18.61399000",
    "longitude": "-92.22341000",
    "wikiDataId": null
  },
  {
    "id": 73347,
    "name": "San Antonio Sahcabchén",
    "state_id": 3475,
    "state_code": "CAM",
    "country_id": 142,
    "country_code": "MX",
    "latitude": "20.30696000",
    "longitude": "-90.13778000",
    "wikiDataId": null
  },
  {
    "id": 73573,
    "name": "San Francisco Kobén",
    "state_id": 3475,
    "state_code": "CAM",
    "country_id": 142,
    "country_code": "MX",
    "latitude": "19.91516000",
    "longitude": "-90.41709000",
    "wikiDataId": null
  },
  {
    "id": 74299,
    "name": "San Pablo Pixtún",
    "state_id": 3475,
    "state_code": "CAM",
    "country_id": 142,
    "country_code": "MX",
    "latitude": "19.13361000",
    "longitude": "-90.73194000",
    "wikiDataId": null
  },
  {
    "id": 74608,
    "name": "Santa Cruz",
    "state_id": 3475,
    "state_code": "CAM",
    "country_id": 142,
    "country_code": "MX",
    "latitude": "20.20339000",
    "longitude": "-90.11771000",
    "wikiDataId": null
  },
  {
    "id": 74624,
    "name": "Santa Cruz Ex-Hacienda",
    "state_id": 3475,
    "state_code": "CAM",
    "country_id": 142,
    "country_code": "MX",
    "latitude": "20.39684000",
    "longitude": "-90.24068000",
    "wikiDataId": null
  },
  {
    "id": 74636,
    "name": "Santa Cruz Pueblo",
    "state_id": 3475,
    "state_code": "CAM",
    "country_id": 142,
    "country_code": "MX",
    "latitude": "20.33359000",
    "longitude": "-90.10342000",
    "wikiDataId": null
  },
  {
    "id": 75003,
    "name": "Santo Domingo Kesté",
    "state_id": 3475,
    "state_code": "CAM",
    "country_id": 142,
    "country_code": "MX",
    "latitude": "19.49972000",
    "longitude": "-90.51139000",
    "wikiDataId": null
  },
  {
    "id": 75065,
    "name": "Seybaplaya",
    "state_id": 3475,
    "state_code": "CAM",
    "country_id": 142,
    "country_code": "MX",
    "latitude": "19.63994000",
    "longitude": "-90.68706000",
    "wikiDataId": null
  },
  {
    "id": 75076,
    "name": "Sihochac",
    "state_id": 3475,
    "state_code": "CAM",
    "country_id": 142,
    "country_code": "MX",
    "latitude": "19.50120000",
    "longitude": "-90.58472000",
    "wikiDataId": null
  },
  {
    "id": 75137,
    "name": "Suc-Tuc",
    "state_id": 3475,
    "state_code": "CAM",
    "country_id": 142,
    "country_code": "MX",
    "latitude": "19.71259000",
    "longitude": "-90.03768000",
    "wikiDataId": null
  },
  {
    "id": 75215,
    "name": "Tankuché",
    "state_id": 3475,
    "state_code": "CAM",
    "country_id": 142,
    "country_code": "MX",
    "latitude": "20.50743000",
    "longitude": "-90.24164000",
    "wikiDataId": null
  },
  {
    "id": 75345,
    "name": "Tenabo",
    "state_id": 3475,
    "state_code": "CAM",
    "country_id": 142,
    "country_code": "MX",
    "latitude": "19.83333000",
    "longitude": "-90.00000000",
    "wikiDataId": null
  },
  {
    "id": 75390,
    "name": "Tepakán",
    "state_id": 3475,
    "state_code": "CAM",
    "country_id": 142,
    "country_code": "MX",
    "latitude": "20.39716000",
    "longitude": "-90.04075000",
    "wikiDataId": null
  },
  {
    "id": 75563,
    "name": "Tikinmul",
    "state_id": 3475,
    "state_code": "CAM",
    "country_id": 142,
    "country_code": "MX",
    "latitude": "19.76611000",
    "longitude": "-90.22306000",
    "wikiDataId": null
  },
  {
    "id": 75865,
    "name": "Ukúm",
    "state_id": 3475,
    "state_code": "CAM",
    "country_id": 142,
    "country_code": "MX",
    "latitude": "19.24197000",
    "longitude": "-89.33529000",
    "wikiDataId": null
  },
  {
    "id": 76029,
    "name": "Villa Madero",
    "state_id": 3475,
    "state_code": "CAM",
    "country_id": 142,
    "country_code": "MX",
    "latitude": "19.52833000",
    "longitude": "-90.69917000",
    "wikiDataId": null
  },
  {
    "id": 76130,
    "name": "Xbacab",
    "state_id": 3475,
    "state_code": "CAM",
    "country_id": 142,
    "country_code": "MX",
    "latitude": "18.94139000",
    "longitude": "-90.72194000",
    "wikiDataId": null
  },
  {
    "id": 76151,
    "name": "Xmabén",
    "state_id": 3475,
    "state_code": "CAM",
    "country_id": 142,
    "country_code": "MX",
    "latitude": "19.23530000",
    "longitude": "-89.31426000",
    "wikiDataId": null
  },
  {
    "id": 76204,
    "name": "Xpujil",
    "state_id": 3475,
    "state_code": "CAM",
    "country_id": 142,
    "country_code": "MX",
    "latitude": "18.50760000",
    "longitude": "-89.39437000",
    "wikiDataId": null
  },
  {
    "id": 76358,
    "name": "Zoh-Laguna",
    "state_id": 3475,
    "state_code": "CAM",
    "country_id": 142,
    "country_code": "MX",
    "latitude": "18.59306000",
    "longitude": "-89.41714000",
    "wikiDataId": null
  }
]