[
  {
    "id": 31900,
    "name": "Abadía",
    "state_id": 1190,
    "state_code": "CC",
    "country_id": 207,
    "country_code": "ES",
    "latitude": "40.25922000",
    "longitude": "-5.97828000",
    "wikiDataId": null
  },
  {
    "id": 31910,
    "name": "Abertura",
    "state_id": 1190,
    "state_code": "CC",
    "country_id": 207,
    "country_code": "ES",
    "latitude": "39.24352000",
    "longitude": "-5.81394000",
    "wikiDataId": null
  },
  {
    "id": 31923,
    "name": "Acebo",
    "state_id": 1190,
    "state_code": "CC",
    "country_id": 207,
    "country_code": "ES",
    "latitude": "40.20105000",
    "longitude": "-6.71689000",
    "wikiDataId": null
  },
  {
    "id": 151193,
    "name": "Acehúche",
    "state_id": 1190,
    "state_code": "CC",
    "country_id": 207,
    "country_code": "ES",
    "latitude": "39.80271430",
    "longitude": "-6.63407580",
    "wikiDataId": null
  },
  {
    "id": 31925,
    "name": "Aceituna",
    "state_id": 1190,
    "state_code": "CC",
    "country_id": 207,
    "country_code": "ES",
    "latitude": "40.15008000",
    "longitude": "-6.33292000",
    "wikiDataId": null
  },
  {
    "id": 31974,
    "name": "Ahigal",
    "state_id": 1190,
    "state_code": "CC",
    "country_id": 207,
    "country_code": "ES",
    "latitude": "40.18954000",
    "longitude": "-6.18815000",
    "wikiDataId": null
  },
  {
    "id": 151218,
    "name": "Alagón del Río",
    "state_id": 1190,
    "state_code": "CC",
    "country_id": 207,
    "country_code": "ES",
    "latitude": "39.96826190",
    "longitude": "-6.31729060",
    "wikiDataId": null
  },
  {
    "id": 32027,
    "name": "Albalá",
    "state_id": 1190,
    "state_code": "CC",
    "country_id": 207,
    "country_code": "ES",
    "latitude": "39.25592000",
    "longitude": "-6.18528000",
    "wikiDataId": null
  },
  {
    "id": 32135,
    "name": "Alcántara",
    "state_id": 1190,
    "state_code": "CC",
    "country_id": 207,
    "country_code": "ES",
    "latitude": "39.71895000",
    "longitude": "-6.88375000",
    "wikiDataId": null
  },
  {
    "id": 32111,
    "name": "Alcollarín",
    "state_id": 1190,
    "state_code": "CC",
    "country_id": 207,
    "country_code": "ES",
    "latitude": "39.24470000",
    "longitude": "-5.73924000",
    "wikiDataId": null
  },
  {
    "id": 32132,
    "name": "Alcuéscar",
    "state_id": 1190,
    "state_code": "CC",
    "country_id": 207,
    "country_code": "ES",
    "latitude": "39.18091000",
    "longitude": "-6.22917000",
    "wikiDataId": null
  },
  {
    "id": 32143,
    "name": "Aldea del Cano",
    "state_id": 1190,
    "state_code": "CC",
    "country_id": 207,
    "country_code": "ES",
    "latitude": "39.28874000",
    "longitude": "-6.31806000",
    "wikiDataId": null
  },
  {
    "id": 32147,
    "name": "Aldeacentenera",
    "state_id": 1190,
    "state_code": "CC",
    "country_id": 207,
    "country_code": "ES",
    "latitude": "39.52725000",
    "longitude": "-5.62936000",
    "wikiDataId": null
  },
  {
    "id": 32164,
    "name": "Aldeanueva de la Vera",
    "state_id": 1190,
    "state_code": "CC",
    "country_id": 207,
    "country_code": "ES",
    "latitude": "40.12710000",
    "longitude": "-5.70150000",
    "wikiDataId": null
  },
  {
    "id": 32165,
    "name": "Aldeanueva del Camino",
    "state_id": 1190,
    "state_code": "CC",
    "country_id": 207,
    "country_code": "ES",
    "latitude": "40.25980000",
    "longitude": "-5.92886000",
    "wikiDataId": null
  },
  {
    "id": 151195,
    "name": "Aldehuela de Jerte",
    "state_id": 1190,
    "state_code": "CC",
    "country_id": 207,
    "country_code": "ES",
    "latitude": "40.01139440",
    "longitude": "-6.23890910",
    "wikiDataId": null
  },
  {
    "id": 32347,
    "name": "Alía",
    "state_id": 1190,
    "state_code": "CC",
    "country_id": 207,
    "country_code": "ES",
    "latitude": "39.44803000",
    "longitude": "-5.21754000",
    "wikiDataId": null
  },
  {
    "id": 32248,
    "name": "Aliseda",
    "state_id": 1190,
    "state_code": "CC",
    "country_id": 207,
    "country_code": "ES",
    "latitude": "39.42329000",
    "longitude": "-6.69228000",
    "wikiDataId": null
  },
  {
    "id": 32268,
    "name": "Almaraz",
    "state_id": 1190,
    "state_code": "CC",
    "country_id": 207,
    "country_code": "ES",
    "latitude": "39.81416000",
    "longitude": "-5.67698000",
    "wikiDataId": null
  },
  {
    "id": 32299,
    "name": "Almoharín",
    "state_id": 1190,
    "state_code": "CC",
    "country_id": 207,
    "country_code": "ES",
    "latitude": "39.17685000",
    "longitude": "-6.04283000",
    "wikiDataId": null
  },
  {
    "id": 32510,
    "name": "Arroyo de la Luz",
    "state_id": 1190,
    "state_code": "CC",
    "country_id": 207,
    "country_code": "ES",
    "latitude": "39.48511000",
    "longitude": "-6.58401000",
    "wikiDataId": null
  },
  {
    "id": 32515,
    "name": "Arroyomolinos de la Vera",
    "state_id": 1190,
    "state_code": "CC",
    "country_id": 207,
    "country_code": "ES",
    "latitude": "40.05277000",
    "longitude": "-5.85111000",
    "wikiDataId": null
  },
  {
    "id": 32704,
    "name": "Baños de Montemayor",
    "state_id": 1190,
    "state_code": "CC",
    "country_id": 207,
    "country_code": "ES",
    "latitude": "40.31671000",
    "longitude": "-5.86009000",
    "wikiDataId": null
  },
  {
    "id": 32670,
    "name": "Barrado",
    "state_id": 1190,
    "state_code": "CC",
    "country_id": 207,
    "country_code": "ES",
    "latitude": "40.08477000",
    "longitude": "-5.88068000",
    "wikiDataId": null
  },
  {
    "id": 151196,
    "name": "Belvís de Monroy",
    "state_id": 1190,
    "state_code": "CC",
    "country_id": 207,
    "country_code": "ES",
    "latitude": "39.81957960",
    "longitude": "-5.60965770",
    "wikiDataId": null
  },
  {
    "id": 32826,
    "name": "Benquerencia",
    "state_id": 1190,
    "state_code": "CC",
    "country_id": 207,
    "country_code": "ES",
    "latitude": "39.30994000",
    "longitude": "-6.08465000",
    "wikiDataId": null
  },
  {
    "id": 32871,
    "name": "Berrocalejo",
    "state_id": 1190,
    "state_code": "CC",
    "country_id": 207,
    "country_code": "ES",
    "latitude": "39.81948000",
    "longitude": "-5.34951000",
    "wikiDataId": null
  },
  {
    "id": 151197,
    "name": "Berzocana",
    "state_id": 1190,
    "state_code": "CC",
    "country_id": 207,
    "country_code": "ES",
    "latitude": "39.43671430",
    "longitude": "-5.46139930",
    "wikiDataId": null
  },
  {
    "id": 32931,
    "name": "Bohonal de Ibor",
    "state_id": 1190,
    "state_code": "CC",
    "country_id": 207,
    "country_code": "ES",
    "latitude": "39.78457000",
    "longitude": "-5.48500000",
    "wikiDataId": null
  },
  {
    "id": 32965,
    "name": "Botija",
    "state_id": 1190,
    "state_code": "CC",
    "country_id": 207,
    "country_code": "ES",
    "latitude": "39.34498000",
    "longitude": "-6.07318000",
    "wikiDataId": null
  },
  {
    "id": 32993,
    "name": "Brozas",
    "state_id": 1190,
    "state_code": "CC",
    "country_id": 207,
    "country_code": "ES",
    "latitude": "39.61278000",
    "longitude": "-6.77770000",
    "wikiDataId": null
  },
  {
    "id": 33075,
    "name": "Cabañas del Castillo",
    "state_id": 1190,
    "state_code": "CC",
    "country_id": 207,
    "country_code": "ES",
    "latitude": "39.54804000",
    "longitude": "-5.51203000",
    "wikiDataId": null
  },
  {
    "id": 33080,
    "name": "Cabezabellosa",
    "state_id": 1190,
    "state_code": "CC",
    "country_id": 207,
    "country_code": "ES",
    "latitude": "40.13763000",
    "longitude": "-6.00086000",
    "wikiDataId": null
  },
  {
    "id": 33089,
    "name": "Cabezuela del Valle",
    "state_id": 1190,
    "state_code": "CC",
    "country_id": 207,
    "country_code": "ES",
    "latitude": "40.19364000",
    "longitude": "-5.80650000",
    "wikiDataId": null
  },
  {
    "id": 33106,
    "name": "Cabrero",
    "state_id": 1190,
    "state_code": "CC",
    "country_id": 207,
    "country_code": "ES",
    "latitude": "40.11324000",
    "longitude": "-5.89293000",
    "wikiDataId": null
  },
  {
    "id": 33892,
    "name": "Cáceres",
    "state_id": 1190,
    "state_code": "CC",
    "country_id": 207,
    "country_code": "ES",
    "latitude": "39.47649000",
    "longitude": "-6.37224000",
    "wikiDataId": null
  },
  {
    "id": 33113,
    "name": "Cachorrilla",
    "state_id": 1190,
    "state_code": "CC",
    "country_id": 207,
    "country_code": "ES",
    "latitude": "39.91557000",
    "longitude": "-6.66909000",
    "wikiDataId": null
  },
  {
    "id": 33114,
    "name": "Cadalso",
    "state_id": 1190,
    "state_code": "CC",
    "country_id": 207,
    "country_code": "ES",
    "latitude": "40.23743000",
    "longitude": "-6.54083000",
    "wikiDataId": null
  },
  {
    "id": 33161,
    "name": "Calzadilla",
    "state_id": 1190,
    "state_code": "CC",
    "country_id": 207,
    "country_code": "ES",
    "latitude": "40.06014000",
    "longitude": "-6.53328000",
    "wikiDataId": null
  },
  {
    "id": 33178,
    "name": "Caminomorisco",
    "state_id": 1190,
    "state_code": "CC",
    "country_id": 207,
    "country_code": "ES",
    "latitude": "40.32719000",
    "longitude": "-6.28923000",
    "wikiDataId": null
  },
  {
    "id": 33191,
    "name": "Campillo de Deleitosa",
    "state_id": 1190,
    "state_code": "CC",
    "country_id": 207,
    "country_code": "ES",
    "latitude": "39.70297000",
    "longitude": "-5.57436000",
    "wikiDataId": null
  },
  {
    "id": 151198,
    "name": "Campo Lugar",
    "state_id": 1190,
    "state_code": "CC",
    "country_id": 207,
    "country_code": "ES",
    "latitude": "39.19470590",
    "longitude": "-5.77343770",
    "wikiDataId": null
  },
  {
    "id": 33533,
    "name": "Cañamero",
    "state_id": 1190,
    "state_code": "CC",
    "country_id": 207,
    "country_code": "ES",
    "latitude": "39.37995000",
    "longitude": "-5.38857000",
    "wikiDataId": null
  },
  {
    "id": 33535,
    "name": "Cañaveral",
    "state_id": 1190,
    "state_code": "CC",
    "country_id": 207,
    "country_code": "ES",
    "latitude": "39.79198000",
    "longitude": "-6.39130000",
    "wikiDataId": null
  },
  {
    "id": 33280,
    "name": "Carbajo",
    "state_id": 1190,
    "state_code": "CC",
    "country_id": 207,
    "country_code": "ES",
    "latitude": "39.60333000",
    "longitude": "-7.19565000",
    "wikiDataId": null
  },
  {
    "id": 33289,
    "name": "Carcaboso",
    "state_id": 1190,
    "state_code": "CC",
    "country_id": 207,
    "country_code": "ES",
    "latitude": "40.04968000",
    "longitude": "-6.21375000",
    "wikiDataId": null
  },
  {
    "id": 33320,
    "name": "Carrascalejo",
    "state_id": 1190,
    "state_code": "CC",
    "country_id": 207,
    "country_code": "ES",
    "latitude": "39.63333000",
    "longitude": "-5.21667000",
    "wikiDataId": null
  },
  {
    "id": 33346,
    "name": "Casar de Cáceres",
    "state_id": 1190,
    "state_code": "CC",
    "country_id": 207,
    "country_code": "ES",
    "latitude": "39.56106000",
    "longitude": "-6.41944000",
    "wikiDataId": null
  },
  {
    "id": 33347,
    "name": "Casar de Palomero",
    "state_id": 1190,
    "state_code": "CC",
    "country_id": 207,
    "country_code": "ES",
    "latitude": "40.29483000",
    "longitude": "-6.25698000",
    "wikiDataId": null
  },
  {
    "id": 33351,
    "name": "Casares de las Hurdes",
    "state_id": 1190,
    "state_code": "CC",
    "country_id": 207,
    "country_code": "ES",
    "latitude": "40.43333000",
    "longitude": "-6.28333000",
    "wikiDataId": null
  },
  {
    "id": 33359,
    "name": "Casas de Don Antonio",
    "state_id": 1190,
    "state_code": "CC",
    "country_id": 207,
    "country_code": "ES",
    "latitude": "39.23578000",
    "longitude": "-6.29143000",
    "wikiDataId": null
  },
  {
    "id": 33360,
    "name": "Casas de Don Gómez",
    "state_id": 1190,
    "state_code": "CC",
    "country_id": 207,
    "country_code": "ES",
    "latitude": "40.00932000",
    "longitude": "-6.60073000",
    "wikiDataId": null
  },
  {
    "id": 33368,
    "name": "Casas de Millán",
    "state_id": 1190,
    "state_code": "CC",
    "country_id": 207,
    "country_code": "ES",
    "latitude": "39.81757000",
    "longitude": "-6.32966000",
    "wikiDataId": null
  },
  {
    "id": 33369,
    "name": "Casas de Miravete",
    "state_id": 1190,
    "state_code": "CC",
    "country_id": 207,
    "country_code": "ES",
    "latitude": "39.72687000",
    "longitude": "-5.74363000",
    "wikiDataId": null
  },
  {
    "id": 33374,
    "name": "Casas del Castañar",
    "state_id": 1190,
    "state_code": "CC",
    "country_id": 207,
    "country_code": "ES",
    "latitude": "40.10785000",
    "longitude": "-5.90509000",
    "wikiDataId": null
  },
  {
    "id": 33375,
    "name": "Casas del Monte",
    "state_id": 1190,
    "state_code": "CC",
    "country_id": 207,
    "country_code": "ES",
    "latitude": "40.20320000",
    "longitude": "-5.96152000",
    "wikiDataId": null
  },
  {
    "id": 33381,
    "name": "Casatejada",
    "state_id": 1190,
    "state_code": "CC",
    "country_id": 207,
    "country_code": "ES",
    "latitude": "39.88642000",
    "longitude": "-5.68193000",
    "wikiDataId": null
  },
  {
    "id": 33389,
    "name": "Casillas de Coria",
    "state_id": 1190,
    "state_code": "CC",
    "country_id": 207,
    "country_code": "ES",
    "latitude": "39.96543000",
    "longitude": "-6.63711000",
    "wikiDataId": null
  },
  {
    "id": 33397,
    "name": "Castañar de Ibor",
    "state_id": 1190,
    "state_code": "CC",
    "country_id": 207,
    "country_code": "ES",
    "latitude": "39.62843000",
    "longitude": "-5.41709000",
    "wikiDataId": null
  },
  {
    "id": 33553,
    "name": "Ceclavín",
    "state_id": 1190,
    "state_code": "CC",
    "country_id": 207,
    "country_code": "ES",
    "latitude": "39.82231000",
    "longitude": "-6.77329000",
    "wikiDataId": null
  },
  {
    "id": 33555,
    "name": "Cedillo",
    "state_id": 1190,
    "state_code": "CC",
    "country_id": 207,
    "country_code": "ES",
    "latitude": "39.65099000",
    "longitude": "-7.49817000",
    "wikiDataId": null
  },
  {
    "id": 33587,
    "name": "Cerezo",
    "state_id": 1190,
    "state_code": "CC",
    "country_id": 207,
    "country_code": "ES",
    "latitude": "40.23678000",
    "longitude": "-6.22764000",
    "wikiDataId": null
  },
  {
    "id": 33667,
    "name": "Cilleros",
    "state_id": 1190,
    "state_code": "CC",
    "country_id": 207,
    "country_code": "ES",
    "latitude": "40.11486000",
    "longitude": "-6.79256000",
    "wikiDataId": null
  },
  {
    "id": 33731,
    "name": "Collado",
    "state_id": 1190,
    "state_code": "CC",
    "country_id": 207,
    "country_code": "ES",
    "latitude": "40.05729000",
    "longitude": "-5.72052000",
    "wikiDataId": null
  },
  {
    "id": 33763,
    "name": "Conquista de la Sierra",
    "state_id": 1190,
    "state_code": "CC",
    "country_id": 207,
    "country_code": "ES",
    "latitude": "39.35070000",
    "longitude": "-5.73464000",
    "wikiDataId": null
  },
  {
    "id": 33789,
    "name": "Coria",
    "state_id": 1190,
    "state_code": "CC",
    "country_id": 207,
    "country_code": "ES",
    "latitude": "39.98406000",
    "longitude": "-6.53603000",
    "wikiDataId": null
  },
  {
    "id": 151199,
    "name": "Cuacos de Yuste",
    "state_id": 1190,
    "state_code": "CC",
    "country_id": 207,
    "country_code": "ES",
    "latitude": "40.10241310",
    "longitude": "-5.72551990",
    "wikiDataId": null
  },
  {
    "id": 33923,
    "name": "Deleitosa",
    "state_id": 1190,
    "state_code": "CC",
    "country_id": 207,
    "country_code": "ES",
    "latitude": "39.64359000",
    "longitude": "-5.64576000",
    "wikiDataId": null
  },
  {
    "id": 33928,
    "name": "Descargamaría",
    "state_id": 1190,
    "state_code": "CC",
    "country_id": 207,
    "country_code": "ES",
    "latitude": "40.30446000",
    "longitude": "-6.48666000",
    "wikiDataId": null
  },
  {
    "id": 151204,
    "name": "El Gordo",
    "state_id": 1190,
    "state_code": "CC",
    "country_id": 207,
    "country_code": "ES",
    "latitude": "39.86547270",
    "longitude": "-5.34358700",
    "wikiDataId": null
  },
  {
    "id": 151216,
    "name": "El Torno",
    "state_id": 1190,
    "state_code": "CC",
    "country_id": 207,
    "country_code": "ES",
    "latitude": "40.13560780",
    "longitude": "-5.94481840",
    "wikiDataId": null
  },
  {
    "id": 34037,
    "name": "Eljas",
    "state_id": 1190,
    "state_code": "CC",
    "country_id": 207,
    "country_code": "ES",
    "latitude": "40.21648000",
    "longitude": "-6.84616000",
    "wikiDataId": null
  },
  {
    "id": 34092,
    "name": "Escurial",
    "state_id": 1190,
    "state_code": "CC",
    "country_id": 207,
    "country_code": "ES",
    "latitude": "39.16857000",
    "longitude": "-5.88465000",
    "wikiDataId": null
  },
  {
    "id": 34251,
    "name": "Fresnedoso de Ibor",
    "state_id": 1190,
    "state_code": "CC",
    "country_id": 207,
    "country_code": "ES",
    "latitude": "39.68418000",
    "longitude": "-5.50899000",
    "wikiDataId": null
  },
  {
    "id": 34385,
    "name": "Galisteo",
    "state_id": 1190,
    "state_code": "CC",
    "country_id": 207,
    "country_code": "ES",
    "latitude": "39.97642000",
    "longitude": "-6.26782000",
    "wikiDataId": null
  },
  {
    "id": 151201,
    "name": "Garciaz",
    "state_id": 1190,
    "state_code": "CC",
    "country_id": 207,
    "country_code": "ES",
    "latitude": "39.41309080",
    "longitude": "-5.62781780",
    "wikiDataId": null
  },
  {
    "id": 34417,
    "name": "Garganta la Olla",
    "state_id": 1190,
    "state_code": "CC",
    "country_id": 207,
    "country_code": "ES",
    "latitude": "40.11049000",
    "longitude": "-5.77665000",
    "wikiDataId": null
  },
  {
    "id": 34418,
    "name": "Gargantilla",
    "state_id": 1190,
    "state_code": "CC",
    "country_id": 207,
    "country_code": "ES",
    "latitude": "40.24835000",
    "longitude": "-5.92068000",
    "wikiDataId": null
  },
  {
    "id": 34419,
    "name": "Gargüera",
    "state_id": 1190,
    "state_code": "CC",
    "country_id": 207,
    "country_code": "ES",
    "latitude": "40.06130000",
    "longitude": "-5.92781000",
    "wikiDataId": null
  },
  {
    "id": 151203,
    "name": "Garrovillas de Alconétar",
    "state_id": 1190,
    "state_code": "CC",
    "country_id": 207,
    "country_code": "ES",
    "latitude": "39.70550990",
    "longitude": "-6.55115600",
    "wikiDataId": null
  },
  {
    "id": 34428,
    "name": "Garvín",
    "state_id": 1190,
    "state_code": "CC",
    "country_id": 207,
    "country_code": "ES",
    "latitude": "39.71984000",
    "longitude": "-5.34678000",
    "wikiDataId": null
  },
  {
    "id": 34434,
    "name": "Gata",
    "state_id": 1190,
    "state_code": "CC",
    "country_id": 207,
    "country_code": "ES",
    "latitude": "40.23758000",
    "longitude": "-6.59684000",
    "wikiDataId": null
  },
  {
    "id": 34526,
    "name": "Guadalupe",
    "state_id": 1190,
    "state_code": "CC",
    "country_id": 207,
    "country_code": "ES",
    "latitude": "39.45080000",
    "longitude": "-5.32588000",
    "wikiDataId": null
  },
  {
    "id": 34542,
    "name": "Guijo de Coria",
    "state_id": 1190,
    "state_code": "CC",
    "country_id": 207,
    "country_code": "ES",
    "latitude": "40.10098000",
    "longitude": "-6.46383000",
    "wikiDataId": null
  },
  {
    "id": 34543,
    "name": "Guijo de Galisteo",
    "state_id": 1190,
    "state_code": "CC",
    "country_id": 207,
    "country_code": "ES",
    "latitude": "40.09383000",
    "longitude": "-6.41007000",
    "wikiDataId": null
  },
  {
    "id": 34544,
    "name": "Guijo de Granadilla",
    "state_id": 1190,
    "state_code": "CC",
    "country_id": 207,
    "country_code": "ES",
    "latitude": "40.19351000",
    "longitude": "-6.16339000",
    "wikiDataId": null
  },
  {
    "id": 34545,
    "name": "Guijo de Santa Bárbara",
    "state_id": 1190,
    "state_code": "CC",
    "country_id": 207,
    "country_code": "ES",
    "latitude": "40.15410000",
    "longitude": "-5.65414000",
    "wikiDataId": null
  },
  {
    "id": 34582,
    "name": "Herguijuela",
    "state_id": 1190,
    "state_code": "CC",
    "country_id": 207,
    "country_code": "ES",
    "latitude": "39.37452000",
    "longitude": "-5.76001000",
    "wikiDataId": null
  },
  {
    "id": 34591,
    "name": "Hernán-Pérez",
    "state_id": 1190,
    "state_code": "CC",
    "country_id": 207,
    "country_code": "ES",
    "latitude": "40.21246000",
    "longitude": "-6.46479000",
    "wikiDataId": null
  },
  {
    "id": 34594,
    "name": "Herrera de Alcántara",
    "state_id": 1190,
    "state_code": "CC",
    "country_id": 207,
    "country_code": "ES",
    "latitude": "39.63865000",
    "longitude": "-7.40619000",
    "wikiDataId": null
  },
  {
    "id": 151206,
    "name": "Herreruela",
    "state_id": 1190,
    "state_code": "CC",
    "country_id": 207,
    "country_code": "ES",
    "latitude": "39.42928500",
    "longitude": "-6.85654270",
    "wikiDataId": null
  },
  {
    "id": 34604,
    "name": "Hervás",
    "state_id": 1190,
    "state_code": "CC",
    "country_id": 207,
    "country_code": "ES",
    "latitude": "40.27081000",
    "longitude": "-5.86721000",
    "wikiDataId": null
  },
  {
    "id": 34607,
    "name": "Higuera",
    "state_id": 1190,
    "state_code": "CC",
    "country_id": 207,
    "country_code": "ES",
    "latitude": "39.72551000",
    "longitude": "-5.66692000",
    "wikiDataId": null
  },
  {
    "id": 34619,
    "name": "Hinojal",
    "state_id": 1190,
    "state_code": "CC",
    "country_id": 207,
    "country_code": "ES",
    "latitude": "39.70900000",
    "longitude": "-6.35567000",
    "wikiDataId": null
  },
  {
    "id": 34631,
    "name": "Holguera",
    "state_id": 1190,
    "state_code": "CC",
    "country_id": 207,
    "country_code": "ES",
    "latitude": "39.89916000",
    "longitude": "-6.34999000",
    "wikiDataId": null
  },
  {
    "id": 34677,
    "name": "Hoyos",
    "state_id": 1190,
    "state_code": "CC",
    "country_id": 207,
    "country_code": "ES",
    "latitude": "40.17154000",
    "longitude": "-6.72092000",
    "wikiDataId": null
  },
  {
    "id": 34707,
    "name": "Huélaga",
    "state_id": 1190,
    "state_code": "CC",
    "country_id": 207,
    "country_code": "ES",
    "latitude": "40.05582000",
    "longitude": "-6.61568000",
    "wikiDataId": null
  },
  {
    "id": 34723,
    "name": "Ibahernando",
    "state_id": 1190,
    "state_code": "CC",
    "country_id": 207,
    "country_code": "ES",
    "latitude": "39.32538000",
    "longitude": "-5.91833000",
    "wikiDataId": null
  },
  {
    "id": 34798,
    "name": "Jaraicejo",
    "state_id": 1190,
    "state_code": "CC",
    "country_id": 207,
    "country_code": "ES",
    "latitude": "39.66624000",
    "longitude": "-5.81308000",
    "wikiDataId": null
  },
  {
    "id": 34802,
    "name": "Jaraíz de la Vera",
    "state_id": 1190,
    "state_code": "CC",
    "country_id": 207,
    "country_code": "ES",
    "latitude": "40.06005000",
    "longitude": "-5.75426000",
    "wikiDataId": null
  },
  {
    "id": 34801,
    "name": "Jarandilla de la Vera",
    "state_id": 1190,
    "state_code": "CC",
    "country_id": 207,
    "country_code": "ES",
    "latitude": "40.12915000",
    "longitude": "-5.66079000",
    "wikiDataId": null
  },
  {
    "id": 151207,
    "name": "Jarilla",
    "state_id": 1190,
    "state_code": "CC",
    "country_id": 207,
    "country_code": "ES",
    "latitude": "40.17169510",
    "longitude": "-6.00275910",
    "wikiDataId": null
  },
  {
    "id": 34814,
    "name": "Jerte",
    "state_id": 1190,
    "state_code": "CC",
    "country_id": 207,
    "country_code": "ES",
    "latitude": "40.22271000",
    "longitude": "-5.75011000",
    "wikiDataId": null
  },
  {
    "id": 151194,
    "name": "La Aldea del Obispo",
    "state_id": 1190,
    "state_code": "CC",
    "country_id": 207,
    "country_code": "ES",
    "latitude": "39.56300270",
    "longitude": "-5.91125590",
    "wikiDataId": null
  },
  {
    "id": 151200,
    "name": "La Cumbre",
    "state_id": 1190,
    "state_code": "CC",
    "country_id": 207,
    "country_code": "ES",
    "latitude": "39.40430110",
    "longitude": "-5.97664840",
    "wikiDataId": null
  },
  {
    "id": 151202,
    "name": "La Garganta",
    "state_id": 1190,
    "state_code": "CC",
    "country_id": 207,
    "country_code": "ES",
    "latitude": "40.32889030",
    "longitude": "-5.82285760",
    "wikiDataId": null
  },
  {
    "id": 151205,
    "name": "La Granja",
    "state_id": 1190,
    "state_code": "CC",
    "country_id": 207,
    "country_code": "ES",
    "latitude": "40.24036100",
    "longitude": "-5.99912280",
    "wikiDataId": null
  },
  {
    "id": 151212,
    "name": "La Pesga",
    "state_id": 1190,
    "state_code": "CC",
    "country_id": 207,
    "country_code": "ES",
    "latitude": "40.32510150",
    "longitude": "-6.17478250",
    "wikiDataId": null
  },
  {
    "id": 34938,
    "name": "Ladrillar",
    "state_id": 1190,
    "state_code": "CC",
    "country_id": 207,
    "country_code": "ES",
    "latitude": "40.46576000",
    "longitude": "-6.22427000",
    "wikiDataId": null
  },
  {
    "id": 35100,
    "name": "Logrosán",
    "state_id": 1190,
    "state_code": "CC",
    "country_id": 207,
    "country_code": "ES",
    "latitude": "39.33641000",
    "longitude": "-5.49281000",
    "wikiDataId": null
  },
  {
    "id": 35141,
    "name": "Losar de la Vera",
    "state_id": 1190,
    "state_code": "CC",
    "country_id": 207,
    "country_code": "ES",
    "latitude": "40.12158000",
    "longitude": "-5.60454000",
    "wikiDataId": null
  },
  {
    "id": 35189,
    "name": "Madrigal de la Vera",
    "state_id": 1190,
    "state_code": "CC",
    "country_id": 207,
    "country_code": "ES",
    "latitude": "40.14760000",
    "longitude": "-5.36818000",
    "wikiDataId": null
  },
  {
    "id": 35192,
    "name": "Madrigalejo",
    "state_id": 1190,
    "state_code": "CC",
    "country_id": 207,
    "country_code": "ES",
    "latitude": "39.13858000",
    "longitude": "-5.62740000",
    "wikiDataId": null
  },
  {
    "id": 35196,
    "name": "Madroñera",
    "state_id": 1190,
    "state_code": "CC",
    "country_id": 207,
    "country_code": "ES",
    "latitude": "39.42526000",
    "longitude": "-5.75568000",
    "wikiDataId": null
  },
  {
    "id": 35215,
    "name": "Majadas",
    "state_id": 1190,
    "state_code": "CC",
    "country_id": 207,
    "country_code": "ES",
    "latitude": "39.94291000",
    "longitude": "-5.74589000",
    "wikiDataId": null
  },
  {
    "id": 35227,
    "name": "Malpartida de Cáceres",
    "state_id": 1190,
    "state_code": "CC",
    "country_id": 207,
    "country_code": "ES",
    "latitude": "39.44664000",
    "longitude": "-6.50760000",
    "wikiDataId": null
  },
  {
    "id": 35228,
    "name": "Malpartida de Plasencia",
    "state_id": 1190,
    "state_code": "CC",
    "country_id": 207,
    "country_code": "ES",
    "latitude": "39.97962000",
    "longitude": "-6.04609000",
    "wikiDataId": null
  },
  {
    "id": 35282,
    "name": "Marchagaz",
    "state_id": 1190,
    "state_code": "CC",
    "country_id": 207,
    "country_code": "ES",
    "latitude": "40.26769000",
    "longitude": "-6.27485000",
    "wikiDataId": null
  },
  {
    "id": 35329,
    "name": "Mata de Alcántara",
    "state_id": 1190,
    "state_code": "CC",
    "country_id": 207,
    "country_code": "ES",
    "latitude": "39.71738000",
    "longitude": "-6.81825000",
    "wikiDataId": null
  },
  {
    "id": 151208,
    "name": "Membrío",
    "state_id": 1190,
    "state_code": "CC",
    "country_id": 207,
    "country_code": "ES",
    "latitude": "39.52681120",
    "longitude": "-7.05430500",
    "wikiDataId": null
  },
  {
    "id": 35408,
    "name": "Mesas de Ibor",
    "state_id": 1190,
    "state_code": "CC",
    "country_id": 207,
    "country_code": "ES",
    "latitude": "39.75587000",
    "longitude": "-5.54637000",
    "wikiDataId": null
  },
  {
    "id": 35416,
    "name": "Miajadas",
    "state_id": 1190,
    "state_code": "CC",
    "country_id": 207,
    "country_code": "ES",
    "latitude": "39.15127000",
    "longitude": "-5.90841000",
    "wikiDataId": null
  },
  {
    "id": 35431,
    "name": "Millanes",
    "state_id": 1190,
    "state_code": "CC",
    "country_id": 207,
    "country_code": "ES",
    "latitude": "39.84917000",
    "longitude": "-5.58079000",
    "wikiDataId": null
  },
  {
    "id": 35440,
    "name": "Mirabel",
    "state_id": 1190,
    "state_code": "CC",
    "country_id": 207,
    "country_code": "ES",
    "latitude": "39.86230000",
    "longitude": "-6.23274000",
    "wikiDataId": null
  },
  {
    "id": 151209,
    "name": "Mohedas de Granadilla",
    "state_id": 1190,
    "state_code": "CC",
    "country_id": 207,
    "country_code": "ES",
    "latitude": "40.26913720",
    "longitude": "-6.20176490",
    "wikiDataId": null
  },
  {
    "id": 151210,
    "name": "Monroy",
    "state_id": 1190,
    "state_code": "CC",
    "country_id": 207,
    "country_code": "ES",
    "latitude": "39.63618630",
    "longitude": "-6.21038870",
    "wikiDataId": null
  },
  {
    "id": 35588,
    "name": "Montánchez",
    "state_id": 1190,
    "state_code": "CC",
    "country_id": 207,
    "country_code": "ES",
    "latitude": "39.22548000",
    "longitude": "-6.14914000",
    "wikiDataId": null
  },
  {
    "id": 35549,
    "name": "Montehermoso",
    "state_id": 1190,
    "state_code": "CC",
    "country_id": 207,
    "country_code": "ES",
    "latitude": "40.08796000",
    "longitude": "-6.34984000",
    "wikiDataId": null
  },
  {
    "id": 35601,
    "name": "Moraleja",
    "state_id": 1190,
    "state_code": "CC",
    "country_id": 207,
    "country_code": "ES",
    "latitude": "40.06682000",
    "longitude": "-6.65983000",
    "wikiDataId": null
  },
  {
    "id": 35622,
    "name": "Morcillo",
    "state_id": 1190,
    "state_code": "CC",
    "country_id": 207,
    "country_code": "ES",
    "latitude": "40.01884000",
    "longitude": "-6.39746000",
    "wikiDataId": null
  },
  {
    "id": 35732,
    "name": "Navaconcejo",
    "state_id": 1190,
    "state_code": "CC",
    "country_id": 207,
    "country_code": "ES",
    "latitude": "40.17712000",
    "longitude": "-5.83108000",
    "wikiDataId": null
  },
  {
    "id": 35752,
    "name": "Navalmoral de la Mata",
    "state_id": 1190,
    "state_code": "CC",
    "country_id": 207,
    "country_code": "ES",
    "latitude": "39.89158000",
    "longitude": "-5.54064000",
    "wikiDataId": null
  },
  {
    "id": 35760,
    "name": "Navalvillar de Ibor",
    "state_id": 1190,
    "state_code": "CC",
    "country_id": 207,
    "country_code": "ES",
    "latitude": "39.58389000",
    "longitude": "-5.41328000",
    "wikiDataId": null
  },
  {
    "id": 35782,
    "name": "Navas del Madroño",
    "state_id": 1190,
    "state_code": "CC",
    "country_id": 207,
    "country_code": "ES",
    "latitude": "39.62290000",
    "longitude": "-6.65260000",
    "wikiDataId": null
  },
  {
    "id": 35789,
    "name": "Navezuelas",
    "state_id": 1190,
    "state_code": "CC",
    "country_id": 207,
    "country_code": "ES",
    "latitude": "39.50918000",
    "longitude": "-5.43766000",
    "wikiDataId": null
  },
  {
    "id": 35841,
    "name": "Nuñomoral",
    "state_id": 1190,
    "state_code": "CC",
    "country_id": 207,
    "country_code": "ES",
    "latitude": "40.40692000",
    "longitude": "-6.24636000",
    "wikiDataId": null
  },
  {
    "id": 35886,
    "name": "Oliva de Plasencia",
    "state_id": 1190,
    "state_code": "CC",
    "country_id": 207,
    "country_code": "ES",
    "latitude": "40.11227000",
    "longitude": "-6.08648000",
    "wikiDataId": null
  },
  {
    "id": 36040,
    "name": "Palomero",
    "state_id": 1190,
    "state_code": "CC",
    "country_id": 207,
    "country_code": "ES",
    "latitude": "40.24688000",
    "longitude": "-6.27706000",
    "wikiDataId": null
  },
  {
    "id": 151211,
    "name": "Pasarón de la Vera",
    "state_id": 1190,
    "state_code": "CC",
    "country_id": 207,
    "country_code": "ES",
    "latitude": "40.05115990",
    "longitude": "-5.82022080",
    "wikiDataId": null
  },
  {
    "id": 36113,
    "name": "Pedroso de Acim",
    "state_id": 1190,
    "state_code": "CC",
    "country_id": 207,
    "country_code": "ES",
    "latitude": "39.82522000",
    "longitude": "-6.41251000",
    "wikiDataId": null
  },
  {
    "id": 36133,
    "name": "Peraleda de la Mata",
    "state_id": 1190,
    "state_code": "CC",
    "country_id": 207,
    "country_code": "ES",
    "latitude": "39.85288000",
    "longitude": "-5.46065000",
    "wikiDataId": null
  },
  {
    "id": 36132,
    "name": "Peraleda de San Román",
    "state_id": 1190,
    "state_code": "CC",
    "country_id": 207,
    "country_code": "ES",
    "latitude": "39.74130000",
    "longitude": "-5.38726000",
    "wikiDataId": null
  },
  {
    "id": 36141,
    "name": "Perales del Puerto",
    "state_id": 1190,
    "state_code": "CC",
    "country_id": 207,
    "country_code": "ES",
    "latitude": "40.15596000",
    "longitude": "-6.68192000",
    "wikiDataId": null
  },
  {
    "id": 36154,
    "name": "Pescueza",
    "state_id": 1190,
    "state_code": "CC",
    "country_id": 207,
    "country_code": "ES",
    "latitude": "39.91807000",
    "longitude": "-6.64589000",
    "wikiDataId": null
  },
  {
    "id": 36184,
    "name": "Piedras Albas",
    "state_id": 1190,
    "state_code": "CC",
    "country_id": 207,
    "country_code": "ES",
    "latitude": "39.78417000",
    "longitude": "-6.92588000",
    "wikiDataId": null
  },
  {
    "id": 36210,
    "name": "Pinofranqueado",
    "state_id": 1190,
    "state_code": "CC",
    "country_id": 207,
    "country_code": "ES",
    "latitude": "40.30351000",
    "longitude": "-6.33181000",
    "wikiDataId": null
  },
  {
    "id": 36216,
    "name": "Piornal",
    "state_id": 1190,
    "state_code": "CC",
    "country_id": 207,
    "country_code": "ES",
    "latitude": "40.11731000",
    "longitude": "-5.84787000",
    "wikiDataId": null
  },
  {
    "id": 36236,
    "name": "Plasencia",
    "state_id": 1190,
    "state_code": "CC",
    "country_id": 207,
    "country_code": "ES",
    "latitude": "40.03116000",
    "longitude": "-6.08845000",
    "wikiDataId": null
  },
  {
    "id": 36238,
    "name": "Plasenzuela",
    "state_id": 1190,
    "state_code": "CC",
    "country_id": 207,
    "country_code": "ES",
    "latitude": "39.38194000",
    "longitude": "-6.04786000",
    "wikiDataId": null
  },
  {
    "id": 36285,
    "name": "Portaje",
    "state_id": 1190,
    "state_code": "CC",
    "country_id": 207,
    "country_code": "ES",
    "latitude": "39.91757000",
    "longitude": "-6.56218000",
    "wikiDataId": null
  },
  {
    "id": 36289,
    "name": "Portezuelo",
    "state_id": 1190,
    "state_code": "CC",
    "country_id": 207,
    "country_code": "ES",
    "latitude": "39.81233000",
    "longitude": "-6.47433000",
    "wikiDataId": null
  },
  {
    "id": 36335,
    "name": "Pozuelo de Zarzón",
    "state_id": 1190,
    "state_code": "CC",
    "country_id": 207,
    "country_code": "ES",
    "latitude": "40.14805000",
    "longitude": "-6.41458000",
    "wikiDataId": null
  },
  {
    "id": 36453,
    "name": "Puerto de Santa Cruz",
    "state_id": 1190,
    "state_code": "CC",
    "country_id": 207,
    "country_code": "ES",
    "latitude": "39.31631000",
    "longitude": "-5.85875000",
    "wikiDataId": null
  },
  {
    "id": 36717,
    "name": "Ríolobos",
    "state_id": 1190,
    "state_code": "CC",
    "country_id": 207,
    "country_code": "ES",
    "latitude": "39.92074000",
    "longitude": "-6.30397000",
    "wikiDataId": null
  },
  {
    "id": 36648,
    "name": "Robledillo de Gata",
    "state_id": 1190,
    "state_code": "CC",
    "country_id": 207,
    "country_code": "ES",
    "latitude": "40.32234000",
    "longitude": "-6.47129000",
    "wikiDataId": null
  },
  {
    "id": 36652,
    "name": "Robledillo de la Vera",
    "state_id": 1190,
    "state_code": "CC",
    "country_id": 207,
    "country_code": "ES",
    "latitude": "40.10093000",
    "longitude": "-5.58896000",
    "wikiDataId": null
  },
  {
    "id": 36650,
    "name": "Robledillo de Trujillo",
    "state_id": 1190,
    "state_code": "CC",
    "country_id": 207,
    "country_code": "ES",
    "latitude": "39.26956000",
    "longitude": "-5.98001000",
    "wikiDataId": null
  },
  {
    "id": 36656,
    "name": "Robledollano",
    "state_id": 1190,
    "state_code": "CC",
    "country_id": 207,
    "country_code": "ES",
    "latitude": "39.60962000",
    "longitude": "-5.50855000",
    "wikiDataId": null
  },
  {
    "id": 36669,
    "name": "Romangordo",
    "state_id": 1190,
    "state_code": "CC",
    "country_id": 207,
    "country_code": "ES",
    "latitude": "39.74199000",
    "longitude": "-5.70081000",
    "wikiDataId": null
  },
  {
    "id": 36677,
    "name": "Rosalejo",
    "state_id": 1190,
    "state_code": "CC",
    "country_id": 207,
    "country_code": "ES",
    "latitude": "39.43660000",
    "longitude": "-4.90821000",
    "wikiDataId": null
  },
  {
    "id": 36687,
    "name": "Ruanes",
    "state_id": 1190,
    "state_code": "CC",
    "country_id": 207,
    "country_code": "ES",
    "latitude": "39.32814000",
    "longitude": "-6.01347000",
    "wikiDataId": null
  },
  {
    "id": 36776,
    "name": "Salorino",
    "state_id": 1190,
    "state_code": "CC",
    "country_id": 207,
    "country_code": "ES",
    "latitude": "39.48018000",
    "longitude": "-7.00758000",
    "wikiDataId": null
  },
  {
    "id": 36786,
    "name": "Salvatierra de Santiago",
    "state_id": 1190,
    "state_code": "CC",
    "country_id": 207,
    "country_code": "ES",
    "latitude": "39.30363000",
    "longitude": "-6.03206000",
    "wikiDataId": null
  },
  {
    "id": 36868,
    "name": "San Martín de Trevejo",
    "state_id": 1190,
    "state_code": "CC",
    "country_id": 207,
    "country_code": "ES",
    "latitude": "40.21241000",
    "longitude": "-6.79535000",
    "wikiDataId": null
  },
  {
    "id": 37004,
    "name": "Santa Ana",
    "state_id": 1190,
    "state_code": "CC",
    "country_id": 207,
    "country_code": "ES",
    "latitude": "39.30823000",
    "longitude": "-5.99027000",
    "wikiDataId": null
  },
  {
    "id": 37041,
    "name": "Santa Cruz de la Sierra",
    "state_id": 1190,
    "state_code": "CC",
    "country_id": 207,
    "country_code": "ES",
    "latitude": "39.33635000",
    "longitude": "-5.84561000",
    "wikiDataId": null
  },
  {
    "id": 37034,
    "name": "Santa Cruz de Paniagua",
    "state_id": 1190,
    "state_code": "CC",
    "country_id": 207,
    "country_code": "ES",
    "latitude": "40.19167000",
    "longitude": "-6.34003000",
    "wikiDataId": null
  },
  {
    "id": 37070,
    "name": "Santa Marta de Magasca",
    "state_id": 1190,
    "state_code": "CC",
    "country_id": 207,
    "country_code": "ES",
    "latitude": "39.51150000",
    "longitude": "-6.09881000",
    "wikiDataId": null
  },
  {
    "id": 151214,
    "name": "Santiago de Alcántara",
    "state_id": 1190,
    "state_code": "CC",
    "country_id": 207,
    "country_code": "ES",
    "latitude": "39.60591530",
    "longitude": "-7.24303640",
    "wikiDataId": null
  },
  {
    "id": 37117,
    "name": "Santiago del Campo",
    "state_id": 1190,
    "state_code": "CC",
    "country_id": 207,
    "country_code": "ES",
    "latitude": "39.62840000",
    "longitude": "-6.36362000",
    "wikiDataId": null
  },
  {
    "id": 37128,
    "name": "Santibáñez el Alto",
    "state_id": 1190,
    "state_code": "CC",
    "country_id": 207,
    "country_code": "ES",
    "latitude": "40.18525000",
    "longitude": "-6.54782000",
    "wikiDataId": null
  },
  {
    "id": 37129,
    "name": "Santibáñez el Bajo",
    "state_id": 1190,
    "state_code": "CC",
    "country_id": 207,
    "country_code": "ES",
    "latitude": "40.17637000",
    "longitude": "-6.22441000",
    "wikiDataId": null
  },
  {
    "id": 37177,
    "name": "Saucedilla",
    "state_id": 1190,
    "state_code": "CC",
    "country_id": 207,
    "country_code": "ES",
    "latitude": "39.85284000",
    "longitude": "-5.67781000",
    "wikiDataId": null
  },
  {
    "id": 37196,
    "name": "Segura de Toro",
    "state_id": 1190,
    "state_code": "CC",
    "country_id": 207,
    "country_code": "ES",
    "latitude": "40.22427000",
    "longitude": "-5.94836000",
    "wikiDataId": null
  },
  {
    "id": 37221,
    "name": "Serradilla",
    "state_id": 1190,
    "state_code": "CC",
    "country_id": 207,
    "country_code": "ES",
    "latitude": "39.82920000",
    "longitude": "-6.14034000",
    "wikiDataId": null
  },
  {
    "id": 37226,
    "name": "Serrejón",
    "state_id": 1190,
    "state_code": "CC",
    "country_id": 207,
    "country_code": "ES",
    "latitude": "39.81735000",
    "longitude": "-5.80263000",
    "wikiDataId": null
  },
  {
    "id": 37244,
    "name": "Sierra de Fuentes",
    "state_id": 1190,
    "state_code": "CC",
    "country_id": 207,
    "country_code": "ES",
    "latitude": "39.43997000",
    "longitude": "-6.27242000",
    "wikiDataId": null
  },
  {
    "id": 37359,
    "name": "Talaván",
    "state_id": 1190,
    "state_code": "CC",
    "country_id": 207,
    "country_code": "ES",
    "latitude": "39.71715000",
    "longitude": "-6.28146000",
    "wikiDataId": null
  },
  {
    "id": 151215,
    "name": "Talaveruela de la Vera",
    "state_id": 1190,
    "state_code": "CC",
    "country_id": 207,
    "country_code": "ES",
    "latitude": "40.12067660",
    "longitude": "-5.52170700",
    "wikiDataId": null
  },
  {
    "id": 37360,
    "name": "Talayuela",
    "state_id": 1190,
    "state_code": "CC",
    "country_id": 207,
    "country_code": "ES",
    "latitude": "39.98701000",
    "longitude": "-5.60982000",
    "wikiDataId": null
  },
  {
    "id": 37398,
    "name": "Tejeda de Tiétar",
    "state_id": 1190,
    "state_code": "CC",
    "country_id": 207,
    "country_code": "ES",
    "latitude": "40.01790000",
    "longitude": "-5.86953000",
    "wikiDataId": null
  },
  {
    "id": 37466,
    "name": "Toril",
    "state_id": 1190,
    "state_code": "CC",
    "country_id": 207,
    "country_code": "ES",
    "latitude": "39.89749000",
    "longitude": "-5.77950000",
    "wikiDataId": null
  },
  {
    "id": 37474,
    "name": "Tornavacas",
    "state_id": 1190,
    "state_code": "CC",
    "country_id": 207,
    "country_code": "ES",
    "latitude": "40.25498000",
    "longitude": "-5.68876000",
    "wikiDataId": null
  },
  {
    "id": 37491,
    "name": "Torre de Don Miguel",
    "state_id": 1190,
    "state_code": "CC",
    "country_id": 207,
    "country_code": "ES",
    "latitude": "40.22333000",
    "longitude": "-6.57686000",
    "wikiDataId": null
  },
  {
    "id": 37496,
    "name": "Torre de Santa María",
    "state_id": 1190,
    "state_code": "CC",
    "country_id": 207,
    "country_code": "ES",
    "latitude": "39.25441000",
    "longitude": "-6.11610000",
    "wikiDataId": null
  },
  {
    "id": 37520,
    "name": "Torrecilla de los Ángeles",
    "state_id": 1190,
    "state_code": "CC",
    "country_id": 207,
    "country_code": "ES",
    "latitude": "40.24788000",
    "longitude": "-6.41606000",
    "wikiDataId": null
  },
  {
    "id": 37526,
    "name": "Torrecillas de la Tiesa",
    "state_id": 1190,
    "state_code": "CC",
    "country_id": 207,
    "country_code": "ES",
    "latitude": "39.56837000",
    "longitude": "-5.74238000",
    "wikiDataId": null
  },
  {
    "id": 37542,
    "name": "Torrejón el Rubio",
    "state_id": 1190,
    "state_code": "CC",
    "country_id": 207,
    "country_code": "ES",
    "latitude": "39.77068000",
    "longitude": "-6.01260000",
    "wikiDataId": null
  },
  {
    "id": 37536,
    "name": "Torrejoncillo",
    "state_id": 1190,
    "state_code": "CC",
    "country_id": 207,
    "country_code": "ES",
    "latitude": "39.89675000",
    "longitude": "-6.46712000",
    "wikiDataId": null
  },
  {
    "id": 37554,
    "name": "Torremenga",
    "state_id": 1190,
    "state_code": "CC",
    "country_id": 207,
    "country_code": "ES",
    "latitude": "40.04658000",
    "longitude": "-5.77471000",
    "wikiDataId": null
  },
  {
    "id": 37555,
    "name": "Torremocha",
    "state_id": 1190,
    "state_code": "CC",
    "country_id": 207,
    "country_code": "ES",
    "latitude": "39.34565000",
    "longitude": "-6.17335000",
    "wikiDataId": null
  },
  {
    "id": 37568,
    "name": "Torreorgaz",
    "state_id": 1190,
    "state_code": "CC",
    "country_id": 207,
    "country_code": "ES",
    "latitude": "39.38310000",
    "longitude": "-6.24941000",
    "wikiDataId": null
  },
  {
    "id": 37570,
    "name": "Torrequemada",
    "state_id": 1190,
    "state_code": "CC",
    "country_id": 207,
    "country_code": "ES",
    "latitude": "39.36664000",
    "longitude": "-6.22052000",
    "wikiDataId": null
  },
  {
    "id": 37645,
    "name": "Trujillo",
    "state_id": 1190,
    "state_code": "CC",
    "country_id": 207,
    "country_code": "ES",
    "latitude": "39.45786000",
    "longitude": "-5.88203000",
    "wikiDataId": null
  },
  {
    "id": 37728,
    "name": "Valdastillas",
    "state_id": 1190,
    "state_code": "CC",
    "country_id": 207,
    "country_code": "ES",
    "latitude": "40.13293000",
    "longitude": "-5.87932000",
    "wikiDataId": null
  },
  {
    "id": 37740,
    "name": "Valdecañas de Tajo",
    "state_id": 1190,
    "state_code": "CC",
    "country_id": 207,
    "country_code": "ES",
    "latitude": "39.75919000",
    "longitude": "-5.61951000",
    "wikiDataId": null
  },
  {
    "id": 37745,
    "name": "Valdefuentes",
    "state_id": 1190,
    "state_code": "CC",
    "country_id": 207,
    "country_code": "ES",
    "latitude": "39.27433000",
    "longitude": "-6.12183000",
    "wikiDataId": null
  },
  {
    "id": 37752,
    "name": "Valdehúncar",
    "state_id": 1190,
    "state_code": "CC",
    "country_id": 207,
    "country_code": "ES",
    "latitude": "39.83659000",
    "longitude": "-5.52307000",
    "wikiDataId": null
  },
  {
    "id": 37755,
    "name": "Valdelacasa de Tajo",
    "state_id": 1190,
    "state_code": "CC",
    "country_id": 207,
    "country_code": "ES",
    "latitude": "39.72588000",
    "longitude": "-5.28296000",
    "wikiDataId": null
  },
  {
    "id": 37771,
    "name": "Valdemorales",
    "state_id": 1190,
    "state_code": "CC",
    "country_id": 207,
    "country_code": "ES",
    "latitude": "39.20588000",
    "longitude": "-6.06622000",
    "wikiDataId": null
  },
  {
    "id": 37778,
    "name": "Valdeobispo",
    "state_id": 1190,
    "state_code": "CC",
    "country_id": 207,
    "country_code": "ES",
    "latitude": "40.08297000",
    "longitude": "-6.24757000",
    "wikiDataId": null
  },
  {
    "id": 37817,
    "name": "Valencia de Alcántara",
    "state_id": 1190,
    "state_code": "CC",
    "country_id": 207,
    "country_code": "ES",
    "latitude": "39.41148000",
    "longitude": "-7.24435000",
    "wikiDataId": null
  },
  {
    "id": 37890,
    "name": "Valverde de la Vera",
    "state_id": 1190,
    "state_code": "CC",
    "country_id": 207,
    "country_code": "ES",
    "latitude": "40.12268000",
    "longitude": "-5.49541000",
    "wikiDataId": null
  },
  {
    "id": 37894,
    "name": "Valverde del Fresno",
    "state_id": 1190,
    "state_code": "CC",
    "country_id": 207,
    "country_code": "ES",
    "latitude": "40.22210000",
    "longitude": "-6.87848000",
    "wikiDataId": null
  },
  {
    "id": 151217,
    "name": "Vegaviana",
    "state_id": 1190,
    "state_code": "CC",
    "country_id": 207,
    "country_code": "ES",
    "latitude": "40.04149230",
    "longitude": "-6.71862830",
    "wikiDataId": null
  },
  {
    "id": 37960,
    "name": "Viandar de la Vera",
    "state_id": 1190,
    "state_code": "CC",
    "country_id": 207,
    "country_code": "ES",
    "latitude": "40.12191000",
    "longitude": "-5.53593000",
    "wikiDataId": null
  },
  {
    "id": 38011,
    "name": "Villa del Campo",
    "state_id": 1190,
    "state_code": "CC",
    "country_id": 207,
    "country_code": "ES",
    "latitude": "40.14223000",
    "longitude": "-6.42679000",
    "wikiDataId": null
  },
  {
    "id": 38013,
    "name": "Villa del Rey",
    "state_id": 1190,
    "state_code": "CC",
    "country_id": 207,
    "country_code": "ES",
    "latitude": "39.65955000",
    "longitude": "-6.82122000",
    "wikiDataId": null
  },
  {
    "id": 38153,
    "name": "Villamesías",
    "state_id": 1190,
    "state_code": "CC",
    "country_id": 207,
    "country_code": "ES",
    "latitude": "39.24568000",
    "longitude": "-5.87307000",
    "wikiDataId": null
  },
  {
    "id": 38154,
    "name": "Villamiel",
    "state_id": 1190,
    "state_code": "CC",
    "country_id": 207,
    "country_code": "ES",
    "latitude": "40.18635000",
    "longitude": "-6.78425000",
    "wikiDataId": null
  },
  {
    "id": 38202,
    "name": "Villanueva de la Sierra",
    "state_id": 1190,
    "state_code": "CC",
    "country_id": 207,
    "country_code": "ES",
    "latitude": "40.20163000",
    "longitude": "-6.40611000",
    "wikiDataId": null
  },
  {
    "id": 38204,
    "name": "Villanueva de la Vera",
    "state_id": 1190,
    "state_code": "CC",
    "country_id": 207,
    "country_code": "ES",
    "latitude": "40.12998000",
    "longitude": "-5.46250000",
    "wikiDataId": null
  },
  {
    "id": 38243,
    "name": "Villar de Plasencia",
    "state_id": 1190,
    "state_code": "CC",
    "country_id": 207,
    "country_code": "ES",
    "latitude": "40.13773000",
    "longitude": "-6.02790000",
    "wikiDataId": null
  },
  {
    "id": 38258,
    "name": "Villar del Pedroso",
    "state_id": 1190,
    "state_code": "CC",
    "country_id": 207,
    "country_code": "ES",
    "latitude": "39.70631000",
    "longitude": "-5.19583000",
    "wikiDataId": null
  },
  {
    "id": 38316,
    "name": "Villasbuenas de Gata",
    "state_id": 1190,
    "state_code": "CC",
    "country_id": 207,
    "country_code": "ES",
    "latitude": "40.17879000",
    "longitude": "-6.62641000",
    "wikiDataId": null
  },
  {
    "id": 38478,
    "name": "Zarza de Granadilla",
    "state_id": 1190,
    "state_code": "CC",
    "country_id": 207,
    "country_code": "ES",
    "latitude": "40.23723000",
    "longitude": "-6.04850000",
    "wikiDataId": null
  },
  {
    "id": 38479,
    "name": "Zarza de Montánchez",
    "state_id": 1190,
    "state_code": "CC",
    "country_id": 207,
    "country_code": "ES",
    "latitude": "39.25756000",
    "longitude": "-6.03248000",
    "wikiDataId": null
  },
  {
    "id": 38481,
    "name": "Zarza la Mayor",
    "state_id": 1190,
    "state_code": "CC",
    "country_id": 207,
    "country_code": "ES",
    "latitude": "39.87692000",
    "longitude": "-6.86211000",
    "wikiDataId": null
  },
  {
    "id": 38495,
    "name": "Zorita",
    "state_id": 1190,
    "state_code": "CC",
    "country_id": 207,
    "country_code": "ES",
    "latitude": "39.28522000",
    "longitude": "-5.69973000",
    "wikiDataId": null
  }
]