[
  {
    "id": 77326,
    "name": "Almelo",
    "state_id": 2618,
    "state_code": "OV",
    "country_id": 156,
    "country_code": "NL",
    "latitude": "52.35667000",
    "longitude": "6.66250000",
    "wikiDataId": null
  },
  {
    "id": 77363,
    "name": "Baalder",
    "state_id": 2618,
    "state_code": "OV",
    "country_id": 156,
    "country_code": "NL",
    "latitude": "52.58579000",
    "longitude": "6.65299000",
    "wikiDataId": null
  },
  {
    "id": 77418,
    "name": "Berkum",
    "state_id": 2618,
    "state_code": "OV",
    "country_id": 156,
    "country_code": "NL",
    "latitude": "52.52395000",
    "longitude": "6.13655000",
    "wikiDataId": null
  },
  {
    "id": 77446,
    "name": "Blokzijl",
    "state_id": 2618,
    "state_code": "OV",
    "country_id": 156,
    "country_code": "NL",
    "latitude": "52.72667000",
    "longitude": "5.96111000",
    "wikiDataId": null
  },
  {
    "id": 77455,
    "name": "Borgele",
    "state_id": 2618,
    "state_code": "OV",
    "country_id": 156,
    "country_code": "NL",
    "latitude": "52.27630000",
    "longitude": "6.14926000",
    "wikiDataId": null
  },
  {
    "id": 77459,
    "name": "Borne",
    "state_id": 2618,
    "state_code": "OV",
    "country_id": 156,
    "country_code": "NL",
    "latitude": "52.30136000",
    "longitude": "6.74820000",
    "wikiDataId": null
  },
  {
    "id": 77462,
    "name": "Boskamp",
    "state_id": 2618,
    "state_code": "OV",
    "country_id": 156,
    "country_code": "NL",
    "latitude": "52.33083000",
    "longitude": "6.12778000",
    "wikiDataId": null
  },
  {
    "id": 77494,
    "name": "Brunnepe",
    "state_id": 2618,
    "state_code": "OV",
    "country_id": 156,
    "country_code": "NL",
    "latitude": "52.56185000",
    "longitude": "5.90343000",
    "wikiDataId": null
  },
  {
    "id": 77529,
    "name": "Dalfsen",
    "state_id": 2618,
    "state_code": "OV",
    "country_id": 156,
    "country_code": "NL",
    "latitude": "52.51167000",
    "longitude": "6.25694000",
    "wikiDataId": null
  },
  {
    "id": 77546,
    "name": "De Hoven",
    "state_id": 2618,
    "state_code": "OV",
    "country_id": 156,
    "country_code": "NL",
    "latitude": "52.24901000",
    "longitude": "6.14367000",
    "wikiDataId": null
  },
  {
    "id": 77566,
    "name": "Delden",
    "state_id": 2618,
    "state_code": "OV",
    "country_id": 156,
    "country_code": "NL",
    "latitude": "52.26000000",
    "longitude": "6.71111000",
    "wikiDataId": null
  },
  {
    "id": 77572,
    "name": "Den Ham",
    "state_id": 2618,
    "state_code": "OV",
    "country_id": 156,
    "country_code": "NL",
    "latitude": "52.46583000",
    "longitude": "6.49583000",
    "wikiDataId": null
  },
  {
    "id": 77576,
    "name": "Deventer",
    "state_id": 2618,
    "state_code": "OV",
    "country_id": 156,
    "country_code": "NL",
    "latitude": "52.25500000",
    "longitude": "6.16389000",
    "wikiDataId": null
  },
  {
    "id": 77578,
    "name": "Diepenheim",
    "state_id": 2618,
    "state_code": "OV",
    "country_id": 156,
    "country_code": "NL",
    "latitude": "52.20000000",
    "longitude": "6.55556000",
    "wikiDataId": null
  },
  {
    "id": 77662,
    "name": "Enschede",
    "state_id": 2618,
    "state_code": "OV",
    "country_id": 156,
    "country_code": "NL",
    "latitude": "52.21833000",
    "longitude": "6.89583000",
    "wikiDataId": null
  },
  {
    "id": 77677,
    "name": "Flevowijk",
    "state_id": 2618,
    "state_code": "OV",
    "country_id": 156,
    "country_code": "NL",
    "latitude": "52.54583000",
    "longitude": "5.91338000",
    "wikiDataId": null
  },
  {
    "id": 77679,
    "name": "Frankhuis",
    "state_id": 2618,
    "state_code": "OV",
    "country_id": 156,
    "country_code": "NL",
    "latitude": "52.52500000",
    "longitude": "6.06806000",
    "wikiDataId": null
  },
  {
    "id": 78032,
    "name": "Giethoorn",
    "state_id": 2618,
    "state_code": "OV",
    "country_id": 156,
    "country_code": "NL",
    "latitude": "52.74000000",
    "longitude": "6.07917000",
    "wikiDataId": null
  },
  {
    "id": 78040,
    "name": "Goor",
    "state_id": 2618,
    "state_code": "OV",
    "country_id": 156,
    "country_code": "NL",
    "latitude": "52.23333000",
    "longitude": "6.58611000",
    "wikiDataId": null
  },
  {
    "id": 78050,
    "name": "Grafhorst",
    "state_id": 2618,
    "state_code": "OV",
    "country_id": 156,
    "country_code": "NL",
    "latitude": "52.58250000",
    "longitude": "5.93333000",
    "wikiDataId": null
  },
  {
    "id": 78075,
    "name": "Haaksbergen",
    "state_id": 2618,
    "state_code": "OV",
    "country_id": 156,
    "country_code": "NL",
    "latitude": "52.15667000",
    "longitude": "6.73889000",
    "wikiDataId": null
  },
  {
    "id": 78080,
    "name": "Haarle",
    "state_id": 2618,
    "state_code": "OV",
    "country_id": 156,
    "country_code": "NL",
    "latitude": "52.35917000",
    "longitude": "6.38056000",
    "wikiDataId": null
  },
  {
    "id": 78091,
    "name": "Hardenberg",
    "state_id": 2618,
    "state_code": "OV",
    "country_id": 156,
    "country_code": "NL",
    "latitude": "52.57583000",
    "longitude": "6.61944000",
    "wikiDataId": null
  },
  {
    "id": 78099,
    "name": "Hasselt",
    "state_id": 2618,
    "state_code": "OV",
    "country_id": 156,
    "country_code": "NL",
    "latitude": "52.59267000",
    "longitude": "6.09527000",
    "wikiDataId": null
  },
  {
    "id": 78131,
    "name": "Heino",
    "state_id": 2618,
    "state_code": "OV",
    "country_id": 156,
    "country_code": "NL",
    "latitude": "52.43661000",
    "longitude": "6.23282000",
    "wikiDataId": null
  },
  {
    "id": 78140,
    "name": "Hengelo",
    "state_id": 2618,
    "state_code": "OV",
    "country_id": 156,
    "country_code": "NL",
    "latitude": "52.26583000",
    "longitude": "6.79306000",
    "wikiDataId": null
  },
  {
    "id": 78142,
    "name": "Hengevelde",
    "state_id": 2618,
    "state_code": "OV",
    "country_id": 156,
    "country_code": "NL",
    "latitude": "52.19917000",
    "longitude": "6.63611000",
    "wikiDataId": null
  },
  {
    "id": 78150,
    "name": "Het Oostrik",
    "state_id": 2618,
    "state_code": "OV",
    "country_id": 156,
    "country_code": "NL",
    "latitude": "52.25000000",
    "longitude": "6.21667000",
    "wikiDataId": null
  },
  {
    "id": 78213,
    "name": "Kampen",
    "state_id": 2618,
    "state_code": "OV",
    "country_id": 156,
    "country_code": "NL",
    "latitude": "52.55500000",
    "longitude": "5.91111000",
    "wikiDataId": null
  },
  {
    "id": 78236,
    "name": "Klein Driene",
    "state_id": 2618,
    "state_code": "OV",
    "country_id": 156,
    "country_code": "NL",
    "latitude": "52.26935000",
    "longitude": "6.81613000",
    "wikiDataId": null
  },
  {
    "id": 78323,
    "name": "Losser",
    "state_id": 2618,
    "state_code": "OV",
    "country_id": 156,
    "country_code": "NL",
    "latitude": "52.26083000",
    "longitude": "7.00417000",
    "wikiDataId": null
  },
  {
    "id": 78342,
    "name": "Magele",
    "state_id": 2618,
    "state_code": "OV",
    "country_id": 156,
    "country_code": "NL",
    "latitude": "52.46917000",
    "longitude": "6.52083000",
    "wikiDataId": null
  },
  {
    "id": 78351,
    "name": "Markelo",
    "state_id": 2618,
    "state_code": "OV",
    "country_id": 156,
    "country_code": "NL",
    "latitude": "52.23500000",
    "longitude": "6.49861000",
    "wikiDataId": null
  },
  {
    "id": 78375,
    "name": "Mekkelholt",
    "state_id": 2618,
    "state_code": "OV",
    "country_id": 156,
    "country_code": "NL",
    "latitude": "52.23645000",
    "longitude": "6.89058000",
    "wikiDataId": null
  },
  {
    "id": 78448,
    "name": "Nieuwoord",
    "state_id": 2618,
    "state_code": "OV",
    "country_id": 156,
    "country_code": "NL",
    "latitude": "52.46667000",
    "longitude": "6.55000000",
    "wikiDataId": null
  },
  {
    "id": 78456,
    "name": "Nijrees",
    "state_id": 2618,
    "state_code": "OV",
    "country_id": 156,
    "country_code": "NL",
    "latitude": "52.33500000",
    "longitude": "6.66389000",
    "wikiDataId": null
  },
  {
    "id": 78496,
    "name": "Oldemarkt",
    "state_id": 2618,
    "state_code": "OV",
    "country_id": 156,
    "country_code": "NL",
    "latitude": "52.82083000",
    "longitude": "5.97500000",
    "wikiDataId": null
  },
  {
    "id": 78497,
    "name": "Oldenzaal",
    "state_id": 2618,
    "state_code": "OV",
    "country_id": 156,
    "country_code": "NL",
    "latitude": "52.31333000",
    "longitude": "6.92917000",
    "wikiDataId": null
  },
  {
    "id": 78498,
    "name": "Olst",
    "state_id": 2618,
    "state_code": "OV",
    "country_id": 156,
    "country_code": "NL",
    "latitude": "52.33750000",
    "longitude": "6.10972000",
    "wikiDataId": null
  },
  {
    "id": 78500,
    "name": "Ommen",
    "state_id": 2618,
    "state_code": "OV",
    "country_id": 156,
    "country_code": "NL",
    "latitude": "52.52083000",
    "longitude": "6.42083000",
    "wikiDataId": null
  },
  {
    "id": 78517,
    "name": "Oosterholt",
    "state_id": 2618,
    "state_code": "OV",
    "country_id": 156,
    "country_code": "NL",
    "latitude": "52.55917000",
    "longitude": "5.95556000",
    "wikiDataId": null
  },
  {
    "id": 78522,
    "name": "Oostermeenthe",
    "state_id": 2618,
    "state_code": "OV",
    "country_id": 156,
    "country_code": "NL",
    "latitude": "52.79319000",
    "longitude": "6.13138000",
    "wikiDataId": null
  },
  {
    "id": 78530,
    "name": "Ootmarsum",
    "state_id": 2618,
    "state_code": "OV",
    "country_id": 156,
    "country_code": "NL",
    "latitude": "52.40833000",
    "longitude": "6.90139000",
    "wikiDataId": null
  },
  {
    "id": 78582,
    "name": "Pathmos",
    "state_id": 2618,
    "state_code": "OV",
    "country_id": 156,
    "country_code": "NL",
    "latitude": "52.21397000",
    "longitude": "6.87555000",
    "wikiDataId": null
  },
  {
    "id": 78589,
    "name": "Pierik",
    "state_id": 2618,
    "state_code": "OV",
    "country_id": 156,
    "country_code": "NL",
    "latitude": "52.50141000",
    "longitude": "6.11170000",
    "wikiDataId": null
  },
  {
    "id": 78604,
    "name": "Raalte",
    "state_id": 2618,
    "state_code": "OV",
    "country_id": 156,
    "country_code": "NL",
    "latitude": "52.38583000",
    "longitude": "6.27500000",
    "wikiDataId": null
  },
  {
    "id": 78640,
    "name": "Rossum",
    "state_id": 2618,
    "state_code": "OV",
    "country_id": 156,
    "country_code": "NL",
    "latitude": "52.35167000",
    "longitude": "6.92222000",
    "wikiDataId": null
  },
  {
    "id": 78658,
    "name": "Schalkhaar",
    "state_id": 2618,
    "state_code": "OV",
    "country_id": 156,
    "country_code": "NL",
    "latitude": "52.26833000",
    "longitude": "6.19444000",
    "wikiDataId": null
  },
  {
    "id": 78697,
    "name": "Sint Jansklooster",
    "state_id": 2618,
    "state_code": "OV",
    "country_id": 156,
    "country_code": "NL",
    "latitude": "52.67750000",
    "longitude": "6.00556000",
    "wikiDataId": null
  },
  {
    "id": 78745,
    "name": "Staphorst",
    "state_id": 2618,
    "state_code": "OV",
    "country_id": 156,
    "country_code": "NL",
    "latitude": "52.64500000",
    "longitude": "6.21111000",
    "wikiDataId": null
  },
  {
    "id": 78751,
    "name": "Steenwijk",
    "state_id": 2618,
    "state_code": "OV",
    "country_id": 156,
    "country_code": "NL",
    "latitude": "52.78750000",
    "longitude": "6.12083000",
    "wikiDataId": null
  },
  {
    "id": 78752,
    "name": "Steenwijkerwold",
    "state_id": 2618,
    "state_code": "OV",
    "country_id": 156,
    "country_code": "NL",
    "latitude": "52.80417000",
    "longitude": "6.06389000",
    "wikiDataId": null
  },
  {
    "id": 78792,
    "name": "Tubbergen",
    "state_id": 2618,
    "state_code": "OV",
    "country_id": 156,
    "country_code": "NL",
    "latitude": "52.40750000",
    "longitude": "6.78472000",
    "wikiDataId": null
  },
  {
    "id": 78795,
    "name": "Tuk",
    "state_id": 2618,
    "state_code": "OV",
    "country_id": 156,
    "country_code": "NL",
    "latitude": "52.79667000",
    "longitude": "6.09444000",
    "wikiDataId": null
  },
  {
    "id": 78797,
    "name": "Twekkelerveld",
    "state_id": 2618,
    "state_code": "OV",
    "country_id": 156,
    "country_code": "NL",
    "latitude": "52.23064000",
    "longitude": "6.86004000",
    "wikiDataId": null
  },
  {
    "id": 78872,
    "name": "Vollenhove",
    "state_id": 2618,
    "state_code": "OV",
    "country_id": 156,
    "country_code": "NL",
    "latitude": "52.68083000",
    "longitude": "5.95417000",
    "wikiDataId": null
  },
  {
    "id": 78886,
    "name": "Vriezenveen",
    "state_id": 2618,
    "state_code": "OV",
    "country_id": 156,
    "country_code": "NL",
    "latitude": "52.40833000",
    "longitude": "6.62222000",
    "wikiDataId": null
  },
  {
    "id": 78887,
    "name": "Vroomshoop",
    "state_id": 2618,
    "state_code": "OV",
    "country_id": 156,
    "country_code": "NL",
    "latitude": "52.46083000",
    "longitude": "6.56528000",
    "wikiDataId": null
  },
  {
    "id": 78936,
    "name": "Westerhaar-Vriezenveensewijk",
    "state_id": 2618,
    "state_code": "OV",
    "country_id": 156,
    "country_code": "NL",
    "latitude": "52.45583000",
    "longitude": "6.62361000",
    "wikiDataId": null
  },
  {
    "id": 78946,
    "name": "Wierden",
    "state_id": 2618,
    "state_code": "OV",
    "country_id": 156,
    "country_code": "NL",
    "latitude": "52.35917000",
    "longitude": "6.59306000",
    "wikiDataId": null
  },
  {
    "id": 78952,
    "name": "Wijhe",
    "state_id": 2618,
    "state_code": "OV",
    "country_id": 156,
    "country_code": "NL",
    "latitude": "52.38667000",
    "longitude": "6.13472000",
    "wikiDataId": null
  },
  {
    "id": 78980,
    "name": "Woolde",
    "state_id": 2618,
    "state_code": "OV",
    "country_id": 156,
    "country_code": "NL",
    "latitude": "52.27210000",
    "longitude": "6.75891000",
    "wikiDataId": null
  },
  {
    "id": 78981,
    "name": "Wooldrik",
    "state_id": 2618,
    "state_code": "OV",
    "country_id": 156,
    "country_code": "NL",
    "latitude": "52.21667000",
    "longitude": "6.91667000",
    "wikiDataId": null
  },
  {
    "id": 79023,
    "name": "Zuid-Berghuizen",
    "state_id": 2618,
    "state_code": "OV",
    "country_id": 156,
    "country_code": "NL",
    "latitude": "52.30083000",
    "longitude": "6.93333000",
    "wikiDataId": null
  },
  {
    "id": 79036,
    "name": "Zwolle",
    "state_id": 2618,
    "state_code": "OV",
    "country_id": 156,
    "country_code": "NL",
    "latitude": "52.51250000",
    "longitude": "6.09444000",
    "wikiDataId": null
  }
]