[
  {
    "id": 55169,
    "name": "Abasár",
    "state_id": 1040,
    "state_code": "HE",
    "country_id": 99,
    "country_code": "HU",
    "latitude": "47.79705000",
    "longitude": "20.00324000",
    "wikiDataId": null
  },
  {
    "id": 55176,
    "name": "Adács",
    "state_id": 1040,
    "state_code": "HE",
    "country_id": 99,
    "country_code": "HU",
    "latitude": "47.69210000",
    "longitude": "19.97696000",
    "wikiDataId": null
  },
  {
    "id": 55188,
    "name": "Andornaktálya",
    "state_id": 1040,
    "state_code": "HE",
    "country_id": 99,
    "country_code": "HU",
    "latitude": "47.85000000",
    "longitude": "20.41667000",
    "wikiDataId": null
  },
  {
    "id": 55190,
    "name": "Apc",
    "state_id": 1040,
    "state_code": "HE",
    "country_id": 99,
    "country_code": "HU",
    "latitude": "47.79419000",
    "longitude": "19.69429000",
    "wikiDataId": null
  },
  {
    "id": 55302,
    "name": "Bélapátfalva",
    "state_id": 1040,
    "state_code": "HE",
    "country_id": 99,
    "country_code": "HU",
    "latitude": "48.05000000",
    "longitude": "20.36667000",
    "wikiDataId": null
  },
  {
    "id": 55303,
    "name": "Bélapátfalvai Járás",
    "state_id": 1040,
    "state_code": "HE",
    "country_id": 99,
    "country_code": "HU",
    "latitude": "48.06386000",
    "longitude": "20.36163000",
    "wikiDataId": null
  },
  {
    "id": 55244,
    "name": "Besenyőtelek",
    "state_id": 1040,
    "state_code": "HE",
    "country_id": 99,
    "country_code": "HU",
    "latitude": "47.70000000",
    "longitude": "20.43333000",
    "wikiDataId": null
  },
  {
    "id": 55253,
    "name": "Boldog",
    "state_id": 1040,
    "state_code": "HE",
    "country_id": 99,
    "country_code": "HU",
    "latitude": "47.60285000",
    "longitude": "19.68839000",
    "wikiDataId": null
  },
  {
    "id": 55346,
    "name": "Csány",
    "state_id": 1040,
    "state_code": "HE",
    "country_id": 99,
    "country_code": "HU",
    "latitude": "47.64829000",
    "longitude": "19.82972000",
    "wikiDataId": null
  },
  {
    "id": 55371,
    "name": "Domoszló",
    "state_id": 1040,
    "state_code": "HE",
    "country_id": 99,
    "country_code": "HU",
    "latitude": "47.83333000",
    "longitude": "20.11667000",
    "wikiDataId": null
  },
  {
    "id": 55395,
    "name": "Ecséd",
    "state_id": 1040,
    "state_code": "HE",
    "country_id": 99,
    "country_code": "HU",
    "latitude": "47.73267000",
    "longitude": "19.76696000",
    "wikiDataId": null
  },
  {
    "id": 55398,
    "name": "Eger",
    "state_id": 1040,
    "state_code": "HE",
    "country_id": 99,
    "country_code": "HU",
    "latitude": "47.90265000",
    "longitude": "20.37329000",
    "wikiDataId": null
  },
  {
    "id": 55399,
    "name": "Egerszalók",
    "state_id": 1040,
    "state_code": "HE",
    "country_id": 99,
    "country_code": "HU",
    "latitude": "47.86667000",
    "longitude": "20.33333000",
    "wikiDataId": null
  },
  {
    "id": 55400,
    "name": "Egri Járás",
    "state_id": 1040,
    "state_code": "HE",
    "country_id": 99,
    "country_code": "HU",
    "latitude": "47.92961000",
    "longitude": "20.37383000",
    "wikiDataId": null
  },
  {
    "id": 55412,
    "name": "Erdőtelek",
    "state_id": 1040,
    "state_code": "HE",
    "country_id": 99,
    "country_code": "HU",
    "latitude": "47.68333000",
    "longitude": "20.31667000",
    "wikiDataId": null
  },
  {
    "id": 55425,
    "name": "Felsőtárkány",
    "state_id": 1040,
    "state_code": "HE",
    "country_id": 99,
    "country_code": "HU",
    "latitude": "47.96667000",
    "longitude": "20.41667000",
    "wikiDataId": null
  },
  {
    "id": 55441,
    "name": "Füzesabony",
    "state_id": 1040,
    "state_code": "HE",
    "country_id": 99,
    "country_code": "HU",
    "latitude": "47.75000000",
    "longitude": "20.41667000",
    "wikiDataId": null
  },
  {
    "id": 55442,
    "name": "Füzesabonyi Járás",
    "state_id": 1040,
    "state_code": "HE",
    "country_id": 99,
    "country_code": "HU",
    "latitude": "47.72671000",
    "longitude": "20.42875000",
    "wikiDataId": null
  },
  {
    "id": 55459,
    "name": "Gyöngyös",
    "state_id": 1040,
    "state_code": "HE",
    "country_id": 99,
    "country_code": "HU",
    "latitude": "47.78257000",
    "longitude": "19.92800000",
    "wikiDataId": null
  },
  {
    "id": 55460,
    "name": "Gyöngyöshalász",
    "state_id": 1040,
    "state_code": "HE",
    "country_id": 99,
    "country_code": "HU",
    "latitude": "47.74161000",
    "longitude": "19.92876000",
    "wikiDataId": null
  },
  {
    "id": 55461,
    "name": "Gyöngyösi Járás",
    "state_id": 1040,
    "state_code": "HE",
    "country_id": 99,
    "country_code": "HU",
    "latitude": "47.79079000",
    "longitude": "19.95430000",
    "wikiDataId": null
  },
  {
    "id": 55462,
    "name": "Gyöngyöspata",
    "state_id": 1040,
    "state_code": "HE",
    "country_id": 99,
    "country_code": "HU",
    "latitude": "47.81505000",
    "longitude": "19.78925000",
    "wikiDataId": null
  },
  {
    "id": 55463,
    "name": "Gyöngyössolymos",
    "state_id": 1040,
    "state_code": "HE",
    "country_id": 99,
    "country_code": "HU",
    "latitude": "47.81724000",
    "longitude": "19.93619000",
    "wikiDataId": null
  },
  {
    "id": 55464,
    "name": "Gyöngyöstarján",
    "state_id": 1040,
    "state_code": "HE",
    "country_id": 99,
    "country_code": "HU",
    "latitude": "47.81369000",
    "longitude": "19.86724000",
    "wikiDataId": null
  },
  {
    "id": 55500,
    "name": "Hatvan",
    "state_id": 1040,
    "state_code": "HE",
    "country_id": 99,
    "country_code": "HU",
    "latitude": "47.66667000",
    "longitude": "19.68333000",
    "wikiDataId": null
  },
  {
    "id": 55501,
    "name": "Hatvani Járás",
    "state_id": 1040,
    "state_code": "HE",
    "country_id": 99,
    "country_code": "HU",
    "latitude": "47.69468000",
    "longitude": "19.72852000",
    "wikiDataId": null
  },
  {
    "id": 55509,
    "name": "Heréd",
    "state_id": 1040,
    "state_code": "HE",
    "country_id": 99,
    "country_code": "HU",
    "latitude": "47.70638000",
    "longitude": "19.63314000",
    "wikiDataId": null
  },
  {
    "id": 55510,
    "name": "Heves",
    "state_id": 1040,
    "state_code": "HE",
    "country_id": 99,
    "country_code": "HU",
    "latitude": "47.60000000",
    "longitude": "20.28333000",
    "wikiDataId": null
  },
  {
    "id": 55511,
    "name": "Hevesi Járás",
    "state_id": 1040,
    "state_code": "HE",
    "country_id": 99,
    "country_code": "HU",
    "latitude": "47.61535000",
    "longitude": "20.31739000",
    "wikiDataId": null
  },
  {
    "id": 55514,
    "name": "Hort",
    "state_id": 1040,
    "state_code": "HE",
    "country_id": 99,
    "country_code": "HU",
    "latitude": "47.69081000",
    "longitude": "19.78930000",
    "wikiDataId": null
  },
  {
    "id": 55635,
    "name": "Kál",
    "state_id": 1040,
    "state_code": "HE",
    "country_id": 99,
    "country_code": "HU",
    "latitude": "47.73333000",
    "longitude": "20.26667000",
    "wikiDataId": null
  },
  {
    "id": 55571,
    "name": "Karácsond",
    "state_id": 1040,
    "state_code": "HE",
    "country_id": 99,
    "country_code": "HU",
    "latitude": "47.72962000",
    "longitude": "20.03076000",
    "wikiDataId": null
  },
  {
    "id": 55586,
    "name": "Kerecsend",
    "state_id": 1040,
    "state_code": "HE",
    "country_id": 99,
    "country_code": "HU",
    "latitude": "47.80000000",
    "longitude": "20.35000000",
    "wikiDataId": null
  },
  {
    "id": 55601,
    "name": "Kisköre",
    "state_id": 1040,
    "state_code": "HE",
    "country_id": 99,
    "country_code": "HU",
    "latitude": "47.50000000",
    "longitude": "20.50000000",
    "wikiDataId": null
  },
  {
    "id": 55620,
    "name": "Kompolt",
    "state_id": 1040,
    "state_code": "HE",
    "country_id": 99,
    "country_code": "HU",
    "latitude": "47.73333000",
    "longitude": "20.25000000",
    "wikiDataId": null
  },
  {
    "id": 55671,
    "name": "Lőrinci",
    "state_id": 1040,
    "state_code": "HE",
    "country_id": 99,
    "country_code": "HU",
    "latitude": "47.73295000",
    "longitude": "19.67867000",
    "wikiDataId": null
  },
  {
    "id": 55676,
    "name": "Maklár",
    "state_id": 1040,
    "state_code": "HE",
    "country_id": 99,
    "country_code": "HU",
    "latitude": "47.80000000",
    "longitude": "20.41667000",
    "wikiDataId": null
  },
  {
    "id": 55724,
    "name": "Mátraderecske",
    "state_id": 1040,
    "state_code": "HE",
    "country_id": 99,
    "country_code": "HU",
    "latitude": "47.95000000",
    "longitude": "20.08333000",
    "wikiDataId": null
  },
  {
    "id": 55761,
    "name": "Nagyréde",
    "state_id": 1040,
    "state_code": "HE",
    "country_id": 99,
    "country_code": "HU",
    "latitude": "47.76543000",
    "longitude": "19.84819000",
    "wikiDataId": null
  },
  {
    "id": 55802,
    "name": "Ostoros",
    "state_id": 1040,
    "state_code": "HE",
    "country_id": 99,
    "country_code": "HU",
    "latitude": "47.86667000",
    "longitude": "20.43333000",
    "wikiDataId": null
  },
  {
    "id": 55810,
    "name": "Parád",
    "state_id": 1040,
    "state_code": "HE",
    "country_id": 99,
    "country_code": "HU",
    "latitude": "47.92323000",
    "longitude": "20.02972000",
    "wikiDataId": null
  },
  {
    "id": 55811,
    "name": "Parádsasvár",
    "state_id": 1040,
    "state_code": "HE",
    "country_id": 99,
    "country_code": "HU",
    "latitude": "47.91260000",
    "longitude": "19.97709000",
    "wikiDataId": null
  },
  {
    "id": 55856,
    "name": "Pétervására",
    "state_id": 1040,
    "state_code": "HE",
    "country_id": 99,
    "country_code": "HU",
    "latitude": "48.01667000",
    "longitude": "20.10000000",
    "wikiDataId": null
  },
  {
    "id": 55857,
    "name": "Pétervásárai Járás",
    "state_id": 1040,
    "state_code": "HE",
    "country_id": 99,
    "country_code": "HU",
    "latitude": "48.00589000",
    "longitude": "20.09466000",
    "wikiDataId": null
  },
  {
    "id": 55816,
    "name": "Petőfibánya",
    "state_id": 1040,
    "state_code": "HE",
    "country_id": 99,
    "country_code": "HU",
    "latitude": "47.76960000",
    "longitude": "19.69988000",
    "wikiDataId": null
  },
  {
    "id": 55831,
    "name": "Poroszló",
    "state_id": 1040,
    "state_code": "HE",
    "country_id": 99,
    "country_code": "HU",
    "latitude": "47.65000000",
    "longitude": "20.66667000",
    "wikiDataId": null
  },
  {
    "id": 55863,
    "name": "Recsk",
    "state_id": 1040,
    "state_code": "HE",
    "country_id": 99,
    "country_code": "HU",
    "latitude": "47.93333000",
    "longitude": "20.11667000",
    "wikiDataId": null
  },
  {
    "id": 55880,
    "name": "Rózsaszentmárton",
    "state_id": 1040,
    "state_code": "HE",
    "country_id": 99,
    "country_code": "HU",
    "latitude": "47.78200000",
    "longitude": "19.74210000",
    "wikiDataId": null
  },
  {
    "id": 55900,
    "name": "Sirok",
    "state_id": 1040,
    "state_code": "HE",
    "country_id": 99,
    "country_code": "HU",
    "latitude": "47.93333000",
    "longitude": "20.20000000",
    "wikiDataId": null
  },
  {
    "id": 55957,
    "name": "Szihalom",
    "state_id": 1040,
    "state_code": "HE",
    "country_id": 99,
    "country_code": "HU",
    "latitude": "47.76667000",
    "longitude": "20.48333000",
    "wikiDataId": null
  },
  {
    "id": 55960,
    "name": "Szilvásvárad",
    "state_id": 1040,
    "state_code": "HE",
    "country_id": 99,
    "country_code": "HU",
    "latitude": "48.10000000",
    "longitude": "20.40000000",
    "wikiDataId": null
  },
  {
    "id": 56013,
    "name": "Tarnalelesz",
    "state_id": 1040,
    "state_code": "HE",
    "country_id": 99,
    "country_code": "HU",
    "latitude": "48.05000000",
    "longitude": "20.18333000",
    "wikiDataId": null
  },
  {
    "id": 56014,
    "name": "Tarnaörs",
    "state_id": 1040,
    "state_code": "HE",
    "country_id": 99,
    "country_code": "HU",
    "latitude": "47.59499000",
    "longitude": "20.05254000",
    "wikiDataId": null
  },
  {
    "id": 56040,
    "name": "Tiszanána",
    "state_id": 1040,
    "state_code": "HE",
    "country_id": 99,
    "country_code": "HU",
    "latitude": "47.56667000",
    "longitude": "20.53333000",
    "wikiDataId": null
  },
  {
    "id": 56109,
    "name": "Vámosgyörk",
    "state_id": 1040,
    "state_code": "HE",
    "country_id": 99,
    "country_code": "HU",
    "latitude": "47.68429000",
    "longitude": "19.92924000",
    "wikiDataId": null
  },
  {
    "id": 56098,
    "name": "Verpelét",
    "state_id": 1040,
    "state_code": "HE",
    "country_id": 99,
    "country_code": "HU",
    "latitude": "47.85000000",
    "longitude": "20.23333000",
    "wikiDataId": null
  },
  {
    "id": 56119,
    "name": "Zagyvaszántó",
    "state_id": 1040,
    "state_code": "HE",
    "country_id": 99,
    "country_code": "HU",
    "latitude": "47.77703000",
    "longitude": "19.67092000",
    "wikiDataId": null
  }
]