[
  {
    "id": 56177,
    "name": "Ambarita",
    "state_id": 1792,
    "state_code": "SU",
    "country_id": 102,
    "country_code": "ID",
    "latitude": "2.68140000",
    "longitude": "98.83110000",
    "wikiDataId": null
  },
  {
    "id": 56194,
    "name": "Bandar",
    "state_id": 1792,
    "state_code": "SU",
    "country_id": 102,
    "country_code": "ID",
    "latitude": "2.05000000",
    "longitude": "99.75000000",
    "wikiDataId": null
  },
  {
    "id": 56216,
    "name": "Belawan",
    "state_id": 1792,
    "state_code": "SU",
    "country_id": 102,
    "country_code": "ID",
    "latitude": "3.77550000",
    "longitude": "98.68320000",
    "wikiDataId": null
  },
  {
    "id": 56218,
    "name": "Berastagi",
    "state_id": 1792,
    "state_code": "SU",
    "country_id": 102,
    "country_code": "ID",
    "latitude": "3.19468000",
    "longitude": "98.50889000",
    "wikiDataId": null
  },
  {
    "id": 56222,
    "name": "Binjai",
    "state_id": 1792,
    "state_code": "SU",
    "country_id": 102,
    "country_code": "ID",
    "latitude": "3.60010000",
    "longitude": "98.48540000",
    "wikiDataId": null
  },
  {
    "id": 56261,
    "name": "Deli Tua",
    "state_id": 1792,
    "state_code": "SU",
    "country_id": 102,
    "country_code": "ID",
    "latitude": "3.50780000",
    "longitude": "98.68390000",
    "wikiDataId": null
  },
  {
    "id": 56290,
    "name": "Gunungsitoli",
    "state_id": 1792,
    "state_code": "SU",
    "country_id": 102,
    "country_code": "ID",
    "latitude": "1.28880000",
    "longitude": "97.61430000",
    "wikiDataId": null
  },
  {
    "id": 56306,
    "name": "Kabanjahe",
    "state_id": 1792,
    "state_code": "SU",
    "country_id": 102,
    "country_code": "ID",
    "latitude": "3.10010000",
    "longitude": "98.49080000",
    "wikiDataId": null
  },
  {
    "id": 56320,
    "name": "Kabupaten Asahan",
    "state_id": 1792,
    "state_code": "SU",
    "country_id": 102,
    "country_code": "ID",
    "latitude": "2.78333000",
    "longitude": "99.55000000",
    "wikiDataId": null
  },
  {
    "id": 56348,
    "name": "Kabupaten Batu Bara",
    "state_id": 1792,
    "state_code": "SU",
    "country_id": 102,
    "country_code": "ID",
    "latitude": "3.16166000",
    "longitude": "99.52652000",
    "wikiDataId": null
  },
  {
    "id": 56394,
    "name": "Kabupaten Dairi",
    "state_id": 1792,
    "state_code": "SU",
    "country_id": 102,
    "country_code": "ID",
    "latitude": "2.86667000",
    "longitude": "98.23333000",
    "wikiDataId": null
  },
  {
    "id": 56396,
    "name": "Kabupaten Deli Serdang",
    "state_id": 1792,
    "state_code": "SU",
    "country_id": 102,
    "country_code": "ID",
    "latitude": "3.41667000",
    "longitude": "98.66667000",
    "wikiDataId": null
  },
  {
    "id": 56423,
    "name": "Kabupaten Humbang Hasundutan",
    "state_id": 1792,
    "state_code": "SU",
    "country_id": 102,
    "country_code": "ID",
    "latitude": "2.26551000",
    "longitude": "98.50376000",
    "wikiDataId": null
  },
  {
    "id": 56442,
    "name": "Kabupaten Karo",
    "state_id": 1792,
    "state_code": "SU",
    "country_id": 102,
    "country_code": "ID",
    "latitude": "3.11667000",
    "longitude": "98.30000000",
    "wikiDataId": null
  },
  {
    "id": 56479,
    "name": "Kabupaten Labuhan Batu",
    "state_id": 1792,
    "state_code": "SU",
    "country_id": 102,
    "country_code": "ID",
    "latitude": "2.26667000",
    "longitude": "100.10000000",
    "wikiDataId": null
  },
  {
    "id": 56480,
    "name": "Kabupaten Labuhan Batu Selatan",
    "state_id": 1792,
    "state_code": "SU",
    "country_id": 102,
    "country_code": "ID",
    "latitude": "1.98300000",
    "longitude": "100.09760000",
    "wikiDataId": null
  },
  {
    "id": 56481,
    "name": "Kabupaten Labuhan Batu Utara",
    "state_id": 1792,
    "state_code": "SU",
    "country_id": 102,
    "country_code": "ID",
    "latitude": "2.33349000",
    "longitude": "99.63776000",
    "wikiDataId": null
  },
  {
    "id": 56489,
    "name": "Kabupaten Langkat",
    "state_id": 1792,
    "state_code": "SU",
    "country_id": 102,
    "country_code": "ID",
    "latitude": "3.71667000",
    "longitude": "98.21667000",
    "wikiDataId": null
  },
  {
    "id": 56523,
    "name": "Kabupaten Mandailing Natal",
    "state_id": 1792,
    "state_code": "SU",
    "country_id": 102,
    "country_code": "ID",
    "latitude": "0.78378000",
    "longitude": "99.25495000",
    "wikiDataId": null
  },
  {
    "id": 56559,
    "name": "Kabupaten Nias",
    "state_id": 1792,
    "state_code": "SU",
    "country_id": 102,
    "country_code": "ID",
    "latitude": "1.03333000",
    "longitude": "97.76667000",
    "wikiDataId": null
  },
  {
    "id": 56560,
    "name": "Kabupaten Nias Barat",
    "state_id": 1792,
    "state_code": "SU",
    "country_id": 102,
    "country_code": "ID",
    "latitude": "1.05966000",
    "longitude": "97.58606000",
    "wikiDataId": null
  },
  {
    "id": 56561,
    "name": "Kabupaten Nias Utara",
    "state_id": 1792,
    "state_code": "SU",
    "country_id": 102,
    "country_code": "ID",
    "latitude": "1.33037000",
    "longitude": "97.31964000",
    "wikiDataId": null
  },
  {
    "id": 56569,
    "name": "Kabupaten Padang Lawas",
    "state_id": 1792,
    "state_code": "SU",
    "country_id": 102,
    "country_code": "ID",
    "latitude": "1.44684000",
    "longitude": "99.99207000",
    "wikiDataId": null
  },
  {
    "id": 56570,
    "name": "Kabupaten Padang Lawas Utara",
    "state_id": 1792,
    "state_code": "SU",
    "country_id": 102,
    "country_code": "ID",
    "latitude": "1.46011000",
    "longitude": "99.67346000",
    "wikiDataId": null
  },
  {
    "id": 56572,
    "name": "Kabupaten Pakpak Bharat",
    "state_id": 1792,
    "state_code": "SU",
    "country_id": 102,
    "country_code": "ID",
    "latitude": "2.56667000",
    "longitude": "98.28333000",
    "wikiDataId": null
  },
  {
    "id": 56615,
    "name": "Kabupaten Samosir",
    "state_id": 1792,
    "state_code": "SU",
    "country_id": 102,
    "country_code": "ID",
    "latitude": "2.64025000",
    "longitude": "98.71525000",
    "wikiDataId": null
  },
  {
    "id": 56624,
    "name": "Kabupaten Serdang Bedagai",
    "state_id": 1792,
    "state_code": "SU",
    "country_id": 102,
    "country_code": "ID",
    "latitude": "3.36667000",
    "longitude": "99.03333000",
    "wikiDataId": null
  },
  {
    "id": 56633,
    "name": "Kabupaten Simalungun",
    "state_id": 1792,
    "state_code": "SU",
    "country_id": 102,
    "country_code": "ID",
    "latitude": "2.90000000",
    "longitude": "99.00000000",
    "wikiDataId": null
  },
  {
    "id": 56670,
    "name": "Kabupaten Tapanuli Selatan",
    "state_id": 1792,
    "state_code": "SU",
    "country_id": 102,
    "country_code": "ID",
    "latitude": "1.51667000",
    "longitude": "99.25000000",
    "wikiDataId": null
  },
  {
    "id": 56671,
    "name": "Kabupaten Tapanuli Tengah",
    "state_id": 1792,
    "state_code": "SU",
    "country_id": 102,
    "country_code": "ID",
    "latitude": "1.90000000",
    "longitude": "98.66667000",
    "wikiDataId": null
  },
  {
    "id": 56672,
    "name": "Kabupaten Tapanuli Utara",
    "state_id": 1792,
    "state_code": "SU",
    "country_id": 102,
    "country_code": "ID",
    "latitude": "2.00280000",
    "longitude": "99.07070000",
    "wikiDataId": null
  },
  {
    "id": 56717,
    "name": "Kisaran",
    "state_id": 1792,
    "state_code": "SU",
    "country_id": 102,
    "country_code": "ID",
    "latitude": "2.98450000",
    "longitude": "99.61580000",
    "wikiDataId": null
  },
  {
    "id": 56832,
    "name": "Labuhan Deli",
    "state_id": 1792,
    "state_code": "SU",
    "country_id": 102,
    "country_code": "ID",
    "latitude": "3.72780000",
    "longitude": "98.67380000",
    "wikiDataId": null
  },
  {
    "id": 56867,
    "name": "Medan",
    "state_id": 1792,
    "state_code": "SU",
    "country_id": 102,
    "country_code": "ID",
    "latitude": "3.58333000",
    "longitude": "98.66667000",
    "wikiDataId": null
  },
  {
    "id": 56894,
    "name": "Padangsidempuan",
    "state_id": 1792,
    "state_code": "SU",
    "country_id": 102,
    "country_code": "ID",
    "latitude": "1.37952000",
    "longitude": "99.27146000",
    "wikiDataId": null
  },
  {
    "id": 56910,
    "name": "Pangkalan Brandan",
    "state_id": 1792,
    "state_code": "SU",
    "country_id": 102,
    "country_code": "ID",
    "latitude": "4.02380000",
    "longitude": "98.27820000",
    "wikiDataId": null
  },
  {
    "id": 56914,
    "name": "Parapat",
    "state_id": 1792,
    "state_code": "SU",
    "country_id": 102,
    "country_code": "ID",
    "latitude": "2.66300000",
    "longitude": "98.93490000",
    "wikiDataId": null
  },
  {
    "id": 56926,
    "name": "Pekan Bahapal",
    "state_id": 1792,
    "state_code": "SU",
    "country_id": 102,
    "country_code": "ID",
    "latitude": "3.11313000",
    "longitude": "99.17352000",
    "wikiDataId": null
  },
  {
    "id": 56930,
    "name": "Pematangsiantar",
    "state_id": 1792,
    "state_code": "SU",
    "country_id": 102,
    "country_code": "ID",
    "latitude": "2.95950000",
    "longitude": "99.06870000",
    "wikiDataId": null
  },
  {
    "id": 56932,
    "name": "Perbaungan",
    "state_id": 1792,
    "state_code": "SU",
    "country_id": 102,
    "country_code": "ID",
    "latitude": "3.56790000",
    "longitude": "98.95600000",
    "wikiDataId": null
  },
  {
    "id": 56933,
    "name": "Percut",
    "state_id": 1792,
    "state_code": "SU",
    "country_id": 102,
    "country_code": "ID",
    "latitude": "3.62530000",
    "longitude": "98.86400000",
    "wikiDataId": null
  },
  {
    "id": 56951,
    "name": "Rantauprapat",
    "state_id": 1792,
    "state_code": "SU",
    "country_id": 102,
    "country_code": "ID",
    "latitude": "2.10000000",
    "longitude": "99.83333000",
    "wikiDataId": null
  },
  {
    "id": 56973,
    "name": "Sibolga",
    "state_id": 1792,
    "state_code": "SU",
    "country_id": 102,
    "country_code": "ID",
    "latitude": "1.74016000",
    "longitude": "98.78117000",
    "wikiDataId": null
  },
  {
    "id": 57000,
    "name": "Stabat",
    "state_id": 1792,
    "state_code": "SU",
    "country_id": 102,
    "country_code": "ID",
    "latitude": "3.73335000",
    "longitude": "98.45025000",
    "wikiDataId": null
  },
  {
    "id": 57010,
    "name": "Sunggal",
    "state_id": 1792,
    "state_code": "SU",
    "country_id": 102,
    "country_code": "ID",
    "latitude": "3.57650000",
    "longitude": "98.61510000",
    "wikiDataId": null
  },
  {
    "id": 57021,
    "name": "Tanjungbalai",
    "state_id": 1792,
    "state_code": "SU",
    "country_id": 102,
    "country_code": "ID",
    "latitude": "2.96667000",
    "longitude": "99.80000000",
    "wikiDataId": null
  },
  {
    "id": 57022,
    "name": "Tanjungtiram",
    "state_id": 1792,
    "state_code": "SU",
    "country_id": 102,
    "country_code": "ID",
    "latitude": "4.06130000",
    "longitude": "98.36990000",
    "wikiDataId": null
  },
  {
    "id": 57027,
    "name": "Tebingtinggi",
    "state_id": 1792,
    "state_code": "SU",
    "country_id": 102,
    "country_code": "ID",
    "latitude": "3.32850000",
    "longitude": "99.16250000",
    "wikiDataId": null
  },
  {
    "id": 57029,
    "name": "Teluk Nibung",
    "state_id": 1792,
    "state_code": "SU",
    "country_id": 102,
    "country_code": "ID",
    "latitude": "3.00100000",
    "longitude": "99.81640000",
    "wikiDataId": null
  },
  {
    "id": 57036,
    "name": "Tomok Bolon",
    "state_id": 1792,
    "state_code": "SU",
    "country_id": 102,
    "country_code": "ID",
    "latitude": "2.65210000",
    "longitude": "98.86080000",
    "wikiDataId": null
  },
  {
    "id": 57038,
    "name": "Tongging",
    "state_id": 1792,
    "state_code": "SU",
    "country_id": 102,
    "country_code": "ID",
    "latitude": "2.89850000",
    "longitude": "98.52310000",
    "wikiDataId": null
  },
  {
    "id": 57043,
    "name": "Tuktuk Sonak",
    "state_id": 1792,
    "state_code": "SU",
    "country_id": 102,
    "country_code": "ID",
    "latitude": "2.66890000",
    "longitude": "98.85760000",
    "wikiDataId": null
  }
]