[
  {
    "id": 68010,
    "name": "Abala",
    "state_id": 3466,
    "state_code": "YUC",
    "country_id": 142,
    "country_code": "MX",
    "latitude": "20.64745000",
    "longitude": "-89.68094000",
    "wikiDataId": null
  },
  {
    "id": 68035,
    "name": "Acanceh",
    "state_id": 3466,
    "state_code": "YUC",
    "country_id": 142,
    "country_code": "MX",
    "latitude": "20.81269000",
    "longitude": "-89.45295000",
    "wikiDataId": null
  },
  {
    "id": 68170,
    "name": "Akil",
    "state_id": 3466,
    "state_code": "YUC",
    "country_id": 142,
    "country_code": "MX",
    "latitude": "20.26547000",
    "longitude": "-89.34787000",
    "wikiDataId": null
  },
  {
    "id": 68479,
    "name": "Baca",
    "state_id": 3466,
    "state_code": "YUC",
    "country_id": 142,
    "country_code": "MX",
    "latitude": "21.10874000",
    "longitude": "-89.39866000",
    "wikiDataId": null
  },
  {
    "id": 68569,
    "name": "Becanchén",
    "state_id": 3466,
    "state_code": "YUC",
    "country_id": 142,
    "country_code": "MX",
    "latitude": "19.87467000",
    "longitude": "-89.21732000",
    "wikiDataId": null
  },
  {
    "id": 68628,
    "name": "Bokoba",
    "state_id": 3466,
    "state_code": "YUC",
    "country_id": 142,
    "country_code": "MX",
    "latitude": "21.00755000",
    "longitude": "-89.17913000",
    "wikiDataId": null
  },
  {
    "id": 68631,
    "name": "Bolón",
    "state_id": 3466,
    "state_code": "YUC",
    "country_id": 142,
    "country_code": "MX",
    "latitude": "20.85010000",
    "longitude": "-89.83193000",
    "wikiDataId": null
  },
  {
    "id": 68657,
    "name": "Buctzotz",
    "state_id": 3466,
    "state_code": "YUC",
    "country_id": 142,
    "country_code": "MX",
    "latitude": "21.20303000",
    "longitude": "-88.79271000",
    "wikiDataId": null
  },
  {
    "id": 68707,
    "name": "Cacalchen",
    "state_id": 3466,
    "state_code": "YUC",
    "country_id": 142,
    "country_code": "MX",
    "latitude": "20.98358000",
    "longitude": "-89.22686000",
    "wikiDataId": null
  },
  {
    "id": 68729,
    "name": "Calcehtoc",
    "state_id": 3466,
    "state_code": "YUC",
    "country_id": 142,
    "country_code": "MX",
    "latitude": "20.56807000",
    "longitude": "-89.91242000",
    "wikiDataId": null
  },
  {
    "id": 68745,
    "name": "Calotmul",
    "state_id": 3466,
    "state_code": "YUC",
    "country_id": 142,
    "country_code": "MX",
    "latitude": "21.02494000",
    "longitude": "-88.12581000",
    "wikiDataId": null
  },
  {
    "id": 68771,
    "name": "Campestre Flamboyanes",
    "state_id": 3466,
    "state_code": "YUC",
    "country_id": 142,
    "country_code": "MX",
    "latitude": "21.21000000",
    "longitude": "-89.65778000",
    "wikiDataId": null
  },
  {
    "id": 68792,
    "name": "Cansahcab",
    "state_id": 3466,
    "state_code": "YUC",
    "country_id": 142,
    "country_code": "MX",
    "latitude": "21.15749000",
    "longitude": "-89.10131000",
    "wikiDataId": null
  },
  {
    "id": 68794,
    "name": "Cantamayec",
    "state_id": 3466,
    "state_code": "YUC",
    "country_id": 142,
    "country_code": "MX",
    "latitude": "20.43186000",
    "longitude": "-89.07176000",
    "wikiDataId": null
  },
  {
    "id": 68865,
    "name": "Caucel",
    "state_id": 3466,
    "state_code": "YUC",
    "country_id": 142,
    "country_code": "MX",
    "latitude": "21.01539000",
    "longitude": "-89.70347000",
    "wikiDataId": null
  },
  {
    "id": 68893,
    "name": "Celestún",
    "state_id": 3466,
    "state_code": "YUC",
    "country_id": 142,
    "country_code": "MX",
    "latitude": "20.85973000",
    "longitude": "-90.39902000",
    "wikiDataId": null
  },
  {
    "id": 68897,
    "name": "Cenotillo",
    "state_id": 3466,
    "state_code": "YUC",
    "country_id": 142,
    "country_code": "MX",
    "latitude": "20.96621000",
    "longitude": "-88.60438000",
    "wikiDataId": null
  },
  {
    "id": 68903,
    "name": "Cepeda",
    "state_id": 3466,
    "state_code": "YUC",
    "country_id": 142,
    "country_code": "MX",
    "latitude": "20.50600000",
    "longitude": "-90.10979000",
    "wikiDataId": null
  },
  {
    "id": 68942,
    "name": "Chablekal",
    "state_id": 3466,
    "state_code": "YUC",
    "country_id": 142,
    "country_code": "MX",
    "latitude": "21.09647000",
    "longitude": "-89.57774000",
    "wikiDataId": null
  },
  {
    "id": 68950,
    "name": "Chacsinkin",
    "state_id": 3466,
    "state_code": "YUC",
    "country_id": 142,
    "country_code": "MX",
    "latitude": "20.17222000",
    "longitude": "-89.01654000",
    "wikiDataId": null
  },
  {
    "id": 68972,
    "name": "Chan Cenote",
    "state_id": 3466,
    "state_code": "YUC",
    "country_id": 142,
    "country_code": "MX",
    "latitude": "20.99142000",
    "longitude": "-87.78564000",
    "wikiDataId": null
  },
  {
    "id": 68975,
    "name": "Chankom",
    "state_id": 3466,
    "state_code": "YUC",
    "country_id": 142,
    "country_code": "MX",
    "latitude": "20.49656000",
    "longitude": "-88.56928000",
    "wikiDataId": null
  },
  {
    "id": 68978,
    "name": "Chapab",
    "state_id": 3466,
    "state_code": "YUC",
    "country_id": 142,
    "country_code": "MX",
    "latitude": "20.48633000",
    "longitude": "-89.46779000",
    "wikiDataId": null
  },
  {
    "id": 69005,
    "name": "Chelem",
    "state_id": 3466,
    "state_code": "YUC",
    "country_id": 142,
    "country_code": "MX",
    "latitude": "21.26967000",
    "longitude": "-89.74006000",
    "wikiDataId": null
  },
  {
    "id": 69006,
    "name": "Chemax",
    "state_id": 3466,
    "state_code": "YUC",
    "country_id": 142,
    "country_code": "MX",
    "latitude": "20.65613000",
    "longitude": "-87.93640000",
    "wikiDataId": null
  },
  {
    "id": 69033,
    "name": "Chichén-Itzá",
    "state_id": 3466,
    "state_code": "YUC",
    "country_id": 142,
    "country_code": "MX",
    "latitude": "20.66667000",
    "longitude": "-88.56667000",
    "wikiDataId": null
  },
  {
    "id": 69030,
    "name": "Chichimila",
    "state_id": 3466,
    "state_code": "YUC",
    "country_id": 142,
    "country_code": "MX",
    "latitude": "20.63176000",
    "longitude": "-88.21689000",
    "wikiDataId": null
  },
  {
    "id": 69049,
    "name": "Chicxulub Pueblo",
    "state_id": 3466,
    "state_code": "YUC",
    "country_id": 142,
    "country_code": "MX",
    "latitude": "21.14527000",
    "longitude": "-89.51331000",
    "wikiDataId": null
  },
  {
    "id": 69050,
    "name": "Chicxulub Puerto",
    "state_id": 3466,
    "state_code": "YUC",
    "country_id": 142,
    "country_code": "MX",
    "latitude": "21.29618000",
    "longitude": "-89.59867000",
    "wikiDataId": null
  },
  {
    "id": 69058,
    "name": "Chikindzonot",
    "state_id": 3466,
    "state_code": "YUC",
    "country_id": 142,
    "country_code": "MX",
    "latitude": "20.33436000",
    "longitude": "-88.48630000",
    "wikiDataId": null
  },
  {
    "id": 69098,
    "name": "Chochola",
    "state_id": 3466,
    "state_code": "YUC",
    "country_id": 142,
    "country_code": "MX",
    "latitude": "20.75087000",
    "longitude": "-89.83041000",
    "wikiDataId": null
  },
  {
    "id": 69101,
    "name": "Cholul",
    "state_id": 3466,
    "state_code": "YUC",
    "country_id": 142,
    "country_code": "MX",
    "latitude": "21.04255000",
    "longitude": "-89.55875000",
    "wikiDataId": null
  },
  {
    "id": 69102,
    "name": "Cholul Cantón",
    "state_id": 3466,
    "state_code": "YUC",
    "country_id": 142,
    "country_code": "MX",
    "latitude": "21.01078000",
    "longitude": "-89.29147000",
    "wikiDataId": null
  },
  {
    "id": 69109,
    "name": "Chuburná",
    "state_id": 3466,
    "state_code": "YUC",
    "country_id": 142,
    "country_code": "MX",
    "latitude": "21.25778000",
    "longitude": "-89.79843000",
    "wikiDataId": null
  },
  {
    "id": 69116,
    "name": "Chumayel",
    "state_id": 3466,
    "state_code": "YUC",
    "country_id": 142,
    "country_code": "MX",
    "latitude": "20.42833000",
    "longitude": "-89.30111000",
    "wikiDataId": null
  },
  {
    "id": 69118,
    "name": "Chunchucmil",
    "state_id": 3466,
    "state_code": "YUC",
    "country_id": 142,
    "country_code": "MX",
    "latitude": "20.64303000",
    "longitude": "-90.21413000",
    "wikiDataId": null
  },
  {
    "id": 69139,
    "name": "Citilcum",
    "state_id": 3466,
    "state_code": "YUC",
    "country_id": 142,
    "country_code": "MX",
    "latitude": "20.95146000",
    "longitude": "-89.11805000",
    "wikiDataId": null
  },
  {
    "id": 69380,
    "name": "Colonia Yucatán",
    "state_id": 3466,
    "state_code": "YUC",
    "country_id": 142,
    "country_code": "MX",
    "latitude": "21.21305000",
    "longitude": "-87.72416000",
    "wikiDataId": null
  },
  {
    "id": 69459,
    "name": "Conkal",
    "state_id": 3466,
    "state_code": "YUC",
    "country_id": 142,
    "country_code": "MX",
    "latitude": "21.07365000",
    "longitude": "-89.51995000",
    "wikiDataId": null
  },
  {
    "id": 69603,
    "name": "Cuch Holoch",
    "state_id": 3466,
    "state_code": "YUC",
    "country_id": 142,
    "country_code": "MX",
    "latitude": "20.43450000",
    "longitude": "-90.09694000",
    "wikiDataId": null
  },
  {
    "id": 69639,
    "name": "Cuncunul",
    "state_id": 3466,
    "state_code": "YUC",
    "country_id": 142,
    "country_code": "MX",
    "latitude": "20.62333000",
    "longitude": "-88.34637000",
    "wikiDataId": null
  },
  {
    "id": 69655,
    "name": "Cuzama",
    "state_id": 3466,
    "state_code": "YUC",
    "country_id": 142,
    "country_code": "MX",
    "latitude": "20.74202000",
    "longitude": "-89.31732000",
    "wikiDataId": null
  },
  {
    "id": 69733,
    "name": "Dzan",
    "state_id": 3466,
    "state_code": "YUC",
    "country_id": 142,
    "country_code": "MX",
    "latitude": "20.38888000",
    "longitude": "-89.46855000",
    "wikiDataId": null
  },
  {
    "id": 69734,
    "name": "Dzemul",
    "state_id": 3466,
    "state_code": "YUC",
    "country_id": 142,
    "country_code": "MX",
    "latitude": "21.21036000",
    "longitude": "-89.30956000",
    "wikiDataId": null
  },
  {
    "id": 69736,
    "name": "Dzibikak",
    "state_id": 3466,
    "state_code": "YUC",
    "country_id": 142,
    "country_code": "MX",
    "latitude": "20.90046000",
    "longitude": "-89.79532000",
    "wikiDataId": null
  },
  {
    "id": 69737,
    "name": "Dzidzantun",
    "state_id": 3466,
    "state_code": "YUC",
    "country_id": 142,
    "country_code": "MX",
    "latitude": "21.24898000",
    "longitude": "-89.04205000",
    "wikiDataId": null
  },
  {
    "id": 69740,
    "name": "Dzilam de Bravo",
    "state_id": 3466,
    "state_code": "YUC",
    "country_id": 142,
    "country_code": "MX",
    "latitude": "21.43361000",
    "longitude": "-88.66838000",
    "wikiDataId": null
  },
  {
    "id": 69739,
    "name": "Dzilam González",
    "state_id": 3466,
    "state_code": "YUC",
    "country_id": 142,
    "country_code": "MX",
    "latitude": "21.28098000",
    "longitude": "-88.92957000",
    "wikiDataId": null
  },
  {
    "id": 69744,
    "name": "Dzitás",
    "state_id": 3466,
    "state_code": "YUC",
    "country_id": 142,
    "country_code": "MX",
    "latitude": "20.84089000",
    "longitude": "-88.52908000",
    "wikiDataId": null
  },
  {
    "id": 69742,
    "name": "Dzitnup",
    "state_id": 3466,
    "state_code": "YUC",
    "country_id": 142,
    "country_code": "MX",
    "latitude": "20.64725000",
    "longitude": "-88.24453000",
    "wikiDataId": null
  },
  {
    "id": 69743,
    "name": "Dzityá",
    "state_id": 3466,
    "state_code": "YUC",
    "country_id": 142,
    "country_code": "MX",
    "latitude": "21.05186000",
    "longitude": "-89.67851000",
    "wikiDataId": null
  },
  {
    "id": 69746,
    "name": "Dzoncauich",
    "state_id": 3466,
    "state_code": "YUC",
    "country_id": 142,
    "country_code": "MX",
    "latitude": "21.09826000",
    "longitude": "-88.85402000",
    "wikiDataId": null
  },
  {
    "id": 69747,
    "name": "Dzonot Carretero",
    "state_id": 3466,
    "state_code": "YUC",
    "country_id": 142,
    "country_code": "MX",
    "latitude": "21.40084000",
    "longitude": "-87.87860000",
    "wikiDataId": null
  },
  {
    "id": 69749,
    "name": "Dzununcan",
    "state_id": 3466,
    "state_code": "YUC",
    "country_id": 142,
    "country_code": "MX",
    "latitude": "20.86469000",
    "longitude": "-89.65380000",
    "wikiDataId": null
  },
  {
    "id": 69820,
    "name": "Ekmul",
    "state_id": 3466,
    "state_code": "YUC",
    "country_id": 142,
    "country_code": "MX",
    "latitude": "20.96460000",
    "longitude": "-89.35004000",
    "wikiDataId": null
  },
  {
    "id": 69821,
    "name": "Ekpedz",
    "state_id": 3466,
    "state_code": "YUC",
    "country_id": 142,
    "country_code": "MX",
    "latitude": "20.31647000",
    "longitude": "-88.43064000",
    "wikiDataId": null
  },
  {
    "id": 69939,
    "name": "El Cuyo",
    "state_id": 3466,
    "state_code": "YUC",
    "country_id": 142,
    "country_code": "MX",
    "latitude": "21.51568000",
    "longitude": "-87.67878000",
    "wikiDataId": null
  },
  {
    "id": 70280,
    "name": "Emiliano Zapata",
    "state_id": 3466,
    "state_code": "YUC",
    "country_id": 142,
    "country_code": "MX",
    "latitude": "20.22605000",
    "longitude": "-89.46813000",
    "wikiDataId": null
  },
  {
    "id": 70331,
    "name": "Espita",
    "state_id": 3466,
    "state_code": "YUC",
    "country_id": 142,
    "country_code": "MX",
    "latitude": "21.01098000",
    "longitude": "-88.30681000",
    "wikiDataId": null
  },
  {
    "id": 70378,
    "name": "Euan",
    "state_id": 3466,
    "state_code": "YUC",
    "country_id": 142,
    "country_code": "MX",
    "latitude": "20.99660000",
    "longitude": "-89.34248000",
    "wikiDataId": null
  },
  {
    "id": 70661,
    "name": "Halachó",
    "state_id": 3466,
    "state_code": "YUC",
    "country_id": 142,
    "country_code": "MX",
    "latitude": "20.47770000",
    "longitude": "-90.08104000",
    "wikiDataId": null
  },
  {
    "id": 70699,
    "name": "Hocaba",
    "state_id": 3466,
    "state_code": "YUC",
    "country_id": 142,
    "country_code": "MX",
    "latitude": "20.81620000",
    "longitude": "-89.24626000",
    "wikiDataId": null
  },
  {
    "id": 70701,
    "name": "Hoctun",
    "state_id": 3466,
    "state_code": "YUC",
    "country_id": 142,
    "country_code": "MX",
    "latitude": "20.86513000",
    "longitude": "-89.20125000",
    "wikiDataId": null
  },
  {
    "id": 70703,
    "name": "Holca",
    "state_id": 3466,
    "state_code": "YUC",
    "country_id": 142,
    "country_code": "MX",
    "latitude": "20.75647000",
    "longitude": "-88.92916000",
    "wikiDataId": null
  },
  {
    "id": 70704,
    "name": "Homun",
    "state_id": 3466,
    "state_code": "YUC",
    "country_id": 142,
    "country_code": "MX",
    "latitude": "20.73918000",
    "longitude": "-89.28490000",
    "wikiDataId": null
  },
  {
    "id": 70786,
    "name": "Huhi",
    "state_id": 3466,
    "state_code": "YUC",
    "country_id": 142,
    "country_code": "MX",
    "latitude": "20.72603000",
    "longitude": "-89.16072000",
    "wikiDataId": null
  },
  {
    "id": 70823,
    "name": "Hunucmá",
    "state_id": 3466,
    "state_code": "YUC",
    "country_id": 142,
    "country_code": "MX",
    "latitude": "21.01723000",
    "longitude": "-89.87551000",
    "wikiDataId": null
  },
  {
    "id": 70824,
    "name": "Hunuku",
    "state_id": 3466,
    "state_code": "YUC",
    "country_id": 142,
    "country_code": "MX",
    "latitude": "20.85230000",
    "longitude": "-88.08946000",
    "wikiDataId": null
  },
  {
    "id": 70895,
    "name": "Itzincab Palomeque",
    "state_id": 3466,
    "state_code": "YUC",
    "country_id": 142,
    "country_code": "MX",
    "latitude": "20.91644000",
    "longitude": "-89.69823000",
    "wikiDataId": null
  },
  {
    "id": 70917,
    "name": "Ixil",
    "state_id": 3466,
    "state_code": "YUC",
    "country_id": 142,
    "country_code": "MX",
    "latitude": "21.15235000",
    "longitude": "-89.48182000",
    "wikiDataId": null
  },
  {
    "id": 70948,
    "name": "Izamal",
    "state_id": 3466,
    "state_code": "YUC",
    "country_id": 142,
    "country_code": "MX",
    "latitude": "20.93537000",
    "longitude": "-89.01802000",
    "wikiDataId": null
  },
  {
    "id": 71150,
    "name": "Kanasín",
    "state_id": 3466,
    "state_code": "YUC",
    "country_id": 142,
    "country_code": "MX",
    "latitude": "20.93482000",
    "longitude": "-89.55871000",
    "wikiDataId": null
  },
  {
    "id": 71151,
    "name": "Kancab",
    "state_id": 3466,
    "state_code": "YUC",
    "country_id": 142,
    "country_code": "MX",
    "latitude": "20.19571000",
    "longitude": "-89.34563000",
    "wikiDataId": null
  },
  {
    "id": 71153,
    "name": "Kantunil",
    "state_id": 3466,
    "state_code": "YUC",
    "country_id": 142,
    "country_code": "MX",
    "latitude": "20.79645000",
    "longitude": "-89.03539000",
    "wikiDataId": null
  },
  {
    "id": 71155,
    "name": "Kanxoc",
    "state_id": 3466,
    "state_code": "YUC",
    "country_id": 142,
    "country_code": "MX",
    "latitude": "20.61555000",
    "longitude": "-88.09764000",
    "wikiDataId": null
  },
  {
    "id": 71156,
    "name": "Kaua",
    "state_id": 3466,
    "state_code": "YUC",
    "country_id": 142,
    "country_code": "MX",
    "latitude": "20.62476000",
    "longitude": "-88.42440000",
    "wikiDataId": null
  },
  {
    "id": 71160,
    "name": "Kimbila",
    "state_id": 3466,
    "state_code": "YUC",
    "country_id": 142,
    "country_code": "MX",
    "latitude": "20.93403000",
    "longitude": "-89.12470000",
    "wikiDataId": null
  },
  {
    "id": 71161,
    "name": "Kinchil",
    "state_id": 3466,
    "state_code": "YUC",
    "country_id": 142,
    "country_code": "MX",
    "latitude": "20.91519000",
    "longitude": "-89.94825000",
    "wikiDataId": null
  },
  {
    "id": 71162,
    "name": "Kini",
    "state_id": 3466,
    "state_code": "YUC",
    "country_id": 142,
    "country_code": "MX",
    "latitude": "21.13557000",
    "longitude": "-89.31691000",
    "wikiDataId": null
  },
  {
    "id": 71163,
    "name": "Kinil",
    "state_id": 3466,
    "state_code": "YUC",
    "country_id": 142,
    "country_code": "MX",
    "latitude": "20.32379000",
    "longitude": "-89.13285000",
    "wikiDataId": null
  },
  {
    "id": 71164,
    "name": "Kochol",
    "state_id": 3466,
    "state_code": "YUC",
    "country_id": 142,
    "country_code": "MX",
    "latitude": "20.61867000",
    "longitude": "-90.15906000",
    "wikiDataId": null
  },
  {
    "id": 71165,
    "name": "Komchén",
    "state_id": 3466,
    "state_code": "YUC",
    "country_id": 142,
    "country_code": "MX",
    "latitude": "21.10342000",
    "longitude": "-89.66242000",
    "wikiDataId": null
  },
  {
    "id": 71166,
    "name": "Kopoma",
    "state_id": 3466,
    "state_code": "YUC",
    "country_id": 142,
    "country_code": "MX",
    "latitude": "20.64906000",
    "longitude": "-89.89989000",
    "wikiDataId": null
  },
  {
    "id": 71590,
    "name": "Las Coloradas",
    "state_id": 3466,
    "state_code": "YUC",
    "country_id": 142,
    "country_code": "MX",
    "latitude": "21.60767000",
    "longitude": "-87.99045000",
    "wikiDataId": null
  },
  {
    "id": 71660,
    "name": "Leona Vicario",
    "state_id": 3466,
    "state_code": "YUC",
    "country_id": 142,
    "country_code": "MX",
    "latitude": "20.90944000",
    "longitude": "-89.60111000",
    "wikiDataId": null
  },
  {
    "id": 71661,
    "name": "Lepan",
    "state_id": 3466,
    "state_code": "YUC",
    "country_id": 142,
    "country_code": "MX",
    "latitude": "20.71243000",
    "longitude": "-89.49719000",
    "wikiDataId": null
  },
  {
    "id": 71673,
    "name": "Libre Unión",
    "state_id": 3466,
    "state_code": "YUC",
    "country_id": 142,
    "country_code": "MX",
    "latitude": "20.70635000",
    "longitude": "-88.80959000",
    "wikiDataId": null
  },
  {
    "id": 71705,
    "name": "Loché",
    "state_id": 3466,
    "state_code": "YUC",
    "country_id": 142,
    "country_code": "MX",
    "latitude": "21.38828000",
    "longitude": "-88.14566000",
    "wikiDataId": null
  },
  {
    "id": 71950,
    "name": "Mama",
    "state_id": 3466,
    "state_code": "YUC",
    "country_id": 142,
    "country_code": "MX",
    "latitude": "20.47857000",
    "longitude": "-89.36498000",
    "wikiDataId": null
  },
  {
    "id": 71956,
    "name": "Mani",
    "state_id": 3466,
    "state_code": "YUC",
    "country_id": 142,
    "country_code": "MX",
    "latitude": "20.38774000",
    "longitude": "-89.39189000",
    "wikiDataId": null
  },
  {
    "id": 72026,
    "name": "Maxcanú",
    "state_id": 3466,
    "state_code": "YUC",
    "country_id": 142,
    "country_code": "MX",
    "latitude": "20.58456000",
    "longitude": "-90.00100000",
    "wikiDataId": null
  },
  {
    "id": 72032,
    "name": "Mayapan",
    "state_id": 3466,
    "state_code": "YUC",
    "country_id": 142,
    "country_code": "MX",
    "latitude": "20.46839000",
    "longitude": "-89.21395000",
    "wikiDataId": null
  },
  {
    "id": 72261,
    "name": "Mérida",
    "state_id": 3466,
    "state_code": "YUC",
    "country_id": 142,
    "country_code": "MX",
    "latitude": "20.97537000",
    "longitude": "-89.61696000",
    "wikiDataId": null
  },
  {
    "id": 72174,
    "name": "Mococha",
    "state_id": 3466,
    "state_code": "YUC",
    "country_id": 142,
    "country_code": "MX",
    "latitude": "21.10621000",
    "longitude": "-89.45217000",
    "wikiDataId": null
  },
  {
    "id": 72182,
    "name": "Molas",
    "state_id": 3466,
    "state_code": "YUC",
    "country_id": 142,
    "country_code": "MX",
    "latitude": "20.81665000",
    "longitude": "-89.62998000",
    "wikiDataId": null
  },
  {
    "id": 72242,
    "name": "Motul",
    "state_id": 3466,
    "state_code": "YUC",
    "country_id": 142,
    "country_code": "MX",
    "latitude": "21.09571000",
    "longitude": "-89.28332000",
    "wikiDataId": null
  },
  {
    "id": 72253,
    "name": "Muna",
    "state_id": 3466,
    "state_code": "YUC",
    "country_id": 142,
    "country_code": "MX",
    "latitude": "20.48794000",
    "longitude": "-89.71387000",
    "wikiDataId": null
  },
  {
    "id": 72257,
    "name": "Muxupip",
    "state_id": 3466,
    "state_code": "YUC",
    "country_id": 142,
    "country_code": "MX",
    "latitude": "21.04728000",
    "longitude": "-89.32810000",
    "wikiDataId": null
  },
  {
    "id": 72269,
    "name": "Nacuche",
    "state_id": 3466,
    "state_code": "YUC",
    "country_id": 142,
    "country_code": "MX",
    "latitude": "20.92466000",
    "longitude": "-88.29582000",
    "wikiDataId": null
  },
  {
    "id": 72342,
    "name": "Nolo",
    "state_id": 3466,
    "state_code": "YUC",
    "country_id": 142,
    "country_code": "MX",
    "latitude": "21.00947000",
    "longitude": "-89.42312000",
    "wikiDataId": null
  },
  {
    "id": 72511,
    "name": "Opichen",
    "state_id": 3466,
    "state_code": "YUC",
    "country_id": 142,
    "country_code": "MX",
    "latitude": "20.55169000",
    "longitude": "-89.85714000",
    "wikiDataId": null
  },
  {
    "id": 72547,
    "name": "Oxcum",
    "state_id": 3466,
    "state_code": "YUC",
    "country_id": 142,
    "country_code": "MX",
    "latitude": "20.94514000",
    "longitude": "-89.76189000",
    "wikiDataId": null
  },
  {
    "id": 72551,
    "name": "Oxkutzcab",
    "state_id": 3466,
    "state_code": "YUC",
    "country_id": 142,
    "country_code": "MX",
    "latitude": "20.24086000",
    "longitude": "-89.44600000",
    "wikiDataId": null
  },
  {
    "id": 72552,
    "name": "Oxkutzkab",
    "state_id": 3466,
    "state_code": "YUC",
    "country_id": 142,
    "country_code": "MX",
    "latitude": "20.30734000",
    "longitude": "-89.41809000",
    "wikiDataId": null
  },
  {
    "id": 72619,
    "name": "Panabá",
    "state_id": 3466,
    "state_code": "YUC",
    "country_id": 142,
    "country_code": "MX",
    "latitude": "21.29598000",
    "longitude": "-88.26982000",
    "wikiDataId": null
  },
  {
    "id": 72728,
    "name": "Pencuyut",
    "state_id": 3466,
    "state_code": "YUC",
    "country_id": 142,
    "country_code": "MX",
    "latitude": "20.29408000",
    "longitude": "-89.28947000",
    "wikiDataId": null
  },
  {
    "id": 72746,
    "name": "Peto",
    "state_id": 3466,
    "state_code": "YUC",
    "country_id": 142,
    "country_code": "MX",
    "latitude": "20.12776000",
    "longitude": "-88.92282000",
    "wikiDataId": null
  },
  {
    "id": 72788,
    "name": "Piste",
    "state_id": 3466,
    "state_code": "YUC",
    "country_id": 142,
    "country_code": "MX",
    "latitude": "20.69972000",
    "longitude": "-88.58889000",
    "wikiDataId": null
  },
  {
    "id": 72791,
    "name": "Pixoy",
    "state_id": 3466,
    "state_code": "YUC",
    "country_id": 142,
    "country_code": "MX",
    "latitude": "20.71642000",
    "longitude": "-88.26431000",
    "wikiDataId": null
  },
  {
    "id": 72850,
    "name": "Popola",
    "state_id": 3466,
    "state_code": "YUC",
    "country_id": 142,
    "country_code": "MX",
    "latitude": "20.73324000",
    "longitude": "-88.23744000",
    "wikiDataId": null
  },
  {
    "id": 72851,
    "name": "Popolnah",
    "state_id": 3466,
    "state_code": "YUC",
    "country_id": 142,
    "country_code": "MX",
    "latitude": "20.99350000",
    "longitude": "-87.56281000",
    "wikiDataId": null
  },
  {
    "id": 72908,
    "name": "Progreso",
    "state_id": 3466,
    "state_code": "YUC",
    "country_id": 142,
    "country_code": "MX",
    "latitude": "21.28306000",
    "longitude": "-89.66123000",
    "wikiDataId": null
  },
  {
    "id": 73001,
    "name": "Pustunich",
    "state_id": 3466,
    "state_code": "YUC",
    "country_id": 142,
    "country_code": "MX",
    "latitude": "20.36914000",
    "longitude": "-89.51187000",
    "wikiDataId": null
  },
  {
    "id": 73037,
    "name": "Quintana Roo",
    "state_id": 3466,
    "state_code": "YUC",
    "country_id": 142,
    "country_code": "MX",
    "latitude": "20.84464000",
    "longitude": "-88.65081000",
    "wikiDataId": null
  },
  {
    "id": 73179,
    "name": "Río Lagartos",
    "state_id": 3466,
    "state_code": "YUC",
    "country_id": 142,
    "country_code": "MX",
    "latitude": "21.59670000",
    "longitude": "-88.15773000",
    "wikiDataId": null
  },
  {
    "id": 73197,
    "name": "Sacalum",
    "state_id": 3466,
    "state_code": "YUC",
    "country_id": 142,
    "country_code": "MX",
    "latitude": "20.49749000",
    "longitude": "-89.59035000",
    "wikiDataId": null
  },
  {
    "id": 73200,
    "name": "Sahcaba",
    "state_id": 3466,
    "state_code": "YUC",
    "country_id": 142,
    "country_code": "MX",
    "latitude": "20.79174000",
    "longitude": "-89.18138000",
    "wikiDataId": null
  },
  {
    "id": 73233,
    "name": "Samahil",
    "state_id": 3466,
    "state_code": "YUC",
    "country_id": 142,
    "country_code": "MX",
    "latitude": "20.86433000",
    "longitude": "-89.91398000",
    "wikiDataId": null
  },
  {
    "id": 73353,
    "name": "San Antonio Tedzidz",
    "state_id": 3466,
    "state_code": "YUC",
    "country_id": 142,
    "country_code": "MX",
    "latitude": "20.83560000",
    "longitude": "-89.97575000",
    "wikiDataId": null
  },
  {
    "id": 73564,
    "name": "San Francisco Grande",
    "state_id": 3466,
    "state_code": "YUC",
    "country_id": 142,
    "country_code": "MX",
    "latitude": "20.70071000",
    "longitude": "-88.47345000",
    "wikiDataId": null
  },
  {
    "id": 73797,
    "name": "San José Tzal",
    "state_id": 3466,
    "state_code": "YUC",
    "country_id": 142,
    "country_code": "MX",
    "latitude": "20.82418000",
    "longitude": "-89.66049000",
    "wikiDataId": null
  },
  {
    "id": 74324,
    "name": "San Pedro Chimay",
    "state_id": 3466,
    "state_code": "YUC",
    "country_id": 142,
    "country_code": "MX",
    "latitude": "20.86465000",
    "longitude": "-89.57960000",
    "wikiDataId": null
  },
  {
    "id": 74423,
    "name": "San Rafael",
    "state_id": 3466,
    "state_code": "YUC",
    "country_id": 142,
    "country_code": "MX",
    "latitude": "20.70323000",
    "longitude": "-90.15843000",
    "wikiDataId": null
  },
  {
    "id": 74513,
    "name": "Sanahcat",
    "state_id": 3466,
    "state_code": "YUC",
    "country_id": 142,
    "country_code": "MX",
    "latitude": "20.77587000",
    "longitude": "-89.21091000",
    "wikiDataId": null
  },
  {
    "id": 74652,
    "name": "Santa Elena",
    "state_id": 3466,
    "state_code": "YUC",
    "country_id": 142,
    "country_code": "MX",
    "latitude": "20.32890000",
    "longitude": "-89.64363000",
    "wikiDataId": null
  },
  {
    "id": 74707,
    "name": "Santa María Acú",
    "state_id": 3466,
    "state_code": "YUC",
    "country_id": 142,
    "country_code": "MX",
    "latitude": "20.54644000",
    "longitude": "-90.16365000",
    "wikiDataId": null
  },
  {
    "id": 74994,
    "name": "Santo Domingo",
    "state_id": 3466,
    "state_code": "YUC",
    "country_id": 142,
    "country_code": "MX",
    "latitude": "20.60000000",
    "longitude": "-90.11667000",
    "wikiDataId": null
  },
  {
    "id": 75066,
    "name": "Seyé",
    "state_id": 3466,
    "state_code": "YUC",
    "country_id": 142,
    "country_code": "MX",
    "latitude": "20.83568000",
    "longitude": "-89.37174000",
    "wikiDataId": null
  },
  {
    "id": 75073,
    "name": "Sierra Papacal",
    "state_id": 3466,
    "state_code": "YUC",
    "country_id": 142,
    "country_code": "MX",
    "latitude": "21.12522000",
    "longitude": "-89.73018000",
    "wikiDataId": null
  },
  {
    "id": 75092,
    "name": "Sinanche",
    "state_id": 3466,
    "state_code": "YUC",
    "country_id": 142,
    "country_code": "MX",
    "latitude": "21.22591000",
    "longitude": "-89.18495000",
    "wikiDataId": null
  },
  {
    "id": 75097,
    "name": "Sisal",
    "state_id": 3466,
    "state_code": "YUC",
    "country_id": 142,
    "country_code": "MX",
    "latitude": "21.16700000",
    "longitude": "-90.02532000",
    "wikiDataId": null
  },
  {
    "id": 75100,
    "name": "Sitilpech",
    "state_id": 3466,
    "state_code": "YUC",
    "country_id": 142,
    "country_code": "MX",
    "latitude": "20.94049000",
    "longitude": "-88.95677000",
    "wikiDataId": null
  },
  {
    "id": 75103,
    "name": "Sitpach",
    "state_id": 3466,
    "state_code": "YUC",
    "country_id": 142,
    "country_code": "MX",
    "latitude": "21.02652000",
    "longitude": "-89.52120000",
    "wikiDataId": null
  },
  {
    "id": 75128,
    "name": "Sotuta",
    "state_id": 3466,
    "state_code": "YUC",
    "country_id": 142,
    "country_code": "MX",
    "latitude": "20.59678000",
    "longitude": "-89.00815000",
    "wikiDataId": null
  },
  {
    "id": 75143,
    "name": "Sucilá",
    "state_id": 3466,
    "state_code": "YUC",
    "country_id": 142,
    "country_code": "MX",
    "latitude": "21.15650000",
    "longitude": "-88.31405000",
    "wikiDataId": null
  },
  {
    "id": 75144,
    "name": "Sucopó",
    "state_id": 3466,
    "state_code": "YUC",
    "country_id": 142,
    "country_code": "MX",
    "latitude": "21.16155000",
    "longitude": "-88.04742000",
    "wikiDataId": null
  },
  {
    "id": 75145,
    "name": "Sudzal",
    "state_id": 3466,
    "state_code": "YUC",
    "country_id": 142,
    "country_code": "MX",
    "latitude": "20.81427000",
    "longitude": "-88.90030000",
    "wikiDataId": null
  },
  {
    "id": 75147,
    "name": "Suma",
    "state_id": 3466,
    "state_code": "YUC",
    "country_id": 142,
    "country_code": "MX",
    "latitude": "21.10591000",
    "longitude": "-89.15487000",
    "wikiDataId": null
  },
  {
    "id": 75148,
    "name": "Suma de Hidalgo",
    "state_id": 3466,
    "state_code": "YUC",
    "country_id": 142,
    "country_code": "MX",
    "latitude": "21.08643000",
    "longitude": "-89.14766000",
    "wikiDataId": null
  },
  {
    "id": 75168,
    "name": "Tahdzibichen",
    "state_id": 3466,
    "state_code": "YUC",
    "country_id": 142,
    "country_code": "MX",
    "latitude": "20.44916000",
    "longitude": "-88.83068000",
    "wikiDataId": null
  },
  {
    "id": 75169,
    "name": "Tahdziu",
    "state_id": 3466,
    "state_code": "YUC",
    "country_id": 142,
    "country_code": "MX",
    "latitude": "20.20508000",
    "longitude": "-88.94555000",
    "wikiDataId": null
  },
  {
    "id": 75171,
    "name": "Tahmek",
    "state_id": 3466,
    "state_code": "YUC",
    "country_id": 142,
    "country_code": "MX",
    "latitude": "20.87360000",
    "longitude": "-89.25473000",
    "wikiDataId": null
  },
  {
    "id": 75252,
    "name": "Teabo",
    "state_id": 3466,
    "state_code": "YUC",
    "country_id": 142,
    "country_code": "MX",
    "latitude": "20.40059000",
    "longitude": "-89.28316000",
    "wikiDataId": null
  },
  {
    "id": 75268,
    "name": "Tecax",
    "state_id": 3466,
    "state_code": "YUC",
    "country_id": 142,
    "country_code": "MX",
    "latitude": "20.20520000",
    "longitude": "-89.28522000",
    "wikiDataId": null
  },
  {
    "id": 75273,
    "name": "Tecoh",
    "state_id": 3466,
    "state_code": "YUC",
    "country_id": 142,
    "country_code": "MX",
    "latitude": "20.69640000",
    "longitude": "-89.45174000",
    "wikiDataId": null
  },
  {
    "id": 75308,
    "name": "Tekal de Venegas",
    "state_id": 3466,
    "state_code": "YUC",
    "country_id": 142,
    "country_code": "MX",
    "latitude": "21.01487000",
    "longitude": "-88.94658000",
    "wikiDataId": null
  },
  {
    "id": 75309,
    "name": "Tekanto",
    "state_id": 3466,
    "state_code": "YUC",
    "country_id": 142,
    "country_code": "MX",
    "latitude": "21.00968000",
    "longitude": "-89.10723000",
    "wikiDataId": null
  },
  {
    "id": 75311,
    "name": "Tekax",
    "state_id": 3466,
    "state_code": "YUC",
    "country_id": 142,
    "country_code": "MX",
    "latitude": "20.04039000",
    "longitude": "-89.26448000",
    "wikiDataId": null
  },
  {
    "id": 75312,
    "name": "Tekik de Regil",
    "state_id": 3466,
    "state_code": "YUC",
    "country_id": 142,
    "country_code": "MX",
    "latitude": "20.81671000",
    "longitude": "-89.56144000",
    "wikiDataId": null
  },
  {
    "id": 75313,
    "name": "Tekit",
    "state_id": 3466,
    "state_code": "YUC",
    "country_id": 142,
    "country_code": "MX",
    "latitude": "20.53465000",
    "longitude": "-89.33315000",
    "wikiDataId": null
  },
  {
    "id": 75314,
    "name": "Tekoh",
    "state_id": 3466,
    "state_code": "YUC",
    "country_id": 142,
    "country_code": "MX",
    "latitude": "20.74361000",
    "longitude": "-89.47406000",
    "wikiDataId": null
  },
  {
    "id": 75315,
    "name": "Tekom",
    "state_id": 3466,
    "state_code": "YUC",
    "country_id": 142,
    "country_code": "MX",
    "latitude": "20.60303000",
    "longitude": "-88.26490000",
    "wikiDataId": null
  },
  {
    "id": 75316,
    "name": "Telchac Pueblo",
    "state_id": 3466,
    "state_code": "YUC",
    "country_id": 142,
    "country_code": "MX",
    "latitude": "21.20312000",
    "longitude": "-89.26945000",
    "wikiDataId": null
  },
  {
    "id": 75317,
    "name": "Telchac Puerto",
    "state_id": 3466,
    "state_code": "YUC",
    "country_id": 142,
    "country_code": "MX",
    "latitude": "21.34121000",
    "longitude": "-89.26333000",
    "wikiDataId": null
  },
  {
    "id": 75318,
    "name": "Telchaquillo",
    "state_id": 3466,
    "state_code": "YUC",
    "country_id": 142,
    "country_code": "MX",
    "latitude": "20.64693000",
    "longitude": "-89.46367000",
    "wikiDataId": null
  },
  {
    "id": 75334,
    "name": "Temax",
    "state_id": 3466,
    "state_code": "YUC",
    "country_id": 142,
    "country_code": "MX",
    "latitude": "21.15105000",
    "longitude": "-88.94039000",
    "wikiDataId": null
  },
  {
    "id": 75340,
    "name": "Temozon",
    "state_id": 3466,
    "state_code": "YUC",
    "country_id": 142,
    "country_code": "MX",
    "latitude": "20.80393000",
    "longitude": "-88.20155000",
    "wikiDataId": null
  },
  {
    "id": 75389,
    "name": "Tepakan",
    "state_id": 3466,
    "state_code": "YUC",
    "country_id": 142,
    "country_code": "MX",
    "latitude": "21.04882000",
    "longitude": "-89.03873000",
    "wikiDataId": null
  },
  {
    "id": 75472,
    "name": "Tesoco",
    "state_id": 3466,
    "state_code": "YUC",
    "country_id": 142,
    "country_code": "MX",
    "latitude": "20.72259000",
    "longitude": "-88.15456000",
    "wikiDataId": null
  },
  {
    "id": 75490,
    "name": "Tetiz",
    "state_id": 3466,
    "state_code": "YUC",
    "country_id": 142,
    "country_code": "MX",
    "latitude": "20.96316000",
    "longitude": "-89.93384000",
    "wikiDataId": null
  },
  {
    "id": 75499,
    "name": "Texan de Palomeque",
    "state_id": 3466,
    "state_code": "YUC",
    "country_id": 142,
    "country_code": "MX",
    "latitude": "20.93750000",
    "longitude": "-89.83333000",
    "wikiDataId": null
  },
  {
    "id": 75522,
    "name": "Teya",
    "state_id": 3466,
    "state_code": "YUC",
    "country_id": 142,
    "country_code": "MX",
    "latitude": "21.05071000",
    "longitude": "-89.07310000",
    "wikiDataId": null
  },
  {
    "id": 75539,
    "name": "Tibolón",
    "state_id": 3466,
    "state_code": "YUC",
    "country_id": 142,
    "country_code": "MX",
    "latitude": "20.66541000",
    "longitude": "-88.93929000",
    "wikiDataId": null
  },
  {
    "id": 75540,
    "name": "Ticopó",
    "state_id": 3466,
    "state_code": "YUC",
    "country_id": 142,
    "country_code": "MX",
    "latitude": "20.88893000",
    "longitude": "-89.44107000",
    "wikiDataId": null
  },
  {
    "id": 75541,
    "name": "Ticul",
    "state_id": 3466,
    "state_code": "YUC",
    "country_id": 142,
    "country_code": "MX",
    "latitude": "20.39833000",
    "longitude": "-89.53541000",
    "wikiDataId": null
  },
  {
    "id": 75558,
    "name": "Tiholop",
    "state_id": 3466,
    "state_code": "YUC",
    "country_id": 142,
    "country_code": "MX",
    "latitude": "20.33234000",
    "longitude": "-88.68958000",
    "wikiDataId": null
  },
  {
    "id": 75564,
    "name": "Tikuch",
    "state_id": 3466,
    "state_code": "YUC",
    "country_id": 142,
    "country_code": "MX",
    "latitude": "20.70301000",
    "longitude": "-88.11272000",
    "wikiDataId": null
  },
  {
    "id": 75572,
    "name": "Timucuy",
    "state_id": 3466,
    "state_code": "YUC",
    "country_id": 142,
    "country_code": "MX",
    "latitude": "20.81023000",
    "longitude": "-89.51383000",
    "wikiDataId": null
  },
  {
    "id": 75579,
    "name": "Tinum",
    "state_id": 3466,
    "state_code": "YUC",
    "country_id": 142,
    "country_code": "MX",
    "latitude": "20.70004000",
    "longitude": "-88.51631000",
    "wikiDataId": null
  },
  {
    "id": 75584,
    "name": "Tixcacalcupul",
    "state_id": 3466,
    "state_code": "YUC",
    "country_id": 142,
    "country_code": "MX",
    "latitude": "20.43929000",
    "longitude": "-88.30028000",
    "wikiDataId": null
  },
  {
    "id": 75585,
    "name": "Tixcacaltuyub",
    "state_id": 3466,
    "state_code": "YUC",
    "country_id": 142,
    "country_code": "MX",
    "latitude": "20.49316000",
    "longitude": "-88.91637000",
    "wikiDataId": null
  },
  {
    "id": 75586,
    "name": "Tixcancal",
    "state_id": 3466,
    "state_code": "YUC",
    "country_id": 142,
    "country_code": "MX",
    "latitude": "21.03588000",
    "longitude": "-87.85047000",
    "wikiDataId": null
  },
  {
    "id": 75587,
    "name": "Tixhualactún",
    "state_id": 3466,
    "state_code": "YUC",
    "country_id": 142,
    "country_code": "MX",
    "latitude": "20.64403000",
    "longitude": "-88.14308000",
    "wikiDataId": null
  },
  {
    "id": 75588,
    "name": "Tixkokob",
    "state_id": 3466,
    "state_code": "YUC",
    "country_id": 142,
    "country_code": "MX",
    "latitude": "21.00220000",
    "longitude": "-89.39484000",
    "wikiDataId": null
  },
  {
    "id": 75590,
    "name": "Tixmehuac",
    "state_id": 3466,
    "state_code": "YUC",
    "country_id": 142,
    "country_code": "MX",
    "latitude": "20.24682000",
    "longitude": "-89.08695000",
    "wikiDataId": null
  },
  {
    "id": 75591,
    "name": "Tixpehual",
    "state_id": 3466,
    "state_code": "YUC",
    "country_id": 142,
    "country_code": "MX",
    "latitude": "20.97739000",
    "longitude": "-89.44203000",
    "wikiDataId": null
  },
  {
    "id": 75596,
    "name": "Tizimín",
    "state_id": 3466,
    "state_code": "YUC",
    "country_id": 142,
    "country_code": "MX",
    "latitude": "21.14268000",
    "longitude": "-88.15101000",
    "wikiDataId": null
  },
  {
    "id": 75810,
    "name": "Tunkas",
    "state_id": 3466,
    "state_code": "YUC",
    "country_id": 142,
    "country_code": "MX",
    "latitude": "20.90294000",
    "longitude": "-88.75171000",
    "wikiDataId": null
  },
  {
    "id": 75854,
    "name": "Tzucacab",
    "state_id": 3466,
    "state_code": "YUC",
    "country_id": 142,
    "country_code": "MX",
    "latitude": "20.07237000",
    "longitude": "-89.05022000",
    "wikiDataId": null
  },
  {
    "id": 75858,
    "name": "Uayalceh de Peón",
    "state_id": 3466,
    "state_code": "YUC",
    "country_id": 142,
    "country_code": "MX",
    "latitude": "20.69345000",
    "longitude": "-89.59483000",
    "wikiDataId": null
  },
  {
    "id": 75859,
    "name": "Uayma",
    "state_id": 3466,
    "state_code": "YUC",
    "country_id": 142,
    "country_code": "MX",
    "latitude": "20.71781000",
    "longitude": "-88.31693000",
    "wikiDataId": null
  },
  {
    "id": 75862,
    "name": "Uci",
    "state_id": 3466,
    "state_code": "YUC",
    "country_id": 142,
    "country_code": "MX",
    "latitude": "21.12682000",
    "longitude": "-89.26827000",
    "wikiDataId": null
  },
  {
    "id": 75864,
    "name": "Ucú",
    "state_id": 3466,
    "state_code": "YUC",
    "country_id": 142,
    "country_code": "MX",
    "latitude": "21.03135000",
    "longitude": "-89.74466000",
    "wikiDataId": null
  },
  {
    "id": 75866,
    "name": "Uman",
    "state_id": 3466,
    "state_code": "YUC",
    "country_id": 142,
    "country_code": "MX",
    "latitude": "20.88213000",
    "longitude": "-89.74649000",
    "wikiDataId": null
  },
  {
    "id": 75912,
    "name": "Valladolid",
    "state_id": 3466,
    "state_code": "YUC",
    "country_id": 142,
    "country_code": "MX",
    "latitude": "20.68812000",
    "longitude": "-88.19936000",
    "wikiDataId": null
  },
  {
    "id": 76106,
    "name": "X-Cán",
    "state_id": 3466,
    "state_code": "YUC",
    "country_id": 142,
    "country_code": "MX",
    "latitude": "20.85715000",
    "longitude": "-87.66915000",
    "wikiDataId": null
  },
  {
    "id": 76127,
    "name": "Xanabá",
    "state_id": 3466,
    "state_code": "YUC",
    "country_id": 142,
    "country_code": "MX",
    "latitude": "20.83611000",
    "longitude": "-89.01372000",
    "wikiDataId": null
  },
  {
    "id": 76128,
    "name": "Xaya",
    "state_id": 3466,
    "state_code": "YUC",
    "country_id": 142,
    "country_code": "MX",
    "latitude": "20.29653000",
    "longitude": "-89.18674000",
    "wikiDataId": null
  },
  {
    "id": 76131,
    "name": "Xcanatún",
    "state_id": 3466,
    "state_code": "YUC",
    "country_id": 142,
    "country_code": "MX",
    "latitude": "21.07664000",
    "longitude": "-89.63028000",
    "wikiDataId": null
  },
  {
    "id": 76153,
    "name": "Xocchel",
    "state_id": 3466,
    "state_code": "YUC",
    "country_id": 142,
    "country_code": "MX",
    "latitude": "20.83341000",
    "longitude": "-89.18322000",
    "wikiDataId": null
  },
  {
    "id": 76154,
    "name": "Xocen",
    "state_id": 3466,
    "state_code": "YUC",
    "country_id": 142,
    "country_code": "MX",
    "latitude": "20.59770000",
    "longitude": "-88.16430000",
    "wikiDataId": null
  },
  {
    "id": 76189,
    "name": "Xohuayan",
    "state_id": 3466,
    "state_code": "YUC",
    "country_id": 142,
    "country_code": "MX",
    "latitude": "20.18805000",
    "longitude": "-89.38319000",
    "wikiDataId": null
  },
  {
    "id": 76206,
    "name": "Xul",
    "state_id": 3466,
    "state_code": "YUC",
    "country_id": 142,
    "country_code": "MX",
    "latitude": "20.10128000",
    "longitude": "-89.46274000",
    "wikiDataId": null
  },
  {
    "id": 76213,
    "name": "Yalkoba",
    "state_id": 3466,
    "state_code": "YUC",
    "country_id": 142,
    "country_code": "MX",
    "latitude": "20.79167000",
    "longitude": "-88.03673000",
    "wikiDataId": null
  },
  {
    "id": 76223,
    "name": "Yaxcabá",
    "state_id": 3466,
    "state_code": "YUC",
    "country_id": 142,
    "country_code": "MX",
    "latitude": "20.54846000",
    "longitude": "-88.82714000",
    "wikiDataId": null
  },
  {
    "id": 76224,
    "name": "Yaxcopoil",
    "state_id": 3466,
    "state_code": "YUC",
    "country_id": 142,
    "country_code": "MX",
    "latitude": "20.74498000",
    "longitude": "-89.72217000",
    "wikiDataId": null
  },
  {
    "id": 76226,
    "name": "Yaxhachen",
    "state_id": 3466,
    "state_code": "YUC",
    "country_id": 142,
    "country_code": "MX",
    "latitude": "20.05177000",
    "longitude": "-89.56604000",
    "wikiDataId": null
  },
  {
    "id": 76227,
    "name": "Yaxkukul",
    "state_id": 3466,
    "state_code": "YUC",
    "country_id": 142,
    "country_code": "MX",
    "latitude": "21.06139000",
    "longitude": "-89.41932000",
    "wikiDataId": null
  },
  {
    "id": 76239,
    "name": "Yobain",
    "state_id": 3466,
    "state_code": "YUC",
    "country_id": 142,
    "country_code": "MX",
    "latitude": "21.23435000",
    "longitude": "-89.11488000",
    "wikiDataId": null
  },
  {
    "id": 76246,
    "name": "Yotholin",
    "state_id": 3466,
    "state_code": "YUC",
    "country_id": 142,
    "country_code": "MX",
    "latitude": "20.32786000",
    "longitude": "-89.45429000",
    "wikiDataId": null
  }
]