[
  {
    "id": 107262,
    "name": "Bahçesaray",
    "state_id": 2152,
    "state_code": "65",
    "country_id": 225,
    "country_code": "TR",
    "latitude": "38.12460000",
    "longitude": "42.79825000",
    "wikiDataId": null
  },
  {
    "id": 107315,
    "name": "Başkale",
    "state_id": 2152,
    "state_code": "65",
    "country_id": 225,
    "country_code": "TR",
    "latitude": "38.04526000",
    "longitude": "44.01718000",
    "wikiDataId": null
  },
  {
    "id": 108760,
    "name": "Çaldıran",
    "state_id": 2152,
    "state_code": "65",
    "country_id": 225,
    "country_code": "TR",
    "latitude": "39.14317000",
    "longitude": "43.91068000",
    "wikiDataId": null
  },
  {
    "id": 108787,
    "name": "Çatak",
    "state_id": 2152,
    "state_code": "65",
    "country_id": 225,
    "country_code": "TR",
    "latitude": "38.00780000",
    "longitude": "43.06195000",
    "wikiDataId": null
  },
  {
    "id": 107551,
    "name": "Edremit",
    "state_id": 2152,
    "state_code": "65",
    "country_id": 225,
    "country_code": "TR",
    "latitude": "38.37889000",
    "longitude": "43.29717000",
    "wikiDataId": null
  },
  {
    "id": 107583,
    "name": "Erciş",
    "state_id": 2152,
    "state_code": "65",
    "country_id": 225,
    "country_code": "TR",
    "latitude": "39.15123000",
    "longitude": "43.33705000",
    "wikiDataId": null
  },
  {
    "id": 107670,
    "name": "Gevaş",
    "state_id": 2152,
    "state_code": "65",
    "country_id": 225,
    "country_code": "TR",
    "latitude": "38.29210000",
    "longitude": "43.10189000",
    "wikiDataId": null
  },
  {
    "id": 107753,
    "name": "Gürpınar",
    "state_id": 2152,
    "state_code": "65",
    "country_id": 225,
    "country_code": "TR",
    "latitude": "38.32372000",
    "longitude": "43.40991000",
    "wikiDataId": null
  },
  {
    "id": 108908,
    "name": "İpekyolu",
    "state_id": 2152,
    "state_code": "65",
    "country_id": 225,
    "country_code": "TR",
    "latitude": "38.49041000",
    "longitude": "43.34690000",
    "wikiDataId": null
  },
  {
    "id": 108220,
    "name": "Muradiye",
    "state_id": 2152,
    "state_code": "65",
    "country_id": 225,
    "country_code": "TR",
    "latitude": "38.97889000",
    "longitude": "43.75374000",
    "wikiDataId": null
  },
  {
    "id": 108866,
    "name": "Özalp",
    "state_id": 2152,
    "state_code": "65",
    "country_id": 225,
    "country_code": "TR",
    "latitude": "38.65455000",
    "longitude": "43.98869000",
    "wikiDataId": null
  },
  {
    "id": 108387,
    "name": "Saray",
    "state_id": 2152,
    "state_code": "65",
    "country_id": 225,
    "country_code": "TR",
    "latitude": "38.64691000",
    "longitude": "44.16116000",
    "wikiDataId": null
  },
  {
    "id": 153361,
    "name": "Tuşba",
    "state_id": 2152,
    "state_code": "65",
    "country_id": 225,
    "country_code": "TR",
    "latitude": "38.52117800",
    "longitude": "43.34909300",
    "wikiDataId": null
  }
]