[
  {
    "id": 154885,
    "name": "Anaa",
    "state_id": 5372,
    "state_code": "04",
    "country_id": 77,
    "country_code": "PF",
    "latitude": "-17.41194390",
    "longitude": "-145.66284990",
    "wikiDataId": null
  },
  {
    "id": 154886,
    "name": "Arutua",
    "state_id": 5372,
    "state_code": "04",
    "country_id": 77,
    "country_code": "PF",
    "latitude": "-15.31203340",
    "longitude": "-146.91262850",
    "wikiDataId": null
  },
  {
    "id": 154887,
    "name": "Fakarava",
    "state_id": 5372,
    "state_code": "04",
    "country_id": 77,
    "country_code": "PF",
    "latitude": "-16.29845160",
    "longitude": "-145.92218890",
    "wikiDataId": null
  },
  {
    "id": 154888,
    "name": "Fangatau",
    "state_id": 5372,
    "state_code": "04",
    "country_id": 77,
    "country_code": "PF",
    "latitude": "-15.82097880",
    "longitude": "-140.90810600",
    "wikiDataId": null
  },
  {
    "id": 154889,
    "name": "Gambier",
    "state_id": 5372,
    "state_code": "04",
    "country_id": 77,
    "country_code": "PF",
    "latitude": "-23.10088440",
    "longitude": "-135.07922550",
    "wikiDataId": null
  },
  {
    "id": 154890,
    "name": "Hao",
    "state_id": 5372,
    "state_code": "04",
    "country_id": 77,
    "country_code": "PF",
    "latitude": "-18.74532930",
    "longitude": "-145.33383850",
    "wikiDataId": null
  },
  {
    "id": 154891,
    "name": "Hikueru",
    "state_id": 5372,
    "state_code": "04",
    "country_id": 77,
    "country_code": "PF",
    "latitude": "-17.58767480",
    "longitude": "-142.69120590",
    "wikiDataId": null
  },
  {
    "id": 154892,
    "name": "Makemo",
    "state_id": 5372,
    "state_code": "04",
    "country_id": 77,
    "country_code": "PF",
    "latitude": "-16.59334420",
    "longitude": "-144.01756280",
    "wikiDataId": null
  },
  {
    "id": 154893,
    "name": "Manihi",
    "state_id": 5372,
    "state_code": "04",
    "country_id": 77,
    "country_code": "PF",
    "latitude": "-14.39757810",
    "longitude": "-146.12217070",
    "wikiDataId": null
  },
  {
    "id": 154894,
    "name": "Napuka",
    "state_id": 5372,
    "state_code": "04",
    "country_id": 77,
    "country_code": "PF",
    "latitude": "-14.17342310",
    "longitude": "-141.30676690",
    "wikiDataId": null
  },
  {
    "id": 154895,
    "name": "Nukutavake",
    "state_id": 5372,
    "state_code": "04",
    "country_id": 77,
    "country_code": "PF",
    "latitude": "-18.97808660",
    "longitude": "-139.29284520",
    "wikiDataId": null
  },
  {
    "id": 154896,
    "name": "Puka-Puka",
    "state_id": 5372,
    "state_code": "04",
    "country_id": 77,
    "country_code": "PF",
    "latitude": "-14.81902510",
    "longitude": "-138.86100870",
    "wikiDataId": null
  },
  {
    "id": 154897,
    "name": "Rangiroa",
    "state_id": 5372,
    "state_code": "04",
    "country_id": 77,
    "country_code": "PF",
    "latitude": "-15.12282920",
    "longitude": "-147.91140150",
    "wikiDataId": null
  },
  {
    "id": 154898,
    "name": "Reao",
    "state_id": 5372,
    "state_code": "04",
    "country_id": 77,
    "country_code": "PF",
    "latitude": "-18.51946500",
    "longitude": "-136.46088500",
    "wikiDataId": null
  },
  {
    "id": 154899,
    "name": "Takaroa",
    "state_id": 5372,
    "state_code": "04",
    "country_id": 77,
    "country_code": "PF",
    "latitude": "-14.67263940",
    "longitude": "-145.22680410",
    "wikiDataId": null
  },
  {
    "id": 154900,
    "name": "Tatakoto",
    "state_id": 5372,
    "state_code": "04",
    "country_id": 77,
    "country_code": "PF",
    "latitude": "-17.34173160",
    "longitude": "-138.47584630",
    "wikiDataId": null
  },
  {
    "id": 154901,
    "name": "Tureia",
    "state_id": 5372,
    "state_code": "04",
    "country_id": 77,
    "country_code": "PF",
    "latitude": "-20.82803180",
    "longitude": "-138.58163900",
    "wikiDataId": null
  }
]