[
  {
    "id": 57598,
    "name": "Afzalpur",
    "state_id": 4026,
    "state_code": "KA",
    "country_id": 101,
    "country_code": "IN",
    "latitude": "17.19986000",
    "longitude": "76.36018000",
    "wikiDataId": null
  },
  {
    "id": 57613,
    "name": "Ajjampur",
    "state_id": 4026,
    "state_code": "KA",
    "country_id": 101,
    "country_code": "IN",
    "latitude": "13.72794000",
    "longitude": "76.00680000",
    "wikiDataId": null
  },
  {
    "id": 57632,
    "name": "Aland",
    "state_id": 4026,
    "state_code": "KA",
    "country_id": 101,
    "country_code": "IN",
    "latitude": "17.56425000",
    "longitude": "76.56854000",
    "wikiDataId": null
  },
  {
    "id": 57644,
    "name": "Alnavar",
    "state_id": 4026,
    "state_code": "KA",
    "country_id": 101,
    "country_code": "IN",
    "latitude": "15.42727000",
    "longitude": "74.74111000",
    "wikiDataId": null
  },
  {
    "id": 57656,
    "name": "Alur",
    "state_id": 4026,
    "state_code": "KA",
    "country_id": 101,
    "country_code": "IN",
    "latitude": "12.97805000",
    "longitude": "75.99094000",
    "wikiDataId": null
  },
  {
    "id": 57702,
    "name": "Anekal",
    "state_id": 4026,
    "state_code": "KA",
    "country_id": 101,
    "country_code": "IN",
    "latitude": "12.71110000",
    "longitude": "77.69557000",
    "wikiDataId": null
  },
  {
    "id": 57711,
    "name": "Ankola",
    "state_id": 4026,
    "state_code": "KA",
    "country_id": 101,
    "country_code": "IN",
    "latitude": "14.66049000",
    "longitude": "74.30470000",
    "wikiDataId": null
  },
  {
    "id": 57713,
    "name": "Annigeri",
    "state_id": 4026,
    "state_code": "KA",
    "country_id": 101,
    "country_code": "IN",
    "latitude": "15.42513000",
    "longitude": "75.43350000",
    "wikiDataId": null
  },
  {
    "id": 57735,
    "name": "Arkalgud",
    "state_id": 4026,
    "state_code": "KA",
    "country_id": 101,
    "country_code": "IN",
    "latitude": "12.76171000",
    "longitude": "76.06035000",
    "wikiDataId": null
  },
  {
    "id": 57740,
    "name": "Arsikere",
    "state_id": 4026,
    "state_code": "KA",
    "country_id": 101,
    "country_code": "IN",
    "latitude": "13.31446000",
    "longitude": "76.25704000",
    "wikiDataId": null
  },
  {
    "id": 57757,
    "name": "Athni",
    "state_id": 4026,
    "state_code": "KA",
    "country_id": 101,
    "country_code": "IN",
    "latitude": "16.72613000",
    "longitude": "75.06421000",
    "wikiDataId": null
  },
  {
    "id": 57768,
    "name": "Aurad",
    "state_id": 4026,
    "state_code": "KA",
    "country_id": 101,
    "country_code": "IN",
    "latitude": "18.25397000",
    "longitude": "77.41761000",
    "wikiDataId": null
  },
  {
    "id": 58105,
    "name": "Badami",
    "state_id": 4026,
    "state_code": "KA",
    "country_id": 101,
    "country_code": "IN",
    "latitude": "15.91495000",
    "longitude": "75.67683000",
    "wikiDataId": null
  },
  {
    "id": 57797,
    "name": "Bagalkot",
    "state_id": 4026,
    "state_code": "KA",
    "country_id": 101,
    "country_code": "IN",
    "latitude": "16.18000000",
    "longitude": "75.69000000",
    "wikiDataId": null
  },
  {
    "id": 58107,
    "name": "Bagepalli",
    "state_id": 4026,
    "state_code": "KA",
    "country_id": 101,
    "country_code": "IN",
    "latitude": "13.78338000",
    "longitude": "77.79667000",
    "wikiDataId": null
  },
  {
    "id": 57814,
    "name": "Bail-Hongal",
    "state_id": 4026,
    "state_code": "KA",
    "country_id": 101,
    "country_code": "IN",
    "latitude": "15.81370000",
    "longitude": "74.85895000",
    "wikiDataId": null
  },
  {
    "id": 57827,
    "name": "Ballari",
    "state_id": 4026,
    "state_code": "KA",
    "country_id": 101,
    "country_code": "IN",
    "latitude": "15.15000000",
    "longitude": "76.55000000",
    "wikiDataId": null
  },
  {
    "id": 58136,
    "name": "Banavar",
    "state_id": 4026,
    "state_code": "KA",
    "country_id": 101,
    "country_code": "IN",
    "latitude": "13.41029000",
    "longitude": "76.16314000",
    "wikiDataId": null
  },
  {
    "id": 57851,
    "name": "Bangarapet",
    "state_id": 4026,
    "state_code": "KA",
    "country_id": 101,
    "country_code": "IN",
    "latitude": "12.99116000",
    "longitude": "78.17804000",
    "wikiDataId": null
  },
  {
    "id": 57856,
    "name": "Bannur",
    "state_id": 4026,
    "state_code": "KA",
    "country_id": 101,
    "country_code": "IN",
    "latitude": "12.33295000",
    "longitude": "76.86201000",
    "wikiDataId": null
  },
  {
    "id": 57857,
    "name": "Bantval",
    "state_id": 4026,
    "state_code": "KA",
    "country_id": 101,
    "country_code": "IN",
    "latitude": "12.89050000",
    "longitude": "75.03489000",
    "wikiDataId": null
  },
  {
    "id": 57893,
    "name": "Basavakalyan",
    "state_id": 4026,
    "state_code": "KA",
    "country_id": 101,
    "country_code": "IN",
    "latitude": "17.87445000",
    "longitude": "76.94972000",
    "wikiDataId": null
  },
  {
    "id": 57894,
    "name": "Basavana Bagevadi",
    "state_id": 4026,
    "state_code": "KA",
    "country_id": 101,
    "country_code": "IN",
    "latitude": "16.57278000",
    "longitude": "75.97252000",
    "wikiDataId": null
  },
  {
    "id": 57922,
    "name": "Belagavi",
    "state_id": 4026,
    "state_code": "KA",
    "country_id": 101,
    "country_code": "IN",
    "latitude": "16.33333000",
    "longitude": "74.75000000",
    "wikiDataId": null
  },
  {
    "id": 57925,
    "name": "Belluru",
    "state_id": 4026,
    "state_code": "KA",
    "country_id": 101,
    "country_code": "IN",
    "latitude": "12.98140000",
    "longitude": "76.73308000",
    "wikiDataId": null
  },
  {
    "id": 57928,
    "name": "Beltangadi",
    "state_id": 4026,
    "state_code": "KA",
    "country_id": 101,
    "country_code": "IN",
    "latitude": "13.98333000",
    "longitude": "75.30000000",
    "wikiDataId": null
  },
  {
    "id": 57930,
    "name": "Belur",
    "state_id": 4026,
    "state_code": "KA",
    "country_id": 101,
    "country_code": "IN",
    "latitude": "13.16558000",
    "longitude": "75.86519000",
    "wikiDataId": null
  },
  {
    "id": 57933,
    "name": "Bengaluru",
    "state_id": 4026,
    "state_code": "KA",
    "country_id": 101,
    "country_code": "IN",
    "latitude": "12.97194000",
    "longitude": "77.59369000",
    "wikiDataId": null
  },
  {
    "id": 57847,
    "name": "Bengaluru Rural",
    "state_id": 4026,
    "state_code": "KA",
    "country_id": 101,
    "country_code": "IN",
    "latitude": "13.22567000",
    "longitude": "77.57501000",
    "wikiDataId": null
  },
  {
    "id": 57848,
    "name": "Bengaluru Urban",
    "state_id": 4026,
    "state_code": "KA",
    "country_id": 101,
    "country_code": "IN",
    "latitude": "13.00000000",
    "longitude": "77.58333000",
    "wikiDataId": null
  },
  {
    "id": 57956,
    "name": "Bhadravati",
    "state_id": 4026,
    "state_code": "KA",
    "country_id": 101,
    "country_code": "IN",
    "latitude": "13.84846000",
    "longitude": "75.70502000",
    "wikiDataId": null
  },
  {
    "id": 58010,
    "name": "Bhalki",
    "state_id": 4026,
    "state_code": "KA",
    "country_id": 101,
    "country_code": "IN",
    "latitude": "18.04348000",
    "longitude": "77.20600000",
    "wikiDataId": null
  },
  {
    "id": 57970,
    "name": "Bhatkal",
    "state_id": 4026,
    "state_code": "KA",
    "country_id": 101,
    "country_code": "IN",
    "latitude": "13.98534000",
    "longitude": "74.55531000",
    "wikiDataId": null
  },
  {
    "id": 58154,
    "name": "Bidar",
    "state_id": 4026,
    "state_code": "KA",
    "country_id": 101,
    "country_code": "IN",
    "latitude": "18.08333000",
    "longitude": "77.33333000",
    "wikiDataId": null
  },
  {
    "id": 58042,
    "name": "Bilgi",
    "state_id": 4026,
    "state_code": "KA",
    "country_id": 101,
    "country_code": "IN",
    "latitude": "16.34714000",
    "longitude": "75.61804000",
    "wikiDataId": null
  },
  {
    "id": 58061,
    "name": "Birur",
    "state_id": 4026,
    "state_code": "KA",
    "country_id": 101,
    "country_code": "IN",
    "latitude": "13.59723000",
    "longitude": "75.97167000",
    "wikiDataId": null
  },
  {
    "id": 58102,
    "name": "Byadgi",
    "state_id": 4026,
    "state_code": "KA",
    "country_id": 101,
    "country_code": "IN",
    "latitude": "14.67325000",
    "longitude": "75.48680000",
    "wikiDataId": null
  },
  {
    "id": 58101,
    "name": "Byndoor",
    "state_id": 4026,
    "state_code": "KA",
    "country_id": 101,
    "country_code": "IN",
    "latitude": "13.86667000",
    "longitude": "74.63333000",
    "wikiDataId": null
  },
  {
    "id": 58166,
    "name": "Canacona",
    "state_id": 4026,
    "state_code": "KA",
    "country_id": 101,
    "country_code": "IN",
    "latitude": "14.99590000",
    "longitude": "74.05056000",
    "wikiDataId": null
  },
  {
    "id": 58178,
    "name": "Challakere",
    "state_id": 4026,
    "state_code": "KA",
    "country_id": 101,
    "country_code": "IN",
    "latitude": "14.31800000",
    "longitude": "76.65165000",
    "wikiDataId": null
  },
  {
    "id": 58185,
    "name": "Chamrajnagar",
    "state_id": 4026,
    "state_code": "KA",
    "country_id": 101,
    "country_code": "IN",
    "latitude": "11.96000000",
    "longitude": "77.09000000",
    "wikiDataId": null
  },
  {
    "id": 58197,
    "name": "Channagiri",
    "state_id": 4026,
    "state_code": "KA",
    "country_id": 101,
    "country_code": "IN",
    "latitude": "14.02399000",
    "longitude": "75.92577000",
    "wikiDataId": null
  },
  {
    "id": 58198,
    "name": "Channapatna",
    "state_id": 4026,
    "state_code": "KA",
    "country_id": 101,
    "country_code": "IN",
    "latitude": "12.65143000",
    "longitude": "77.20672000",
    "wikiDataId": null
  },
  {
    "id": 58199,
    "name": "Channarayapatna",
    "state_id": 4026,
    "state_code": "KA",
    "country_id": 101,
    "country_code": "IN",
    "latitude": "12.90642000",
    "longitude": "76.38775000",
    "wikiDataId": null
  },
  {
    "id": 131547,
    "name": "Chik Ballapur",
    "state_id": 4026,
    "state_code": "KA",
    "country_id": 101,
    "country_code": "IN",
    "latitude": "13.43512000",
    "longitude": "77.72787000",
    "wikiDataId": null
  },
  {
    "id": 131551,
    "name": "Chikkaballapur",
    "state_id": 4026,
    "state_code": "KA",
    "country_id": 101,
    "country_code": "IN",
    "latitude": "13.55000000",
    "longitude": "77.87000000",
    "wikiDataId": null
  },
  {
    "id": 131552,
    "name": "Chikkamagaluru",
    "state_id": 4026,
    "state_code": "KA",
    "country_id": 101,
    "country_code": "IN",
    "latitude": "13.49000000",
    "longitude": "75.73000000",
    "wikiDataId": null
  },
  {
    "id": 131554,
    "name": "Chiknayakanhalli",
    "state_id": 4026,
    "state_code": "KA",
    "country_id": 101,
    "country_code": "IN",
    "latitude": "13.41609000",
    "longitude": "76.62063000",
    "wikiDataId": null
  },
  {
    "id": 131555,
    "name": "Chikodi",
    "state_id": 4026,
    "state_code": "KA",
    "country_id": 101,
    "country_code": "IN",
    "latitude": "16.42898000",
    "longitude": "74.58591000",
    "wikiDataId": null
  },
  {
    "id": 131560,
    "name": "Chincholi",
    "state_id": 4026,
    "state_code": "KA",
    "country_id": 101,
    "country_code": "IN",
    "latitude": "17.46508000",
    "longitude": "77.41874000",
    "wikiDataId": null
  },
  {
    "id": 131566,
    "name": "Chintamani",
    "state_id": 4026,
    "state_code": "KA",
    "country_id": 101,
    "country_code": "IN",
    "latitude": "13.40051000",
    "longitude": "78.05172000",
    "wikiDataId": null
  },
  {
    "id": 131613,
    "name": "Chitapur",
    "state_id": 4026,
    "state_code": "KA",
    "country_id": 101,
    "country_code": "IN",
    "latitude": "17.12357000",
    "longitude": "77.08240000",
    "wikiDataId": null
  },
  {
    "id": 131571,
    "name": "Chitradurga",
    "state_id": 4026,
    "state_code": "KA",
    "country_id": 101,
    "country_code": "IN",
    "latitude": "14.20000000",
    "longitude": "76.50000000",
    "wikiDataId": null
  },
  {
    "id": 131616,
    "name": "Closepet",
    "state_id": 4026,
    "state_code": "KA",
    "country_id": 101,
    "country_code": "IN",
    "latitude": "12.72181000",
    "longitude": "77.28149000",
    "wikiDataId": null
  },
  {
    "id": 131624,
    "name": "Coondapoor",
    "state_id": 4026,
    "state_code": "KA",
    "country_id": 101,
    "country_code": "IN",
    "latitude": "13.63126000",
    "longitude": "74.69020000",
    "wikiDataId": null
  },
  {
    "id": 131644,
    "name": "Dakshina Kannada",
    "state_id": 4026,
    "state_code": "KA",
    "country_id": 101,
    "country_code": "IN",
    "latitude": "12.84000000",
    "longitude": "75.29000000",
    "wikiDataId": null
  },
  {
    "id": 131652,
    "name": "Dandeli",
    "state_id": 4026,
    "state_code": "KA",
    "country_id": 101,
    "country_code": "IN",
    "latitude": "15.26667000",
    "longitude": "74.61667000",
    "wikiDataId": null
  },
  {
    "id": 131670,
    "name": "Davanagere",
    "state_id": 4026,
    "state_code": "KA",
    "country_id": 101,
    "country_code": "IN",
    "latitude": "14.43000000",
    "longitude": "75.90000000",
    "wikiDataId": null
  },
  {
    "id": 131701,
    "name": "Devanhalli",
    "state_id": 4026,
    "state_code": "KA",
    "country_id": 101,
    "country_code": "IN",
    "latitude": "13.24655000",
    "longitude": "77.71183000",
    "wikiDataId": null
  },
  {
    "id": 131729,
    "name": "Dharwad",
    "state_id": 4026,
    "state_code": "KA",
    "country_id": 101,
    "country_code": "IN",
    "latitude": "15.37000000",
    "longitude": "75.14000000",
    "wikiDataId": null
  },
  {
    "id": 131780,
    "name": "Dod Ballapur",
    "state_id": 4026,
    "state_code": "KA",
    "country_id": 101,
    "country_code": "IN",
    "latitude": "13.29452000",
    "longitude": "77.53777000",
    "wikiDataId": null
  },
  {
    "id": 131879,
    "name": "French Rocks",
    "state_id": 4026,
    "state_code": "KA",
    "country_id": 101,
    "country_code": "IN",
    "latitude": "12.50094000",
    "longitude": "76.67416000",
    "wikiDataId": null
  },
  {
    "id": 131884,
    "name": "Gadag",
    "state_id": 4026,
    "state_code": "KA",
    "country_id": 101,
    "country_code": "IN",
    "latitude": "15.49835000",
    "longitude": "75.65187000",
    "wikiDataId": null
  },
  {
    "id": 131885,
    "name": "Gadag-Betageri",
    "state_id": 4026,
    "state_code": "KA",
    "country_id": 101,
    "country_code": "IN",
    "latitude": "15.41670000",
    "longitude": "75.61670000",
    "wikiDataId": null
  },
  {
    "id": 131893,
    "name": "Gajendragarh",
    "state_id": 4026,
    "state_code": "KA",
    "country_id": 101,
    "country_code": "IN",
    "latitude": "15.73628000",
    "longitude": "75.96976000",
    "wikiDataId": null
  },
  {
    "id": 131911,
    "name": "Gangawati",
    "state_id": 4026,
    "state_code": "KA",
    "country_id": 101,
    "country_code": "IN",
    "latitude": "15.43130000",
    "longitude": "76.52933000",
    "wikiDataId": null
  },
  {
    "id": 131904,
    "name": "Gangolli",
    "state_id": 4026,
    "state_code": "KA",
    "country_id": 101,
    "country_code": "IN",
    "latitude": "13.65024000",
    "longitude": "74.67072000",
    "wikiDataId": null
  },
  {
    "id": 131970,
    "name": "Gokak",
    "state_id": 4026,
    "state_code": "KA",
    "country_id": 101,
    "country_code": "IN",
    "latitude": "16.16901000",
    "longitude": "74.82393000",
    "wikiDataId": null
  },
  {
    "id": 131971,
    "name": "Gokarna",
    "state_id": 4026,
    "state_code": "KA",
    "country_id": 101,
    "country_code": "IN",
    "latitude": "14.55000000",
    "longitude": "74.31667000",
    "wikiDataId": null
  },
  {
    "id": 131995,
    "name": "Goribidnur",
    "state_id": 4026,
    "state_code": "KA",
    "country_id": 101,
    "country_code": "IN",
    "latitude": "13.61072000",
    "longitude": "77.51738000",
    "wikiDataId": null
  },
  {
    "id": 131996,
    "name": "Gorur",
    "state_id": 4026,
    "state_code": "KA",
    "country_id": 101,
    "country_code": "IN",
    "latitude": "12.82297000",
    "longitude": "76.06463000",
    "wikiDataId": null
  },
  {
    "id": 132007,
    "name": "Gubbi",
    "state_id": 4026,
    "state_code": "KA",
    "country_id": 101,
    "country_code": "IN",
    "latitude": "13.31216000",
    "longitude": "76.94102000",
    "wikiDataId": null
  },
  {
    "id": 132009,
    "name": "Gudibanda",
    "state_id": 4026,
    "state_code": "KA",
    "country_id": 101,
    "country_code": "IN",
    "latitude": "13.67099000",
    "longitude": "77.70414000",
    "wikiDataId": null
  },
  {
    "id": 132017,
    "name": "Guledagudda",
    "state_id": 4026,
    "state_code": "KA",
    "country_id": 101,
    "country_code": "IN",
    "latitude": "16.05025000",
    "longitude": "75.78997000",
    "wikiDataId": null
  },
  {
    "id": 132025,
    "name": "Gundlupet",
    "state_id": 4026,
    "state_code": "KA",
    "country_id": 101,
    "country_code": "IN",
    "latitude": "11.81004000",
    "longitude": "76.69027000",
    "wikiDataId": null
  },
  {
    "id": 132034,
    "name": "Gurmatkal",
    "state_id": 4026,
    "state_code": "KA",
    "country_id": 101,
    "country_code": "IN",
    "latitude": "16.86773000",
    "longitude": "77.39088000",
    "wikiDataId": null
  },
  {
    "id": 132053,
    "name": "Hadagalli",
    "state_id": 4026,
    "state_code": "KA",
    "country_id": 101,
    "country_code": "IN",
    "latitude": "15.02048000",
    "longitude": "75.93185000",
    "wikiDataId": null
  },
  {
    "id": 132059,
    "name": "Haliyal",
    "state_id": 4026,
    "state_code": "KA",
    "country_id": 101,
    "country_code": "IN",
    "latitude": "15.32864000",
    "longitude": "74.75638000",
    "wikiDataId": null
  },
  {
    "id": 132061,
    "name": "Hampi",
    "state_id": 4026,
    "state_code": "KA",
    "country_id": 101,
    "country_code": "IN",
    "latitude": "15.33520000",
    "longitude": "76.46030000",
    "wikiDataId": null
  },
  {
    "id": 132140,
    "name": "Hangal",
    "state_id": 4026,
    "state_code": "KA",
    "country_id": 101,
    "country_code": "IN",
    "latitude": "14.76465000",
    "longitude": "75.12460000",
    "wikiDataId": null
  },
  {
    "id": 132076,
    "name": "Harihar",
    "state_id": 4026,
    "state_code": "KA",
    "country_id": 101,
    "country_code": "IN",
    "latitude": "14.51288000",
    "longitude": "75.80716000",
    "wikiDataId": null
  },
  {
    "id": 132079,
    "name": "Harpanahalli",
    "state_id": 4026,
    "state_code": "KA",
    "country_id": 101,
    "country_code": "IN",
    "latitude": "14.78766000",
    "longitude": "75.98863000",
    "wikiDataId": null
  },
  {
    "id": 132086,
    "name": "Hassan",
    "state_id": 4026,
    "state_code": "KA",
    "country_id": 101,
    "country_code": "IN",
    "latitude": "12.95000000",
    "longitude": "76.08333000",
    "wikiDataId": null
  },
  {
    "id": 132089,
    "name": "Haveri",
    "state_id": 4026,
    "state_code": "KA",
    "country_id": 101,
    "country_code": "IN",
    "latitude": "14.73732000",
    "longitude": "75.41062000",
    "wikiDataId": null
  },
  {
    "id": 132093,
    "name": "Heggadadevankote",
    "state_id": 4026,
    "state_code": "KA",
    "country_id": 101,
    "country_code": "IN",
    "latitude": "12.08809000",
    "longitude": "76.32957000",
    "wikiDataId": null
  },
  {
    "id": 132103,
    "name": "Hirekerur",
    "state_id": 4026,
    "state_code": "KA",
    "country_id": 101,
    "country_code": "IN",
    "latitude": "14.45506000",
    "longitude": "75.39520000",
    "wikiDataId": null
  },
  {
    "id": 132104,
    "name": "Hiriyur",
    "state_id": 4026,
    "state_code": "KA",
    "country_id": 101,
    "country_code": "IN",
    "latitude": "13.94455000",
    "longitude": "76.61723000",
    "wikiDataId": null
  },
  {
    "id": 132111,
    "name": "Holalkere",
    "state_id": 4026,
    "state_code": "KA",
    "country_id": 101,
    "country_code": "IN",
    "latitude": "14.04295000",
    "longitude": "76.18496000",
    "wikiDataId": null
  },
  {
    "id": 132112,
    "name": "Hole Narsipur",
    "state_id": 4026,
    "state_code": "KA",
    "country_id": 101,
    "country_code": "IN",
    "latitude": "12.78635000",
    "longitude": "76.24331000",
    "wikiDataId": null
  },
  {
    "id": 132113,
    "name": "Homnabad",
    "state_id": 4026,
    "state_code": "KA",
    "country_id": 101,
    "country_code": "IN",
    "latitude": "17.77074000",
    "longitude": "77.12519000",
    "wikiDataId": null
  },
  {
    "id": 132115,
    "name": "Honavar",
    "state_id": 4026,
    "state_code": "KA",
    "country_id": 101,
    "country_code": "IN",
    "latitude": "14.28088000",
    "longitude": "74.44497000",
    "wikiDataId": null
  },
  {
    "id": 132114,
    "name": "Honnali",
    "state_id": 4026,
    "state_code": "KA",
    "country_id": 101,
    "country_code": "IN",
    "latitude": "14.23976000",
    "longitude": "75.64507000",
    "wikiDataId": null
  },
  {
    "id": 132117,
    "name": "Hosanagara",
    "state_id": 4026,
    "state_code": "KA",
    "country_id": 101,
    "country_code": "IN",
    "latitude": "13.91387000",
    "longitude": "75.06503000",
    "wikiDataId": null
  },
  {
    "id": 132118,
    "name": "Hosangadi",
    "state_id": 4026,
    "state_code": "KA",
    "country_id": 101,
    "country_code": "IN",
    "latitude": "13.69756000",
    "longitude": "74.95427000",
    "wikiDataId": null
  },
  {
    "id": 132119,
    "name": "Hosdurga",
    "state_id": 4026,
    "state_code": "KA",
    "country_id": 101,
    "country_code": "IN",
    "latitude": "13.79631000",
    "longitude": "76.28408000",
    "wikiDataId": null
  },
  {
    "id": 132123,
    "name": "Hoskote",
    "state_id": 4026,
    "state_code": "KA",
    "country_id": 101,
    "country_code": "IN",
    "latitude": "13.07070000",
    "longitude": "77.79814000",
    "wikiDataId": null
  },
  {
    "id": 132124,
    "name": "Hospet",
    "state_id": 4026,
    "state_code": "KA",
    "country_id": 101,
    "country_code": "IN",
    "latitude": "15.26954000",
    "longitude": "76.38710000",
    "wikiDataId": null
  },
  {
    "id": 132127,
    "name": "Hubballi",
    "state_id": 4026,
    "state_code": "KA",
    "country_id": 101,
    "country_code": "IN",
    "latitude": "15.34776000",
    "longitude": "75.13378000",
    "wikiDataId": null
  },
  {
    "id": 132128,
    "name": "Hukeri",
    "state_id": 4026,
    "state_code": "KA",
    "country_id": 101,
    "country_code": "IN",
    "latitude": "16.23082000",
    "longitude": "74.60244000",
    "wikiDataId": null
  },
  {
    "id": 132129,
    "name": "Hungund",
    "state_id": 4026,
    "state_code": "KA",
    "country_id": 101,
    "country_code": "IN",
    "latitude": "16.06213000",
    "longitude": "76.05860000",
    "wikiDataId": null
  },
  {
    "id": 132130,
    "name": "Hunsur",
    "state_id": 4026,
    "state_code": "KA",
    "country_id": 101,
    "country_code": "IN",
    "latitude": "12.30359000",
    "longitude": "76.29275000",
    "wikiDataId": null
  },
  {
    "id": 132160,
    "name": "Ilkal",
    "state_id": 4026,
    "state_code": "KA",
    "country_id": 101,
    "country_code": "IN",
    "latitude": "15.95923000",
    "longitude": "76.11351000",
    "wikiDataId": null
  },
  {
    "id": 132165,
    "name": "Indi",
    "state_id": 4026,
    "state_code": "KA",
    "country_id": 101,
    "country_code": "IN",
    "latitude": "17.17735000",
    "longitude": "75.95260000",
    "wikiDataId": null
  },
  {
    "id": 132182,
    "name": "Jagalur",
    "state_id": 4026,
    "state_code": "KA",
    "country_id": 101,
    "country_code": "IN",
    "latitude": "14.51957000",
    "longitude": "76.33915000",
    "wikiDataId": null
  },
  {
    "id": 132227,
    "name": "Jamkhandi",
    "state_id": 4026,
    "state_code": "KA",
    "country_id": 101,
    "country_code": "IN",
    "latitude": "16.50461000",
    "longitude": "75.29146000",
    "wikiDataId": null
  },
  {
    "id": 132263,
    "name": "Jevargi",
    "state_id": 4026,
    "state_code": "KA",
    "country_id": 101,
    "country_code": "IN",
    "latitude": "17.01394000",
    "longitude": "76.77317000",
    "wikiDataId": null
  },
  {
    "id": 132330,
    "name": "Kadur",
    "state_id": 4026,
    "state_code": "KA",
    "country_id": 101,
    "country_code": "IN",
    "latitude": "13.55285000",
    "longitude": "76.01164000",
    "wikiDataId": null
  },
  {
    "id": 132016,
    "name": "Kalaburgi",
    "state_id": 4026,
    "state_code": "KA",
    "country_id": 101,
    "country_code": "IN",
    "latitude": "17.16667000",
    "longitude": "77.08333000",
    "wikiDataId": null
  },
  {
    "id": 132351,
    "name": "Kalghatgi",
    "state_id": 4026,
    "state_code": "KA",
    "country_id": 101,
    "country_code": "IN",
    "latitude": "15.18315000",
    "longitude": "74.97099000",
    "wikiDataId": null
  },
  {
    "id": 132365,
    "name": "Kampli",
    "state_id": 4026,
    "state_code": "KA",
    "country_id": 101,
    "country_code": "IN",
    "latitude": "15.40626000",
    "longitude": "76.60013000",
    "wikiDataId": null
  },
  {
    "id": 157018,
    "name": "Kanakpura",
    "state_id": 4026,
    "state_code": "KA",
    "country_id": 101,
    "country_code": "IN",
    "latitude": "12.54540890",
    "longitude": "77.41322860",
    "wikiDataId": null
  },
  {
    "id": 132706,
    "name": "Kankanhalli",
    "state_id": 4026,
    "state_code": "KA",
    "country_id": 101,
    "country_code": "IN",
    "latitude": "12.54654000",
    "longitude": "77.42005000",
    "wikiDataId": null
  },
  {
    "id": 132719,
    "name": "Karkala",
    "state_id": 4026,
    "state_code": "KA",
    "country_id": 101,
    "country_code": "IN",
    "latitude": "13.21428000",
    "longitude": "74.99234000",
    "wikiDataId": null
  },
  {
    "id": 132411,
    "name": "Karwar",
    "state_id": 4026,
    "state_code": "KA",
    "country_id": 101,
    "country_code": "IN",
    "latitude": "14.81361000",
    "longitude": "74.12972000",
    "wikiDataId": null
  },
  {
    "id": 132431,
    "name": "Kavalur",
    "state_id": 4026,
    "state_code": "KA",
    "country_id": 101,
    "country_code": "IN",
    "latitude": "15.28829000",
    "longitude": "75.94330000",
    "wikiDataId": null
  },
  {
    "id": 132445,
    "name": "Kerur",
    "state_id": 4026,
    "state_code": "KA",
    "country_id": 101,
    "country_code": "IN",
    "latitude": "16.01384000",
    "longitude": "75.54631000",
    "wikiDataId": null
  },
  {
    "id": 132516,
    "name": "Khanapur",
    "state_id": 4026,
    "state_code": "KA",
    "country_id": 101,
    "country_code": "IN",
    "latitude": "15.63969000",
    "longitude": "74.50847000",
    "wikiDataId": null
  },
  {
    "id": 132537,
    "name": "Kodagu",
    "state_id": 4026,
    "state_code": "KA",
    "country_id": 101,
    "country_code": "IN",
    "latitude": "12.41667000",
    "longitude": "75.75000000",
    "wikiDataId": null
  },
  {
    "id": 132541,
    "name": "Kodigenahalli",
    "state_id": 4026,
    "state_code": "KA",
    "country_id": 101,
    "country_code": "IN",
    "latitude": "13.72136000",
    "longitude": "77.38629000",
    "wikiDataId": null
  },
  {
    "id": 132542,
    "name": "Kodlipet",
    "state_id": 4026,
    "state_code": "KA",
    "country_id": 101,
    "country_code": "IN",
    "latitude": "12.80087000",
    "longitude": "75.88662000",
    "wikiDataId": null
  },
  {
    "id": 132553,
    "name": "Kolar",
    "state_id": 4026,
    "state_code": "KA",
    "country_id": 101,
    "country_code": "IN",
    "latitude": "13.13000000",
    "longitude": "78.23000000",
    "wikiDataId": null
  },
  {
    "id": 132559,
    "name": "Kollegal",
    "state_id": 4026,
    "state_code": "KA",
    "country_id": 101,
    "country_code": "IN",
    "latitude": "12.15449000",
    "longitude": "77.11051000",
    "wikiDataId": null
  },
  {
    "id": 132563,
    "name": "Konanur",
    "state_id": 4026,
    "state_code": "KA",
    "country_id": 101,
    "country_code": "IN",
    "latitude": "12.63016000",
    "longitude": "76.05037000",
    "wikiDataId": null
  },
  {
    "id": 132569,
    "name": "Konnur",
    "state_id": 4026,
    "state_code": "KA",
    "country_id": 101,
    "country_code": "IN",
    "latitude": "16.20138000",
    "longitude": "74.74886000",
    "wikiDataId": null
  },
  {
    "id": 132573,
    "name": "Koppa",
    "state_id": 4026,
    "state_code": "KA",
    "country_id": 101,
    "country_code": "IN",
    "latitude": "13.53044000",
    "longitude": "75.36329000",
    "wikiDataId": null
  },
  {
    "id": 132574,
    "name": "Koppal",
    "state_id": 4026,
    "state_code": "KA",
    "country_id": 101,
    "country_code": "IN",
    "latitude": "15.50000000",
    "longitude": "76.20000000",
    "wikiDataId": null
  },
  {
    "id": 132579,
    "name": "Koratagere",
    "state_id": 4026,
    "state_code": "KA",
    "country_id": 101,
    "country_code": "IN",
    "latitude": "13.52200000",
    "longitude": "77.23730000",
    "wikiDataId": null
  },
  {
    "id": 132610,
    "name": "Kotturu",
    "state_id": 4026,
    "state_code": "KA",
    "country_id": 101,
    "country_code": "IN",
    "latitude": "14.82442000",
    "longitude": "76.22005000",
    "wikiDataId": null
  },
  {
    "id": 132623,
    "name": "Krishnarajpet",
    "state_id": 4026,
    "state_code": "KA",
    "country_id": 101,
    "country_code": "IN",
    "latitude": "12.66621000",
    "longitude": "76.48770000",
    "wikiDataId": null
  },
  {
    "id": 132628,
    "name": "Kudachi",
    "state_id": 4026,
    "state_code": "KA",
    "country_id": 101,
    "country_code": "IN",
    "latitude": "16.62784000",
    "longitude": "74.85408000",
    "wikiDataId": null
  },
  {
    "id": 132736,
    "name": "Kudligi",
    "state_id": 4026,
    "state_code": "KA",
    "country_id": 101,
    "country_code": "IN",
    "latitude": "14.90500000",
    "longitude": "76.38527000",
    "wikiDataId": null
  },
  {
    "id": 132642,
    "name": "Kumsi",
    "state_id": 4026,
    "state_code": "KA",
    "country_id": 101,
    "country_code": "IN",
    "latitude": "14.05455000",
    "longitude": "75.39992000",
    "wikiDataId": null
  },
  {
    "id": 132643,
    "name": "Kumta",
    "state_id": 4026,
    "state_code": "KA",
    "country_id": 101,
    "country_code": "IN",
    "latitude": "14.42853000",
    "longitude": "74.41890000",
    "wikiDataId": null
  },
  {
    "id": 132646,
    "name": "Kundgol",
    "state_id": 4026,
    "state_code": "KA",
    "country_id": 101,
    "country_code": "IN",
    "latitude": "15.25612000",
    "longitude": "75.24735000",
    "wikiDataId": null
  },
  {
    "id": 132648,
    "name": "Kunigal",
    "state_id": 4026,
    "state_code": "KA",
    "country_id": 101,
    "country_code": "IN",
    "latitude": "13.02319000",
    "longitude": "77.02518000",
    "wikiDataId": null
  },
  {
    "id": 132658,
    "name": "Kurgunta",
    "state_id": 4026,
    "state_code": "KA",
    "country_id": 101,
    "country_code": "IN",
    "latitude": "17.19321000",
    "longitude": "77.35772000",
    "wikiDataId": null
  },
  {
    "id": 132668,
    "name": "Kushalnagar",
    "state_id": 4026,
    "state_code": "KA",
    "country_id": 101,
    "country_code": "IN",
    "latitude": "12.45795000",
    "longitude": "75.95904000",
    "wikiDataId": null
  },
  {
    "id": 132666,
    "name": "Kushtagi",
    "state_id": 4026,
    "state_code": "KA",
    "country_id": 101,
    "country_code": "IN",
    "latitude": "15.75623000",
    "longitude": "76.19112000",
    "wikiDataId": null
  },
  {
    "id": 132752,
    "name": "Lakshmeshwar",
    "state_id": 4026,
    "state_code": "KA",
    "country_id": 101,
    "country_code": "IN",
    "latitude": "15.12689000",
    "longitude": "75.46935000",
    "wikiDataId": null
  },
  {
    "id": 132765,
    "name": "Lingsugur",
    "state_id": 4026,
    "state_code": "KA",
    "country_id": 101,
    "country_code": "IN",
    "latitude": "16.15876000",
    "longitude": "76.52174000",
    "wikiDataId": null
  },
  {
    "id": 132774,
    "name": "Londa",
    "state_id": 4026,
    "state_code": "KA",
    "country_id": 101,
    "country_code": "IN",
    "latitude": "15.46907000",
    "longitude": "74.51906000",
    "wikiDataId": null
  },
  {
    "id": 132809,
    "name": "Maddagiri",
    "state_id": 4026,
    "state_code": "KA",
    "country_id": 101,
    "country_code": "IN",
    "latitude": "13.66035000",
    "longitude": "77.21239000",
    "wikiDataId": null
  },
  {
    "id": 132810,
    "name": "Maddur",
    "state_id": 4026,
    "state_code": "KA",
    "country_id": 101,
    "country_code": "IN",
    "latitude": "12.58283000",
    "longitude": "77.04294000",
    "wikiDataId": null
  },
  {
    "id": 132817,
    "name": "Madikeri",
    "state_id": 4026,
    "state_code": "KA",
    "country_id": 101,
    "country_code": "IN",
    "latitude": "12.42602000",
    "longitude": "75.73820000",
    "wikiDataId": null
  },
  {
    "id": 133060,
    "name": "Magadi",
    "state_id": 4026,
    "state_code": "KA",
    "country_id": 101,
    "country_code": "IN",
    "latitude": "12.95706000",
    "longitude": "77.22374000",
    "wikiDataId": null
  },
  {
    "id": 132847,
    "name": "Mahalingpur",
    "state_id": 4026,
    "state_code": "KA",
    "country_id": 101,
    "country_code": "IN",
    "latitude": "16.38880000",
    "longitude": "75.10873000",
    "wikiDataId": null
  },
  {
    "id": 132868,
    "name": "Malavalli",
    "state_id": 4026,
    "state_code": "KA",
    "country_id": 101,
    "country_code": "IN",
    "latitude": "12.38556000",
    "longitude": "77.06045000",
    "wikiDataId": null
  },
  {
    "id": 132877,
    "name": "Malpe",
    "state_id": 4026,
    "state_code": "KA",
    "country_id": 101,
    "country_code": "IN",
    "latitude": "13.34962000",
    "longitude": "74.70394000",
    "wikiDataId": null
  },
  {
    "id": 133071,
    "name": "Malur",
    "state_id": 4026,
    "state_code": "KA",
    "country_id": 101,
    "country_code": "IN",
    "latitude": "13.00322000",
    "longitude": "77.93798000",
    "wikiDataId": null
  },
  {
    "id": 132898,
    "name": "Mandya",
    "state_id": 4026,
    "state_code": "KA",
    "country_id": 101,
    "country_code": "IN",
    "latitude": "12.52230000",
    "longitude": "76.89746000",
    "wikiDataId": null
  },
  {
    "id": 132905,
    "name": "Mangaluru",
    "state_id": 4026,
    "state_code": "KA",
    "country_id": 101,
    "country_code": "IN",
    "latitude": "12.91723000",
    "longitude": "74.85603000",
    "wikiDataId": null
  },
  {
    "id": 132912,
    "name": "Manipal",
    "state_id": 4026,
    "state_code": "KA",
    "country_id": 101,
    "country_code": "IN",
    "latitude": "13.35000000",
    "longitude": "74.78333000",
    "wikiDataId": null
  },
  {
    "id": 133083,
    "name": "Manvi",
    "state_id": 4026,
    "state_code": "KA",
    "country_id": 101,
    "country_code": "IN",
    "latitude": "15.99126000",
    "longitude": "77.05034000",
    "wikiDataId": null
  },
  {
    "id": 133093,
    "name": "Mayakonda",
    "state_id": 4026,
    "state_code": "KA",
    "country_id": 101,
    "country_code": "IN",
    "latitude": "14.28894000",
    "longitude": "76.08305000",
    "wikiDataId": null
  },
  {
    "id": 132964,
    "name": "Melukote",
    "state_id": 4026,
    "state_code": "KA",
    "country_id": 101,
    "country_code": "IN",
    "latitude": "12.66258000",
    "longitude": "76.64861000",
    "wikiDataId": null
  },
  {
    "id": 133098,
    "name": "Mudbidri",
    "state_id": 4026,
    "state_code": "KA",
    "country_id": 101,
    "country_code": "IN",
    "latitude": "13.06653000",
    "longitude": "74.99525000",
    "wikiDataId": null
  },
  {
    "id": 133008,
    "name": "Muddebihal",
    "state_id": 4026,
    "state_code": "KA",
    "country_id": 101,
    "country_code": "IN",
    "latitude": "16.33782000",
    "longitude": "76.13173000",
    "wikiDataId": null
  },
  {
    "id": 133009,
    "name": "Mudgal",
    "state_id": 4026,
    "state_code": "KA",
    "country_id": 101,
    "country_code": "IN",
    "latitude": "16.01191000",
    "longitude": "76.44203000",
    "wikiDataId": null
  },
  {
    "id": 133010,
    "name": "Mudgere",
    "state_id": 4026,
    "state_code": "KA",
    "country_id": 101,
    "country_code": "IN",
    "latitude": "13.13353000",
    "longitude": "75.64160000",
    "wikiDataId": null
  },
  {
    "id": 133011,
    "name": "Mudhol",
    "state_id": 4026,
    "state_code": "KA",
    "country_id": 101,
    "country_code": "IN",
    "latitude": "16.33354000",
    "longitude": "75.28305000",
    "wikiDataId": null
  },
  {
    "id": 133020,
    "name": "Mulbagal",
    "state_id": 4026,
    "state_code": "KA",
    "country_id": 101,
    "country_code": "IN",
    "latitude": "13.16352000",
    "longitude": "78.39346000",
    "wikiDataId": null
  },
  {
    "id": 133021,
    "name": "Mulgund",
    "state_id": 4026,
    "state_code": "KA",
    "country_id": 101,
    "country_code": "IN",
    "latitude": "15.28070000",
    "longitude": "75.52132000",
    "wikiDataId": null
  },
  {
    "id": 133101,
    "name": "Mulki",
    "state_id": 4026,
    "state_code": "KA",
    "country_id": 101,
    "country_code": "IN",
    "latitude": "13.09101000",
    "longitude": "74.79353000",
    "wikiDataId": null
  },
  {
    "id": 133026,
    "name": "Mundargi",
    "state_id": 4026,
    "state_code": "KA",
    "country_id": 101,
    "country_code": "IN",
    "latitude": "15.20677000",
    "longitude": "75.88390000",
    "wikiDataId": null
  },
  {
    "id": 133027,
    "name": "Mundgod",
    "state_id": 4026,
    "state_code": "KA",
    "country_id": 101,
    "country_code": "IN",
    "latitude": "14.97144000",
    "longitude": "75.03658000",
    "wikiDataId": null
  },
  {
    "id": 133033,
    "name": "Munirabad",
    "state_id": 4026,
    "state_code": "KA",
    "country_id": 101,
    "country_code": "IN",
    "latitude": "15.30928000",
    "longitude": "76.33830000",
    "wikiDataId": null
  },
  {
    "id": 133041,
    "name": "Murudeshwara",
    "state_id": 4026,
    "state_code": "KA",
    "country_id": 101,
    "country_code": "IN",
    "latitude": "14.09430000",
    "longitude": "74.48450000",
    "wikiDataId": null
  },
  {
    "id": 133053,
    "name": "Mysuru",
    "state_id": 4026,
    "state_code": "KA",
    "country_id": 101,
    "country_code": "IN",
    "latitude": "12.23000000",
    "longitude": "76.42000000",
    "wikiDataId": null
  },
  {
    "id": 133254,
    "name": "Nagamangala",
    "state_id": 4026,
    "state_code": "KA",
    "country_id": 101,
    "country_code": "IN",
    "latitude": "12.81939000",
    "longitude": "76.75456000",
    "wikiDataId": null
  },
  {
    "id": 133151,
    "name": "Nanjangud",
    "state_id": 4026,
    "state_code": "KA",
    "country_id": 101,
    "country_code": "IN",
    "latitude": "12.11764000",
    "longitude": "76.68397000",
    "wikiDataId": null
  },
  {
    "id": 133159,
    "name": "Narasimharajapura",
    "state_id": 4026,
    "state_code": "KA",
    "country_id": 101,
    "country_code": "IN",
    "latitude": "13.61075000",
    "longitude": "75.51200000",
    "wikiDataId": null
  },
  {
    "id": 133164,
    "name": "Naregal",
    "state_id": 4026,
    "state_code": "KA",
    "country_id": 101,
    "country_code": "IN",
    "latitude": "15.57316000",
    "longitude": "75.80805000",
    "wikiDataId": null
  },
  {
    "id": 133167,
    "name": "Nargund",
    "state_id": 4026,
    "state_code": "KA",
    "country_id": 101,
    "country_code": "IN",
    "latitude": "15.72299000",
    "longitude": "75.38666000",
    "wikiDataId": null
  },
  {
    "id": 133184,
    "name": "Navalgund",
    "state_id": 4026,
    "state_code": "KA",
    "country_id": 101,
    "country_code": "IN",
    "latitude": "15.55877000",
    "longitude": "75.35305000",
    "wikiDataId": null
  },
  {
    "id": 133204,
    "name": "Nelamangala",
    "state_id": 4026,
    "state_code": "KA",
    "country_id": 101,
    "country_code": "IN",
    "latitude": "13.09978000",
    "longitude": "77.39364000",
    "wikiDataId": null
  },
  {
    "id": 133249,
    "name": "Nyamti",
    "state_id": 4026,
    "state_code": "KA",
    "country_id": 101,
    "country_code": "IN",
    "latitude": "14.14869000",
    "longitude": "75.57641000",
    "wikiDataId": null
  },
  {
    "id": 133541,
    "name": "Pangala",
    "state_id": 4026,
    "state_code": "KA",
    "country_id": 101,
    "country_code": "IN",
    "latitude": "13.25000000",
    "longitude": "74.75000000",
    "wikiDataId": null
  },
  {
    "id": 133560,
    "name": "Pavugada",
    "state_id": 4026,
    "state_code": "KA",
    "country_id": 101,
    "country_code": "IN",
    "latitude": "14.09953000",
    "longitude": "77.28018000",
    "wikiDataId": null
  },
  {
    "id": 133458,
    "name": "Piriyapatna",
    "state_id": 4026,
    "state_code": "KA",
    "country_id": 101,
    "country_code": "IN",
    "latitude": "12.33497000",
    "longitude": "76.10073000",
    "wikiDataId": null
  },
  {
    "id": 133474,
    "name": "Ponnampet",
    "state_id": 4026,
    "state_code": "KA",
    "country_id": 101,
    "country_code": "IN",
    "latitude": "12.14473000",
    "longitude": "75.94514000",
    "wikiDataId": null
  },
  {
    "id": 133518,
    "name": "Puttur",
    "state_id": 4026,
    "state_code": "KA",
    "country_id": 101,
    "country_code": "IN",
    "latitude": "12.75975000",
    "longitude": "75.20169000",
    "wikiDataId": null
  },
  {
    "id": 133577,
    "name": "Rabkavi",
    "state_id": 4026,
    "state_code": "KA",
    "country_id": 101,
    "country_code": "IN",
    "latitude": "16.47567000",
    "longitude": "75.11060000",
    "wikiDataId": null
  },
  {
    "id": 133586,
    "name": "Raichur",
    "state_id": 4026,
    "state_code": "KA",
    "country_id": 101,
    "country_code": "IN",
    "latitude": "16.16000000",
    "longitude": "76.91000000",
    "wikiDataId": null
  },
  {
    "id": 133598,
    "name": "Ramanagara",
    "state_id": 4026,
    "state_code": "KA",
    "country_id": 101,
    "country_code": "IN",
    "latitude": "12.65000000",
    "longitude": "77.35000000",
    "wikiDataId": null
  },
  {
    "id": 133719,
    "name": "Ranibennur",
    "state_id": 4026,
    "state_code": "KA",
    "country_id": 101,
    "country_code": "IN",
    "latitude": "14.62239000",
    "longitude": "75.62951000",
    "wikiDataId": null
  },
  {
    "id": 133731,
    "name": "Raybag",
    "state_id": 4026,
    "state_code": "KA",
    "country_id": 101,
    "country_code": "IN",
    "latitude": "16.49178000",
    "longitude": "74.77391000",
    "wikiDataId": null
  },
  {
    "id": 133642,
    "name": "Robertsonpet",
    "state_id": 4026,
    "state_code": "KA",
    "country_id": 101,
    "country_code": "IN",
    "latitude": "12.95629000",
    "longitude": "78.27539000",
    "wikiDataId": null
  },
  {
    "id": 133649,
    "name": "Ron",
    "state_id": 4026,
    "state_code": "KA",
    "country_id": 101,
    "country_code": "IN",
    "latitude": "15.69935000",
    "longitude": "75.73408000",
    "wikiDataId": null
  },
  {
    "id": 133743,
    "name": "Sadalgi",
    "state_id": 4026,
    "state_code": "KA",
    "country_id": 101,
    "country_code": "IN",
    "latitude": "16.55870000",
    "longitude": "74.53211000",
    "wikiDataId": null
  },
  {
    "id": 134060,
    "name": "Sagar",
    "state_id": 4026,
    "state_code": "KA",
    "country_id": 101,
    "country_code": "IN",
    "latitude": "14.16498000",
    "longitude": "75.02901000",
    "wikiDataId": null
  },
  {
    "id": 133760,
    "name": "Sakleshpur",
    "state_id": 4026,
    "state_code": "KA",
    "country_id": 101,
    "country_code": "IN",
    "latitude": "12.94119000",
    "longitude": "75.78467000",
    "wikiDataId": null
  },
  {
    "id": 133779,
    "name": "Sandur",
    "state_id": 4026,
    "state_code": "KA",
    "country_id": 101,
    "country_code": "IN",
    "latitude": "15.08613000",
    "longitude": "76.54692000",
    "wikiDataId": null
  },
  {
    "id": 133788,
    "name": "Sanivarsante",
    "state_id": 4026,
    "state_code": "KA",
    "country_id": 101,
    "country_code": "IN",
    "latitude": "12.72824000",
    "longitude": "75.88669000",
    "wikiDataId": null
  },
  {
    "id": 133789,
    "name": "Sankeshwar",
    "state_id": 4026,
    "state_code": "KA",
    "country_id": 101,
    "country_code": "IN",
    "latitude": "16.25649000",
    "longitude": "74.48195000",
    "wikiDataId": null
  },
  {
    "id": 133806,
    "name": "Sargur",
    "state_id": 4026,
    "state_code": "KA",
    "country_id": 101,
    "country_code": "IN",
    "latitude": "11.99971000",
    "longitude": "76.39611000",
    "wikiDataId": null
  },
  {
    "id": 133827,
    "name": "Saundatti",
    "state_id": 4026,
    "state_code": "KA",
    "country_id": 101,
    "country_code": "IN",
    "latitude": "15.76615000",
    "longitude": "75.11778000",
    "wikiDataId": null
  },
  {
    "id": 133830,
    "name": "Savanur",
    "state_id": 4026,
    "state_code": "KA",
    "country_id": 101,
    "country_code": "IN",
    "latitude": "14.97335000",
    "longitude": "75.33724000",
    "wikiDataId": null
  },
  {
    "id": 133846,
    "name": "Seram",
    "state_id": 4026,
    "state_code": "KA",
    "country_id": 101,
    "country_code": "IN",
    "latitude": "17.17859000",
    "longitude": "77.28998000",
    "wikiDataId": null
  },
  {
    "id": 133907,
    "name": "Shahabad",
    "state_id": 4026,
    "state_code": "KA",
    "country_id": 101,
    "country_code": "IN",
    "latitude": "17.13070000",
    "longitude": "76.94361000",
    "wikiDataId": null
  },
  {
    "id": 133898,
    "name": "Shahpur",
    "state_id": 4026,
    "state_code": "KA",
    "country_id": 101,
    "country_code": "IN",
    "latitude": "16.69605000",
    "longitude": "76.84220000",
    "wikiDataId": null
  },
  {
    "id": 133866,
    "name": "Shiggaon",
    "state_id": 4026,
    "state_code": "KA",
    "country_id": 101,
    "country_code": "IN",
    "latitude": "14.99053000",
    "longitude": "75.22499000",
    "wikiDataId": null
  },
  {
    "id": 133868,
    "name": "Shikarpur",
    "state_id": 4026,
    "state_code": "KA",
    "country_id": 101,
    "country_code": "IN",
    "latitude": "14.26980000",
    "longitude": "75.35643000",
    "wikiDataId": null
  },
  {
    "id": 133872,
    "name": "Shimoga",
    "state_id": 4026,
    "state_code": "KA",
    "country_id": 101,
    "country_code": "IN",
    "latitude": "14.05000000",
    "longitude": "75.16000000",
    "wikiDataId": null
  },
  {
    "id": 133876,
    "name": "Shirhatti",
    "state_id": 4026,
    "state_code": "KA",
    "country_id": 101,
    "country_code": "IN",
    "latitude": "15.23352000",
    "longitude": "75.57996000",
    "wikiDataId": null
  },
  {
    "id": 133884,
    "name": "Shorapur",
    "state_id": 4026,
    "state_code": "KA",
    "country_id": 101,
    "country_code": "IN",
    "latitude": "16.52100000",
    "longitude": "76.75738000",
    "wikiDataId": null
  },
  {
    "id": 133887,
    "name": "Shrirangapattana",
    "state_id": 4026,
    "state_code": "KA",
    "country_id": 101,
    "country_code": "IN",
    "latitude": "12.42264000",
    "longitude": "76.68439000",
    "wikiDataId": null
  },
  {
    "id": 133920,
    "name": "Siddapur",
    "state_id": 4026,
    "state_code": "KA",
    "country_id": 101,
    "country_code": "IN",
    "latitude": "14.34322000",
    "longitude": "74.89400000",
    "wikiDataId": null
  },
  {
    "id": 133924,
    "name": "Sidlaghatta",
    "state_id": 4026,
    "state_code": "KA",
    "country_id": 101,
    "country_code": "IN",
    "latitude": "13.38896000",
    "longitude": "77.86444000",
    "wikiDataId": null
  },
  {
    "id": 133941,
    "name": "Sindgi",
    "state_id": 4026,
    "state_code": "KA",
    "country_id": 101,
    "country_code": "IN",
    "latitude": "16.91883000",
    "longitude": "76.23368000",
    "wikiDataId": null
  },
  {
    "id": 133942,
    "name": "Sindhnur",
    "state_id": 4026,
    "state_code": "KA",
    "country_id": 101,
    "country_code": "IN",
    "latitude": "15.76983000",
    "longitude": "76.75581000",
    "wikiDataId": null
  },
  {
    "id": 134087,
    "name": "Sira",
    "state_id": 4026,
    "state_code": "KA",
    "country_id": 101,
    "country_code": "IN",
    "latitude": "13.74155000",
    "longitude": "76.90430000",
    "wikiDataId": null
  },
  {
    "id": 133962,
    "name": "Sirsi",
    "state_id": 4026,
    "state_code": "KA",
    "country_id": 101,
    "country_code": "IN",
    "latitude": "14.62072000",
    "longitude": "74.83554000",
    "wikiDataId": null
  },
  {
    "id": 133967,
    "name": "Siruguppa",
    "state_id": 4026,
    "state_code": "KA",
    "country_id": 101,
    "country_code": "IN",
    "latitude": "15.63000000",
    "longitude": "76.89217000",
    "wikiDataId": null
  },
  {
    "id": 133989,
    "name": "Someshwar",
    "state_id": 4026,
    "state_code": "KA",
    "country_id": 101,
    "country_code": "IN",
    "latitude": "13.49112000",
    "longitude": "75.06646000",
    "wikiDataId": null
  },
  {
    "id": 133991,
    "name": "Somvarpet",
    "state_id": 4026,
    "state_code": "KA",
    "country_id": 101,
    "country_code": "IN",
    "latitude": "12.59698000",
    "longitude": "75.84957000",
    "wikiDataId": null
  },
  {
    "id": 134001,
    "name": "Sorab",
    "state_id": 4026,
    "state_code": "KA",
    "country_id": 101,
    "country_code": "IN",
    "latitude": "14.38144000",
    "longitude": "75.09183000",
    "wikiDataId": null
  },
  {
    "id": 134024,
    "name": "Sravana Belgola",
    "state_id": 4026,
    "state_code": "KA",
    "country_id": 101,
    "country_code": "IN",
    "latitude": "12.85737000",
    "longitude": "76.48886000",
    "wikiDataId": null
  },
  {
    "id": 134021,
    "name": "Sringeri",
    "state_id": 4026,
    "state_code": "KA",
    "country_id": 101,
    "country_code": "IN",
    "latitude": "13.41698000",
    "longitude": "75.25271000",
    "wikiDataId": null
  },
  {
    "id": 134029,
    "name": "Srinivaspur",
    "state_id": 4026,
    "state_code": "KA",
    "country_id": 101,
    "country_code": "IN",
    "latitude": "13.33914000",
    "longitude": "78.21175000",
    "wikiDataId": null
  },
  {
    "id": 134042,
    "name": "Sulya",
    "state_id": 4026,
    "state_code": "KA",
    "country_id": 101,
    "country_code": "IN",
    "latitude": "12.56100000",
    "longitude": "75.38741000",
    "wikiDataId": null
  },
  {
    "id": 134047,
    "name": "Suntikoppa",
    "state_id": 4026,
    "state_code": "KA",
    "country_id": 101,
    "country_code": "IN",
    "latitude": "12.45594000",
    "longitude": "75.82970000",
    "wikiDataId": null
  },
  {
    "id": 134234,
    "name": "Talikota",
    "state_id": 4026,
    "state_code": "KA",
    "country_id": 101,
    "country_code": "IN",
    "latitude": "16.47311000",
    "longitude": "76.31085000",
    "wikiDataId": null
  },
  {
    "id": 134116,
    "name": "Tarikere",
    "state_id": 4026,
    "state_code": "KA",
    "country_id": 101,
    "country_code": "IN",
    "latitude": "13.70954000",
    "longitude": "75.81382000",
    "wikiDataId": null
  },
  {
    "id": 134125,
    "name": "Tekkalakote",
    "state_id": 4026,
    "state_code": "KA",
    "country_id": 101,
    "country_code": "IN",
    "latitude": "15.53444000",
    "longitude": "76.87703000",
    "wikiDataId": null
  },
  {
    "id": 134133,
    "name": "Terdal",
    "state_id": 4026,
    "state_code": "KA",
    "country_id": 101,
    "country_code": "IN",
    "latitude": "16.49379000",
    "longitude": "75.04667000",
    "wikiDataId": null
  },
  {
    "id": 134176,
    "name": "Tiptur",
    "state_id": 4026,
    "state_code": "KA",
    "country_id": 101,
    "country_code": "IN",
    "latitude": "13.25630000",
    "longitude": "76.47768000",
    "wikiDataId": null
  },
  {
    "id": 134247,
    "name": "Tirthahalli",
    "state_id": 4026,
    "state_code": "KA",
    "country_id": 101,
    "country_code": "IN",
    "latitude": "13.68835000",
    "longitude": "75.24548000",
    "wikiDataId": null
  },
  {
    "id": 134182,
    "name": "Tirumakudal Narsipur",
    "state_id": 4026,
    "state_code": "KA",
    "country_id": 101,
    "country_code": "IN",
    "latitude": "12.21207000",
    "longitude": "76.90180000",
    "wikiDataId": null
  },
  {
    "id": 134219,
    "name": "Tumakuru",
    "state_id": 4026,
    "state_code": "KA",
    "country_id": 101,
    "country_code": "IN",
    "latitude": "13.50000000",
    "longitude": "77.00000000",
    "wikiDataId": null
  },
  {
    "id": 134225,
    "name": "Turuvekere",
    "state_id": 4026,
    "state_code": "KA",
    "country_id": 101,
    "country_code": "IN",
    "latitude": "13.16374000",
    "longitude": "76.66641000",
    "wikiDataId": null
  },
  {
    "id": 134260,
    "name": "Udupi",
    "state_id": 4026,
    "state_code": "KA",
    "country_id": 101,
    "country_code": "IN",
    "latitude": "13.50000000",
    "longitude": "74.87000000",
    "wikiDataId": null
  },
  {
    "id": 134268,
    "name": "Ullal",
    "state_id": 4026,
    "state_code": "KA",
    "country_id": 101,
    "country_code": "IN",
    "latitude": "12.80569000",
    "longitude": "74.86058000",
    "wikiDataId": null
  },
  {
    "id": 134300,
    "name": "Uttar Kannada",
    "state_id": 4026,
    "state_code": "KA",
    "country_id": 101,
    "country_code": "IN",
    "latitude": "14.88333000",
    "longitude": "74.58333000",
    "wikiDataId": null
  },
  {
    "id": 134307,
    "name": "Vadigenhalli",
    "state_id": 4026,
    "state_code": "KA",
    "country_id": 101,
    "country_code": "IN",
    "latitude": "13.29724000",
    "longitude": "77.80184000",
    "wikiDataId": null
  },
  {
    "id": 58031,
    "name": "Vijayapura",
    "state_id": 4026,
    "state_code": "KA",
    "country_id": 101,
    "country_code": "IN",
    "latitude": "16.82442000",
    "longitude": "75.71537000",
    "wikiDataId": null
  },
  {
    "id": 134386,
    "name": "Virarajendrapet",
    "state_id": 4026,
    "state_code": "KA",
    "country_id": 101,
    "country_code": "IN",
    "latitude": "12.19644000",
    "longitude": "75.80512000",
    "wikiDataId": null
  },
  {
    "id": 134414,
    "name": "Wadi",
    "state_id": 4026,
    "state_code": "KA",
    "country_id": 101,
    "country_code": "IN",
    "latitude": "17.05183000",
    "longitude": "76.99048000",
    "wikiDataId": null
  },
  {
    "id": 134420,
    "name": "Yadgir",
    "state_id": 4026,
    "state_code": "KA",
    "country_id": 101,
    "country_code": "IN",
    "latitude": "16.73000000",
    "longitude": "76.94000000",
    "wikiDataId": null
  },
  {
    "id": 134429,
    "name": "Yelahanka",
    "state_id": 4026,
    "state_code": "KA",
    "country_id": 101,
    "country_code": "IN",
    "latitude": "13.10073000",
    "longitude": "77.59632000",
    "wikiDataId": null
  },
  {
    "id": 134430,
    "name": "Yelandur",
    "state_id": 4026,
    "state_code": "KA",
    "country_id": 101,
    "country_code": "IN",
    "latitude": "12.04629000",
    "longitude": "77.03034000",
    "wikiDataId": null
  },
  {
    "id": 134431,
    "name": "Yelbarga",
    "state_id": 4026,
    "state_code": "KA",
    "country_id": 101,
    "country_code": "IN",
    "latitude": "15.61545000",
    "longitude": "76.01184000",
    "wikiDataId": null
  },
  {
    "id": 134433,
    "name": "Yellapur",
    "state_id": 4026,
    "state_code": "KA",
    "country_id": 101,
    "country_code": "IN",
    "latitude": "14.96370000",
    "longitude": "74.70929000",
    "wikiDataId": null
  }
]