[
  {
    "id": 89884,
    "name": "Adunaţi",
    "state_id": 4729,
    "state_code": "PH",
    "country_id": 181,
    "country_code": "RO",
    "latitude": "45.13333000",
    "longitude": "25.61667000",
    "wikiDataId": null
  },
  {
    "id": 89920,
    "name": "Albești-Muru",
    "state_id": 4729,
    "state_code": "PH",
    "country_id": 181,
    "country_code": "RO",
    "latitude": "44.94440000",
    "longitude": "26.20899000",
    "wikiDataId": null
  },
  {
    "id": 89918,
    "name": "Albeşti-Paleologu",
    "state_id": 4729,
    "state_code": "PH",
    "country_id": 181,
    "country_code": "RO",
    "latitude": "44.95000000",
    "longitude": "26.21667000",
    "wikiDataId": null
  },
  {
    "id": 89940,
    "name": "Aluniş",
    "state_id": 4729,
    "state_code": "PH",
    "country_id": 181,
    "country_code": "RO",
    "latitude": "45.20000000",
    "longitude": "25.86667000",
    "wikiDataId": null
  },
  {
    "id": 89974,
    "name": "Apostolache",
    "state_id": 4729,
    "state_code": "PH",
    "country_id": 181,
    "country_code": "RO",
    "latitude": "45.13333000",
    "longitude": "26.26667000",
    "wikiDataId": null
  },
  {
    "id": 89991,
    "name": "Ariceștii Zeletin",
    "state_id": 4729,
    "state_code": "PH",
    "country_id": 181,
    "country_code": "RO",
    "latitude": "45.22221000",
    "longitude": "26.17957000",
    "wikiDataId": null
  },
  {
    "id": 89990,
    "name": "Ariceştii-Rahtivani",
    "state_id": 4729,
    "state_code": "PH",
    "country_id": 181,
    "country_code": "RO",
    "latitude": "44.95000000",
    "longitude": "25.83333000",
    "wikiDataId": null
  },
  {
    "id": 90013,
    "name": "Azuga",
    "state_id": 4729,
    "state_code": "PH",
    "country_id": 181,
    "country_code": "RO",
    "latitude": "45.45000000",
    "longitude": "25.55000000",
    "wikiDataId": null
  },
  {
    "id": 90017,
    "name": "Baba Ana",
    "state_id": 4729,
    "state_code": "PH",
    "country_id": 181,
    "country_code": "RO",
    "latitude": "44.96667000",
    "longitude": "26.45000000",
    "wikiDataId": null
  },
  {
    "id": 90486,
    "name": "Băicoi",
    "state_id": 4729,
    "state_code": "PH",
    "country_id": 181,
    "country_code": "RO",
    "latitude": "45.03333000",
    "longitude": "25.85000000",
    "wikiDataId": null
  },
  {
    "id": 90048,
    "name": "Balta Doamnei",
    "state_id": 4729,
    "state_code": "PH",
    "country_id": 181,
    "country_code": "RO",
    "latitude": "44.75000000",
    "longitude": "26.16667000",
    "wikiDataId": null
  },
  {
    "id": 90528,
    "name": "Bălțești",
    "state_id": 4729,
    "state_code": "PH",
    "country_id": 181,
    "country_code": "RO",
    "latitude": "45.10965000",
    "longitude": "26.12937000",
    "wikiDataId": null
  },
  {
    "id": 90533,
    "name": "Băneşti",
    "state_id": 4729,
    "state_code": "PH",
    "country_id": 181,
    "country_code": "RO",
    "latitude": "45.10000000",
    "longitude": "25.76667000",
    "wikiDataId": null
  },
  {
    "id": 90544,
    "name": "Bărcăneşti",
    "state_id": 4729,
    "state_code": "PH",
    "country_id": 181,
    "country_code": "RO",
    "latitude": "44.88333000",
    "longitude": "26.05000000",
    "wikiDataId": null
  },
  {
    "id": 90552,
    "name": "Bătești",
    "state_id": 4729,
    "state_code": "PH",
    "country_id": 181,
    "country_code": "RO",
    "latitude": "44.84830000",
    "longitude": "26.04031000",
    "wikiDataId": null
  },
  {
    "id": 90554,
    "name": "Bătrâni",
    "state_id": 4729,
    "state_code": "PH",
    "country_id": 181,
    "country_code": "RO",
    "latitude": "45.31266780",
    "longitude": "26.15325320",
    "wikiDataId": null
  },
  {
    "id": 90098,
    "name": "Berceni",
    "state_id": 4729,
    "state_code": "PH",
    "country_id": 181,
    "country_code": "RO",
    "latitude": "44.93333000",
    "longitude": "26.11667000",
    "wikiDataId": null
  },
  {
    "id": 90114,
    "name": "Bertea",
    "state_id": 4729,
    "state_code": "PH",
    "country_id": 181,
    "country_code": "RO",
    "latitude": "45.23333000",
    "longitude": "25.86667000",
    "wikiDataId": null
  },
  {
    "id": 90158,
    "name": "Blejoi",
    "state_id": 4729,
    "state_code": "PH",
    "country_id": 181,
    "country_code": "RO",
    "latitude": "45.00000000",
    "longitude": "26.01667000",
    "wikiDataId": null
  },
  {
    "id": 90171,
    "name": "Bobolia",
    "state_id": 4729,
    "state_code": "PH",
    "country_id": 181,
    "country_code": "RO",
    "latitude": "45.09395000",
    "longitude": "25.74259000",
    "wikiDataId": null
  },
  {
    "id": 90209,
    "name": "Boldeşti",
    "state_id": 4729,
    "state_code": "PH",
    "country_id": 181,
    "country_code": "RO",
    "latitude": "44.86597000",
    "longitude": "26.54906000",
    "wikiDataId": null
  },
  {
    "id": 90210,
    "name": "Boldeşti-Scăeni",
    "state_id": 4729,
    "state_code": "PH",
    "country_id": 181,
    "country_code": "RO",
    "latitude": "45.03333000",
    "longitude": "26.03333000",
    "wikiDataId": null
  },
  {
    "id": 90225,
    "name": "Bordenii Mari",
    "state_id": 4729,
    "state_code": "PH",
    "country_id": 181,
    "country_code": "RO",
    "latitude": "45.08951000",
    "longitude": "25.86964000",
    "wikiDataId": null
  },
  {
    "id": 90280,
    "name": "Brazii de Sus",
    "state_id": 4729,
    "state_code": "PH",
    "country_id": 181,
    "country_code": "RO",
    "latitude": "44.86667000",
    "longitude": "26.01667000",
    "wikiDataId": null
  },
  {
    "id": 90283,
    "name": "Breaza",
    "state_id": 4729,
    "state_code": "PH",
    "country_id": 181,
    "country_code": "RO",
    "latitude": "45.18333000",
    "longitude": "25.66667000",
    "wikiDataId": null
  },
  {
    "id": 90287,
    "name": "Breaza de Jos",
    "state_id": 4729,
    "state_code": "PH",
    "country_id": 181,
    "country_code": "RO",
    "latitude": "45.17125000",
    "longitude": "25.67571000",
    "wikiDataId": null
  },
  {
    "id": 90288,
    "name": "Breaza de Sus",
    "state_id": 4729,
    "state_code": "PH",
    "country_id": 181,
    "country_code": "RO",
    "latitude": "45.19879000",
    "longitude": "25.65578000",
    "wikiDataId": null
  },
  {
    "id": 90294,
    "name": "Brebu Mânăstirei",
    "state_id": 4729,
    "state_code": "PH",
    "country_id": 181,
    "country_code": "RO",
    "latitude": "45.18333000",
    "longitude": "25.76667000",
    "wikiDataId": null
  },
  {
    "id": 90293,
    "name": "Brebu Megieșesc",
    "state_id": 4729,
    "state_code": "PH",
    "country_id": 181,
    "country_code": "RO",
    "latitude": "45.16774000",
    "longitude": "25.77474000",
    "wikiDataId": null
  },
  {
    "id": 90357,
    "name": "Bucov",
    "state_id": 4729,
    "state_code": "PH",
    "country_id": 181,
    "country_code": "RO",
    "latitude": "44.96667000",
    "longitude": "26.08333000",
    "wikiDataId": null
  },
  {
    "id": 90371,
    "name": "Buda",
    "state_id": 4729,
    "state_code": "PH",
    "country_id": 181,
    "country_code": "RO",
    "latitude": "44.82443000",
    "longitude": "26.18522000",
    "wikiDataId": null
  },
  {
    "id": 90393,
    "name": "Bughea de Jos",
    "state_id": 4729,
    "state_code": "PH",
    "country_id": 181,
    "country_code": "RO",
    "latitude": "45.17985000",
    "longitude": "26.02044000",
    "wikiDataId": null
  },
  {
    "id": 90436,
    "name": "Buşteni",
    "state_id": 4729,
    "state_code": "PH",
    "country_id": 181,
    "country_code": "RO",
    "latitude": "45.40000000",
    "longitude": "25.53333000",
    "wikiDataId": null
  },
  {
    "id": 93846,
    "name": "Călugăreni",
    "state_id": 4729,
    "state_code": "PH",
    "country_id": 181,
    "country_code": "RO",
    "latitude": "45.08333000",
    "longitude": "26.38333000",
    "wikiDataId": null
  },
  {
    "id": 93798,
    "name": "Câmpina",
    "state_id": 4729,
    "state_code": "PH",
    "country_id": 181,
    "country_code": "RO",
    "latitude": "45.12569560",
    "longitude": "25.73480440",
    "wikiDataId": null
  },
  {
    "id": 93868,
    "name": "Cărbuneşti",
    "state_id": 4729,
    "state_code": "PH",
    "country_id": 181,
    "country_code": "RO",
    "latitude": "45.23333000",
    "longitude": "26.20000000",
    "wikiDataId": null
  },
  {
    "id": 93878,
    "name": "Cătina",
    "state_id": 4729,
    "state_code": "PH",
    "country_id": 181,
    "country_code": "RO",
    "latitude": "45.00984000",
    "longitude": "25.78395000",
    "wikiDataId": null
  },
  {
    "id": 90619,
    "name": "Ceptura de Jos",
    "state_id": 4729,
    "state_code": "PH",
    "country_id": 181,
    "country_code": "RO",
    "latitude": "45.02088000",
    "longitude": "26.32722000",
    "wikiDataId": null
  },
  {
    "id": 90620,
    "name": "Ceptura de Sus",
    "state_id": 4729,
    "state_code": "PH",
    "country_id": 181,
    "country_code": "RO",
    "latitude": "45.01667000",
    "longitude": "26.31667000",
    "wikiDataId": null
  },
  {
    "id": 90621,
    "name": "Ceraşu",
    "state_id": 4729,
    "state_code": "PH",
    "country_id": 181,
    "country_code": "RO",
    "latitude": "45.31667000",
    "longitude": "26.03333000",
    "wikiDataId": null
  },
  {
    "id": 90672,
    "name": "Chiojdeanca",
    "state_id": 4729,
    "state_code": "PH",
    "country_id": 181,
    "country_code": "RO",
    "latitude": "45.16667000",
    "longitude": "26.26667000",
    "wikiDataId": null
  },
  {
    "id": 90692,
    "name": "Chițorani",
    "state_id": 4729,
    "state_code": "PH",
    "country_id": 181,
    "country_code": "RO",
    "latitude": "44.97458000",
    "longitude": "26.11895000",
    "wikiDataId": null
  },
  {
    "id": 90723,
    "name": "Cioranii de Jos",
    "state_id": 4729,
    "state_code": "PH",
    "country_id": 181,
    "country_code": "RO",
    "latitude": "44.81667000",
    "longitude": "26.41667000",
    "wikiDataId": null
  },
  {
    "id": 90724,
    "name": "Cioranii de Sus",
    "state_id": 4729,
    "state_code": "PH",
    "country_id": 181,
    "country_code": "RO",
    "latitude": "44.83923000",
    "longitude": "26.39473000",
    "wikiDataId": null
  },
  {
    "id": 90772,
    "name": "Coada Izvorului",
    "state_id": 4729,
    "state_code": "PH",
    "country_id": 181,
    "country_code": "RO",
    "latitude": "44.85766000",
    "longitude": "25.81851000",
    "wikiDataId": null
  },
  {
    "id": 90782,
    "name": "Cocorăștii Colț",
    "state_id": 4729,
    "state_code": "PH",
    "country_id": 181,
    "country_code": "RO",
    "latitude": "44.83425000",
    "longitude": "25.89937000",
    "wikiDataId": null
  },
  {
    "id": 90783,
    "name": "Cocorăștii Mislii",
    "state_id": 4729,
    "state_code": "PH",
    "country_id": 181,
    "country_code": "RO",
    "latitude": "45.08528000",
    "longitude": "25.92206000",
    "wikiDataId": null
  },
  {
    "id": 90793,
    "name": "Colceag",
    "state_id": 4729,
    "state_code": "PH",
    "country_id": 181,
    "country_code": "RO",
    "latitude": "44.95000000",
    "longitude": "26.35000000",
    "wikiDataId": null
  },
  {
    "id": 90812,
    "name": "Comarnic",
    "state_id": 4729,
    "state_code": "PH",
    "country_id": 181,
    "country_code": "RO",
    "latitude": "45.25000000",
    "longitude": "25.63333000",
    "wikiDataId": null
  },
  {
    "id": 90822,
    "name": "Comuna Adunaţi",
    "state_id": 4729,
    "state_code": "PH",
    "country_id": 181,
    "country_code": "RO",
    "latitude": "45.18832000",
    "longitude": "25.60181000",
    "wikiDataId": null
  },
  {
    "id": 90843,
    "name": "Comuna Albeşti-Paleologu",
    "state_id": 4729,
    "state_code": "PH",
    "country_id": 181,
    "country_code": "RO",
    "latitude": "44.93431000",
    "longitude": "26.23302000",
    "wikiDataId": null
  },
  {
    "id": 90859,
    "name": "Comuna Aluniş",
    "state_id": 4729,
    "state_code": "PH",
    "country_id": 181,
    "country_code": "RO",
    "latitude": "45.20105000",
    "longitude": "25.89661000",
    "wikiDataId": null
  },
  {
    "id": 90881,
    "name": "Comuna Apostolache",
    "state_id": 4729,
    "state_code": "PH",
    "country_id": 181,
    "country_code": "RO",
    "latitude": "45.12123000",
    "longitude": "26.26537000",
    "wikiDataId": null
  },
  {
    "id": 90890,
    "name": "Comuna Ariceştii Zeletin",
    "state_id": 4729,
    "state_code": "PH",
    "country_id": 181,
    "country_code": "RO",
    "latitude": "45.21513000",
    "longitude": "26.16879000",
    "wikiDataId": null
  },
  {
    "id": 90891,
    "name": "Comuna Ariceştii-Rahtivani",
    "state_id": 4729,
    "state_code": "PH",
    "country_id": 181,
    "country_code": "RO",
    "latitude": "44.94512000",
    "longitude": "25.86208000",
    "wikiDataId": null
  },
  {
    "id": 90913,
    "name": "Comuna Baba Ana",
    "state_id": 4729,
    "state_code": "PH",
    "country_id": 181,
    "country_code": "RO",
    "latitude": "44.97508000",
    "longitude": "26.48588000",
    "wikiDataId": null
  },
  {
    "id": 90930,
    "name": "Comuna Balta Doamnei",
    "state_id": 4729,
    "state_code": "PH",
    "country_id": 181,
    "country_code": "RO",
    "latitude": "44.75775000",
    "longitude": "26.19465000",
    "wikiDataId": null
  },
  {
    "id": 91228,
    "name": "Comuna Bălţeşti",
    "state_id": 4729,
    "state_code": "PH",
    "country_id": 181,
    "country_code": "RO",
    "latitude": "45.10390000",
    "longitude": "26.13040000",
    "wikiDataId": null
  },
  {
    "id": 91232,
    "name": "Comuna Băneşti",
    "state_id": 4729,
    "state_code": "PH",
    "country_id": 181,
    "country_code": "RO",
    "latitude": "45.09491000",
    "longitude": "25.77837000",
    "wikiDataId": null
  },
  {
    "id": 91241,
    "name": "Comuna Bărcăneşti",
    "state_id": 4729,
    "state_code": "PH",
    "country_id": 181,
    "country_code": "RO",
    "latitude": "44.87705000",
    "longitude": "26.06672000",
    "wikiDataId": null
  },
  {
    "id": 90960,
    "name": "Comuna Berceni",
    "state_id": 4729,
    "state_code": "PH",
    "country_id": 181,
    "country_code": "RO",
    "latitude": "44.92376000",
    "longitude": "26.10532000",
    "wikiDataId": null
  },
  {
    "id": 90972,
    "name": "Comuna Bertea",
    "state_id": 4729,
    "state_code": "PH",
    "country_id": 181,
    "country_code": "RO",
    "latitude": "45.24083000",
    "longitude": "25.84545000",
    "wikiDataId": null
  },
  {
    "id": 91003,
    "name": "Comuna Blejoi",
    "state_id": 4729,
    "state_code": "PH",
    "country_id": 181,
    "country_code": "RO",
    "latitude": "44.98262000",
    "longitude": "26.01881000",
    "wikiDataId": null
  },
  {
    "id": 91038,
    "name": "Comuna Boldeşti-Gradiştea",
    "state_id": 4729,
    "state_code": "PH",
    "country_id": 181,
    "country_code": "RO",
    "latitude": "44.87645000",
    "longitude": "26.53482000",
    "wikiDataId": null
  },
  {
    "id": 91086,
    "name": "Comuna Brazi",
    "state_id": 4729,
    "state_code": "PH",
    "country_id": 181,
    "country_code": "RO",
    "latitude": "44.85425000",
    "longitude": "26.00323000",
    "wikiDataId": null
  },
  {
    "id": 91093,
    "name": "Comuna Brebu",
    "state_id": 4729,
    "state_code": "PH",
    "country_id": 181,
    "country_code": "RO",
    "latitude": "45.19406000",
    "longitude": "25.77737000",
    "wikiDataId": null
  },
  {
    "id": 91134,
    "name": "Comuna Bucov",
    "state_id": 4729,
    "state_code": "PH",
    "country_id": 181,
    "country_code": "RO",
    "latitude": "44.98443000",
    "longitude": "26.10303000",
    "wikiDataId": null
  },
  {
    "id": 91574,
    "name": "Comuna Călugăreni",
    "state_id": 4729,
    "state_code": "PH",
    "country_id": 181,
    "country_code": "RO",
    "latitude": "45.07998000",
    "longitude": "26.39176000",
    "wikiDataId": null
  },
  {
    "id": 91588,
    "name": "Comuna Cărbuneşti",
    "state_id": 4729,
    "state_code": "PH",
    "country_id": 181,
    "country_code": "RO",
    "latitude": "45.23050000",
    "longitude": "26.19703000",
    "wikiDataId": null
  },
  {
    "id": 91285,
    "name": "Comuna Ceptura",
    "state_id": 4729,
    "state_code": "PH",
    "country_id": 181,
    "country_code": "RO",
    "latitude": "45.04633000",
    "longitude": "26.31341000",
    "wikiDataId": null
  },
  {
    "id": 91286,
    "name": "Comuna Ceraşu",
    "state_id": 4729,
    "state_code": "PH",
    "country_id": 181,
    "country_code": "RO",
    "latitude": "45.32940000",
    "longitude": "26.03874000",
    "wikiDataId": null
  },
  {
    "id": 91318,
    "name": "Comuna Chiojdeanca",
    "state_id": 4729,
    "state_code": "PH",
    "country_id": 181,
    "country_code": "RO",
    "latitude": "45.16695000",
    "longitude": "26.27617000",
    "wikiDataId": null
  },
  {
    "id": 91353,
    "name": "Comuna Ciorani",
    "state_id": 4729,
    "state_code": "PH",
    "country_id": 181,
    "country_code": "RO",
    "latitude": "44.82997000",
    "longitude": "26.40405000",
    "wikiDataId": null
  },
  {
    "id": 91389,
    "name": "Comuna Cocorãştii Mislii",
    "state_id": 4729,
    "state_code": "PH",
    "country_id": 181,
    "country_code": "RO",
    "latitude": "45.08525000",
    "longitude": "25.94139000",
    "wikiDataId": null
  },
  {
    "id": 91390,
    "name": "Comuna Cocorăştii-Colţ",
    "state_id": 4729,
    "state_code": "PH",
    "country_id": 181,
    "country_code": "RO",
    "latitude": "44.83780000",
    "longitude": "25.89752000",
    "wikiDataId": null
  },
  {
    "id": 91396,
    "name": "Comuna Colceag",
    "state_id": 4729,
    "state_code": "PH",
    "country_id": 181,
    "country_code": "RO",
    "latitude": "44.93743000",
    "longitude": "26.36442000",
    "wikiDataId": null
  },
  {
    "id": 91442,
    "name": "Comuna Cornu",
    "state_id": 4729,
    "state_code": "PH",
    "country_id": 181,
    "country_code": "RO",
    "latitude": "45.16336000",
    "longitude": "25.70295000",
    "wikiDataId": null
  },
  {
    "id": 91451,
    "name": "Comuna Cosminele",
    "state_id": 4729,
    "state_code": "PH",
    "country_id": 181,
    "country_code": "RO",
    "latitude": "45.16600000",
    "longitude": "25.89523000",
    "wikiDataId": null
  },
  {
    "id": 91699,
    "name": "Comuna Drăgăneşti",
    "state_id": 4729,
    "state_code": "PH",
    "country_id": 181,
    "country_code": "RO",
    "latitude": "44.82739000",
    "longitude": "26.30273000",
    "wikiDataId": null
  },
  {
    "id": 91679,
    "name": "Comuna Drajna de Sus",
    "state_id": 4729,
    "state_code": "PH",
    "country_id": 181,
    "country_code": "RO",
    "latitude": "45.24352000",
    "longitude": "26.07601000",
    "wikiDataId": null
  },
  {
    "id": 91711,
    "name": "Comuna Dumbrava",
    "state_id": 4729,
    "state_code": "PH",
    "country_id": 181,
    "country_code": "RO",
    "latitude": "44.86266000",
    "longitude": "26.21463000",
    "wikiDataId": null
  },
  {
    "id": 91714,
    "name": "Comuna Dumbrãveşti",
    "state_id": 4729,
    "state_code": "PH",
    "country_id": 181,
    "country_code": "RO",
    "latitude": "45.09234000",
    "longitude": "25.99862000",
    "wikiDataId": null
  },
  {
    "id": 91805,
    "name": "Comuna Fântânele",
    "state_id": 4729,
    "state_code": "PH",
    "country_id": 181,
    "country_code": "RO",
    "latitude": "45.02536000",
    "longitude": "26.36398000",
    "wikiDataId": null
  },
  {
    "id": 91764,
    "name": "Comuna Filipeştii de Pădure",
    "state_id": 4729,
    "state_code": "PH",
    "country_id": 181,
    "country_code": "RO",
    "latitude": "44.99423000",
    "longitude": "25.73606000",
    "wikiDataId": null
  },
  {
    "id": 91765,
    "name": "Comuna Filipeştii de Târg",
    "state_id": 4729,
    "state_code": "PH",
    "country_id": 181,
    "country_code": "RO",
    "latitude": "44.94799000",
    "longitude": "25.79812000",
    "wikiDataId": null
  },
  {
    "id": 91771,
    "name": "Comuna Floreşti",
    "state_id": 4729,
    "state_code": "PH",
    "country_id": 181,
    "country_code": "RO",
    "latitude": "45.02718000",
    "longitude": "25.78536000",
    "wikiDataId": null
  },
  {
    "id": 91797,
    "name": "Comuna Fulga",
    "state_id": 4729,
    "state_code": "PH",
    "country_id": 181,
    "country_code": "RO",
    "latitude": "44.88905000",
    "longitude": "26.44410000",
    "wikiDataId": null
  },
  {
    "id": 91847,
    "name": "Comuna Gherghiţa",
    "state_id": 4729,
    "state_code": "PH",
    "country_id": 181,
    "country_code": "RO",
    "latitude": "44.79902000",
    "longitude": "26.27275000",
    "wikiDataId": null
  },
  {
    "id": 91902,
    "name": "Comuna Gorgota",
    "state_id": 4729,
    "state_code": "PH",
    "country_id": 181,
    "country_code": "RO",
    "latitude": "44.78404000",
    "longitude": "26.07726000",
    "wikiDataId": null
  },
  {
    "id": 91903,
    "name": "Comuna Gornet",
    "state_id": 4729,
    "state_code": "PH",
    "country_id": 181,
    "country_code": "RO",
    "latitude": "45.13642000",
    "longitude": "26.08054000",
    "wikiDataId": null
  },
  {
    "id": 91904,
    "name": "Comuna Gornet-Cricov",
    "state_id": 4729,
    "state_code": "PH",
    "country_id": 181,
    "country_code": "RO",
    "latitude": "45.09016000",
    "longitude": "26.26009000",
    "wikiDataId": null
  },
  {
    "id": 91953,
    "name": "Comuna Gura Vadului",
    "state_id": 4729,
    "state_code": "PH",
    "country_id": 181,
    "country_code": "RO",
    "latitude": "45.05357000",
    "longitude": "26.44168000",
    "wikiDataId": null
  },
  {
    "id": 91954,
    "name": "Comuna Gura Vitioarei",
    "state_id": 4729,
    "state_code": "PH",
    "country_id": 181,
    "country_code": "RO",
    "latitude": "45.14951000",
    "longitude": "26.03308000",
    "wikiDataId": null
  },
  {
    "id": 92087,
    "name": "Comuna Iordãcheanu",
    "state_id": 4729,
    "state_code": "PH",
    "country_id": 181,
    "country_code": "RO",
    "latitude": "45.04671000",
    "longitude": "26.22605000",
    "wikiDataId": null
  },
  {
    "id": 92105,
    "name": "Comuna Izvoarele",
    "state_id": 4729,
    "state_code": "PH",
    "country_id": 181,
    "country_code": "RO",
    "latitude": "45.27102000",
    "longitude": "26.00931000",
    "wikiDataId": null
  },
  {
    "id": 92133,
    "name": "Comuna Jugureni",
    "state_id": 4729,
    "state_code": "PH",
    "country_id": 181,
    "country_code": "RO",
    "latitude": "45.10156000",
    "longitude": "26.42231000",
    "wikiDataId": null
  },
  {
    "id": 92137,
    "name": "Comuna Lapoş",
    "state_id": 4729,
    "state_code": "PH",
    "country_id": 181,
    "country_code": "RO",
    "latitude": "45.15075000",
    "longitude": "26.42796000",
    "wikiDataId": null
  },
  {
    "id": 92170,
    "name": "Comuna Lipăneşti",
    "state_id": 4729,
    "state_code": "PH",
    "country_id": 181,
    "country_code": "RO",
    "latitude": "45.05799000",
    "longitude": "26.02213000",
    "wikiDataId": null
  },
  {
    "id": 92392,
    "name": "Comuna Măgurele",
    "state_id": 4729,
    "state_code": "PH",
    "country_id": 181,
    "country_code": "RO",
    "latitude": "45.09476000",
    "longitude": "26.04955000",
    "wikiDataId": null
  },
  {
    "id": 92393,
    "name": "Comuna Măgureni",
    "state_id": 4729,
    "state_code": "PH",
    "country_id": 181,
    "country_code": "RO",
    "latitude": "45.05203000",
    "longitude": "25.76233000",
    "wikiDataId": null
  },
  {
    "id": 92401,
    "name": "Comuna Măneciu",
    "state_id": 4729,
    "state_code": "PH",
    "country_id": 181,
    "country_code": "RO",
    "latitude": "45.33711000",
    "longitude": "25.98547000",
    "wikiDataId": null
  },
  {
    "id": 92402,
    "name": "Comuna Măneşti",
    "state_id": 4729,
    "state_code": "PH",
    "country_id": 181,
    "country_code": "RO",
    "latitude": "44.86043000",
    "longitude": "25.83461000",
    "wikiDataId": null
  },
  {
    "id": 92494,
    "name": "Comuna Olari",
    "state_id": 4729,
    "state_code": "PH",
    "country_id": 181,
    "country_code": "RO",
    "latitude": "44.79262000",
    "longitude": "26.20498000",
    "wikiDataId": null
  },
  {
    "id": 92714,
    "name": "Comuna Păcureţi",
    "state_id": 4729,
    "state_code": "PH",
    "country_id": 181,
    "country_code": "RO",
    "latitude": "45.14696000",
    "longitude": "26.13997000",
    "wikiDataId": null
  },
  {
    "id": 92727,
    "name": "Comuna Păuleşti",
    "state_id": 4729,
    "state_code": "PH",
    "country_id": 181,
    "country_code": "RO",
    "latitude": "45.00549000",
    "longitude": "25.96991000",
    "wikiDataId": null
  },
  {
    "id": 92599,
    "name": "Comuna Plopu",
    "state_id": 4729,
    "state_code": "PH",
    "country_id": 181,
    "country_code": "RO",
    "latitude": "45.02686000",
    "longitude": "26.14227000",
    "wikiDataId": null
  },
  {
    "id": 92613,
    "name": "Comuna Podenii Noi",
    "state_id": 4729,
    "state_code": "PH",
    "country_id": 181,
    "country_code": "RO",
    "latitude": "45.10423000",
    "longitude": "26.19023000",
    "wikiDataId": null
  },
  {
    "id": 92627,
    "name": "Comuna Poiana Câmpina",
    "state_id": 4729,
    "state_code": "PH",
    "country_id": 181,
    "country_code": "RO",
    "latitude": "45.12079000",
    "longitude": "25.71905000",
    "wikiDataId": null
  },
  {
    "id": 92636,
    "name": "Comuna Poienarii Burchii",
    "state_id": 4729,
    "state_code": "PH",
    "country_id": 181,
    "country_code": "RO",
    "latitude": "44.74995000",
    "longitude": "25.99784000",
    "wikiDataId": null
  },
  {
    "id": 92664,
    "name": "Comuna Poseşti",
    "state_id": 4729,
    "state_code": "PH",
    "country_id": 181,
    "country_code": "RO",
    "latitude": "45.27519000",
    "longitude": "26.14944000",
    "wikiDataId": null
  },
  {
    "id": 92669,
    "name": "Comuna Predeal-Sărari",
    "state_id": 4729,
    "state_code": "PH",
    "country_id": 181,
    "country_code": "RO",
    "latitude": "45.18891000",
    "longitude": "26.10613000",
    "wikiDataId": null
  },
  {
    "id": 92682,
    "name": "Comuna Proviţa de Jos",
    "state_id": 4729,
    "state_code": "PH",
    "country_id": 181,
    "country_code": "RO",
    "latitude": "45.11190000",
    "longitude": "25.67791000",
    "wikiDataId": null
  },
  {
    "id": 92683,
    "name": "Comuna Proviţa de Sus",
    "state_id": 4729,
    "state_code": "PH",
    "country_id": 181,
    "country_code": "RO",
    "latitude": "45.13604000",
    "longitude": "25.63454000",
    "wikiDataId": null
  },
  {
    "id": 92691,
    "name": "Comuna Puchenii Mari",
    "state_id": 4729,
    "state_code": "PH",
    "country_id": 181,
    "country_code": "RO",
    "latitude": "44.82386000",
    "longitude": "26.07697000",
    "wikiDataId": null
  },
  {
    "id": 92820,
    "name": "Comuna Râfov",
    "state_id": 4729,
    "state_code": "PH",
    "country_id": 181,
    "country_code": "RO",
    "latitude": "44.85001000",
    "longitude": "26.20573000",
    "wikiDataId": null
  },
  {
    "id": 92863,
    "name": "Comuna Salcia",
    "state_id": 4729,
    "state_code": "PH",
    "country_id": 181,
    "country_code": "RO",
    "latitude": "45.18323000",
    "longitude": "26.32600000",
    "wikiDataId": null
  },
  {
    "id": 93093,
    "name": "Comuna Sălciile",
    "state_id": 4729,
    "state_code": "PH",
    "country_id": 181,
    "country_code": "RO",
    "latitude": "44.81651000",
    "longitude": "26.49246000",
    "wikiDataId": null
  },
  {
    "id": 93053,
    "name": "Comuna Sângeru",
    "state_id": 4729,
    "state_code": "PH",
    "country_id": 181,
    "country_code": "RO",
    "latitude": "45.14325000",
    "longitude": "26.35389000",
    "wikiDataId": null
  },
  {
    "id": 92895,
    "name": "Comuna Scorţeni",
    "state_id": 4729,
    "state_code": "PH",
    "country_id": 181,
    "country_code": "RO",
    "latitude": "45.08876000",
    "longitude": "25.84712000",
    "wikiDataId": null
  },
  {
    "id": 92917,
    "name": "Comuna Secăria",
    "state_id": 4729,
    "state_code": "PH",
    "country_id": 181,
    "country_code": "RO",
    "latitude": "45.27498000",
    "longitude": "25.68457000",
    "wikiDataId": null
  },
  {
    "id": 93531,
    "name": "Comuna Şirna",
    "state_id": 4729,
    "state_code": "PH",
    "country_id": 181,
    "country_code": "RO",
    "latitude": "44.80011000",
    "longitude": "25.94156000",
    "wikiDataId": null
  },
  {
    "id": 93536,
    "name": "Comuna Şoimari",
    "state_id": 4729,
    "state_code": "PH",
    "country_id": 181,
    "country_code": "RO",
    "latitude": "45.16940000",
    "longitude": "26.20968000",
    "wikiDataId": null
  },
  {
    "id": 93543,
    "name": "Comuna Şotrile",
    "state_id": 4729,
    "state_code": "PH",
    "country_id": 181,
    "country_code": "RO",
    "latitude": "45.21183000",
    "longitude": "25.71909000",
    "wikiDataId": null
  },
  {
    "id": 92986,
    "name": "Comuna Starchiojd",
    "state_id": 4729,
    "state_code": "PH",
    "country_id": 181,
    "country_code": "RO",
    "latitude": "45.32851000",
    "longitude": "26.17417000",
    "wikiDataId": null
  },
  {
    "id": 93553,
    "name": "Comuna Ştefeşti",
    "state_id": 4729,
    "state_code": "PH",
    "country_id": 181,
    "country_code": "RO",
    "latitude": "45.24234000",
    "longitude": "25.89879000",
    "wikiDataId": null
  },
  {
    "id": 93036,
    "name": "Comuna Surani",
    "state_id": 4729,
    "state_code": "PH",
    "country_id": 181,
    "country_code": "RO",
    "latitude": "45.19425000",
    "longitude": "26.17335000",
    "wikiDataId": null
  },
  {
    "id": 93120,
    "name": "Comuna Talea",
    "state_id": 4729,
    "state_code": "PH",
    "country_id": 181,
    "country_code": "RO",
    "latitude": "45.22413000",
    "longitude": "25.56381000",
    "wikiDataId": null
  },
  {
    "id": 93226,
    "name": "Comuna Târgşoru Vechi",
    "state_id": 4729,
    "state_code": "PH",
    "country_id": 181,
    "country_code": "RO",
    "latitude": "44.87977000",
    "longitude": "25.93082000",
    "wikiDataId": null
  },
  {
    "id": 93242,
    "name": "Comuna Tătaru",
    "state_id": 4729,
    "state_code": "PH",
    "country_id": 181,
    "country_code": "RO",
    "latitude": "45.10405000",
    "longitude": "26.31980000",
    "wikiDataId": null
  },
  {
    "id": 93134,
    "name": "Comuna Teişani",
    "state_id": 4729,
    "state_code": "PH",
    "country_id": 181,
    "country_code": "RO",
    "latitude": "45.22003000",
    "longitude": "26.01022000",
    "wikiDataId": null
  },
  {
    "id": 93136,
    "name": "Comuna Telega",
    "state_id": 4729,
    "state_code": "PH",
    "country_id": 181,
    "country_code": "RO",
    "latitude": "45.14270000",
    "longitude": "25.81441000",
    "wikiDataId": null
  },
  {
    "id": 93157,
    "name": "Comuna Tinosu",
    "state_id": 4729,
    "state_code": "PH",
    "country_id": 181,
    "country_code": "RO",
    "latitude": "44.81699000",
    "longitude": "26.00982000",
    "wikiDataId": null
  },
  {
    "id": 93171,
    "name": "Comuna Tomşani",
    "state_id": 4729,
    "state_code": "PH",
    "country_id": 181,
    "country_code": "RO",
    "latitude": "44.94941000",
    "longitude": "26.29586000",
    "wikiDataId": null
  },
  {
    "id": 93295,
    "name": "Comuna Vadu Săpat",
    "state_id": 4729,
    "state_code": "PH",
    "country_id": 181,
    "country_code": "RO",
    "latitude": "45.04023000",
    "longitude": "26.38868000",
    "wikiDataId": null
  },
  {
    "id": 93430,
    "name": "Comuna Vâlcăneşti",
    "state_id": 4729,
    "state_code": "PH",
    "country_id": 181,
    "country_code": "RO",
    "latitude": "45.12377000",
    "longitude": "25.94382000",
    "wikiDataId": null
  },
  {
    "id": 93302,
    "name": "Comuna Valea Călugărească",
    "state_id": 4729,
    "state_code": "PH",
    "country_id": 181,
    "country_code": "RO",
    "latitude": "44.95527000",
    "longitude": "26.16122000",
    "wikiDataId": null
  },
  {
    "id": 93304,
    "name": "Comuna Valea Doftanei",
    "state_id": 4729,
    "state_code": "PH",
    "country_id": 181,
    "country_code": "RO",
    "latitude": "45.32105000",
    "longitude": "25.72546000",
    "wikiDataId": null
  },
  {
    "id": 93463,
    "name": "Comuna Vărbilău",
    "state_id": 4729,
    "state_code": "PH",
    "country_id": 181,
    "country_code": "RO",
    "latitude": "45.16492000",
    "longitude": "25.95984000",
    "wikiDataId": null
  },
  {
    "id": 93591,
    "name": "Conduratu",
    "state_id": 4729,
    "state_code": "PH",
    "country_id": 181,
    "country_code": "RO",
    "latitude": "44.97236000",
    "longitude": "26.43365000",
    "wikiDataId": null
  },
  {
    "id": 93627,
    "name": "Corlătești",
    "state_id": 4729,
    "state_code": "PH",
    "country_id": 181,
    "country_code": "RO",
    "latitude": "44.91341000",
    "longitude": "26.08726000",
    "wikiDataId": null
  },
  {
    "id": 93640,
    "name": "Cornu de Jos",
    "state_id": 4729,
    "state_code": "PH",
    "country_id": 181,
    "country_code": "RO",
    "latitude": "45.15665000",
    "longitude": "25.70452000",
    "wikiDataId": null
  },
  {
    "id": 93641,
    "name": "Cornu de Sus",
    "state_id": 4729,
    "state_code": "PH",
    "country_id": 181,
    "country_code": "RO",
    "latitude": "45.16667000",
    "longitude": "25.70000000",
    "wikiDataId": null
  },
  {
    "id": 93655,
    "name": "Cosmina de Jos",
    "state_id": 4729,
    "state_code": "PH",
    "country_id": 181,
    "country_code": "RO",
    "latitude": "45.15000000",
    "longitude": "25.88333000",
    "wikiDataId": null
  },
  {
    "id": 93729,
    "name": "Crivina",
    "state_id": 4729,
    "state_code": "PH",
    "country_id": 181,
    "country_code": "RO",
    "latitude": "44.78636000",
    "longitude": "26.05604000",
    "wikiDataId": null
  },
  {
    "id": 94107,
    "name": "Dâmbu",
    "state_id": 4729,
    "state_code": "PH",
    "country_id": 181,
    "country_code": "RO",
    "latitude": "45.04533000",
    "longitude": "25.88854000",
    "wikiDataId": null
  },
  {
    "id": 93942,
    "name": "Dițești",
    "state_id": 4729,
    "state_code": "PH",
    "country_id": 181,
    "country_code": "RO",
    "latitude": "44.97990000",
    "longitude": "25.72655000",
    "wikiDataId": null
  },
  {
    "id": 93978,
    "name": "Doftana",
    "state_id": 4729,
    "state_code": "PH",
    "country_id": 181,
    "country_code": "RO",
    "latitude": "45.15000000",
    "longitude": "25.80000000",
    "wikiDataId": null
  },
  {
    "id": 94056,
    "name": "Drăgăneasa",
    "state_id": 4729,
    "state_code": "PH",
    "country_id": 181,
    "country_code": "RO",
    "latitude": "45.10467000",
    "longitude": "25.68138000",
    "wikiDataId": null
  },
  {
    "id": 94057,
    "name": "Drăgăneşti",
    "state_id": 4729,
    "state_code": "PH",
    "country_id": 181,
    "country_code": "RO",
    "latitude": "44.81667000",
    "longitude": "26.30000000",
    "wikiDataId": null
  },
  {
    "id": 94026,
    "name": "Drajna de Jos",
    "state_id": 4729,
    "state_code": "PH",
    "country_id": 181,
    "country_code": "RO",
    "latitude": "45.21667000",
    "longitude": "26.05000000",
    "wikiDataId": null
  },
  {
    "id": 94027,
    "name": "Drajna de Sus",
    "state_id": 4729,
    "state_code": "PH",
    "country_id": 181,
    "country_code": "RO",
    "latitude": "45.25709000",
    "longitude": "26.07388000",
    "wikiDataId": null
  },
  {
    "id": 94077,
    "name": "Dumbrava",
    "state_id": 4729,
    "state_code": "PH",
    "country_id": 181,
    "country_code": "RO",
    "latitude": "44.88333000",
    "longitude": "26.18333000",
    "wikiDataId": null
  },
  {
    "id": 94087,
    "name": "Dumbrăveşti",
    "state_id": 4729,
    "state_code": "PH",
    "country_id": 181,
    "country_code": "RO",
    "latitude": "45.08333000",
    "longitude": "26.00000000",
    "wikiDataId": null
  },
  {
    "id": 94253,
    "name": "Făgetu",
    "state_id": 4729,
    "state_code": "PH",
    "country_id": 181,
    "country_code": "RO",
    "latitude": "45.13668000",
    "longitude": "26.02018000",
    "wikiDataId": null
  },
  {
    "id": 94240,
    "name": "Fântânele",
    "state_id": 4729,
    "state_code": "PH",
    "country_id": 181,
    "country_code": "RO",
    "latitude": "45.00700000",
    "longitude": "26.37720000",
    "wikiDataId": null
  },
  {
    "id": 94176,
    "name": "Filipeştii de Pădure",
    "state_id": 4729,
    "state_code": "PH",
    "country_id": 181,
    "country_code": "RO",
    "latitude": "45.00000000",
    "longitude": "25.75000000",
    "wikiDataId": null
  },
  {
    "id": 94177,
    "name": "Filipeştii de Târg",
    "state_id": 4729,
    "state_code": "PH",
    "country_id": 181,
    "country_code": "RO",
    "latitude": "44.98333000",
    "longitude": "25.78333000",
    "wikiDataId": null
  },
  {
    "id": 94186,
    "name": "Floreşti",
    "state_id": 4729,
    "state_code": "PH",
    "country_id": 181,
    "country_code": "RO",
    "latitude": "45.05000000",
    "longitude": "25.78333000",
    "wikiDataId": null
  },
  {
    "id": 94222,
    "name": "Fulga de Jos",
    "state_id": 4729,
    "state_code": "PH",
    "country_id": 181,
    "country_code": "RO",
    "latitude": "44.88152000",
    "longitude": "26.44258000",
    "wikiDataId": null
  },
  {
    "id": 94223,
    "name": "Fulga de Sus",
    "state_id": 4729,
    "state_code": "PH",
    "country_id": 181,
    "country_code": "RO",
    "latitude": "44.90000000",
    "longitude": "26.45000000",
    "wikiDataId": null
  },
  {
    "id": 94497,
    "name": "Găgeni",
    "state_id": 4729,
    "state_code": "PH",
    "country_id": 181,
    "country_code": "RO",
    "latitude": "45.02164000",
    "longitude": "25.94585000",
    "wikiDataId": null
  },
  {
    "id": 94295,
    "name": "Gheaba",
    "state_id": 4729,
    "state_code": "PH",
    "country_id": 181,
    "country_code": "RO",
    "latitude": "45.30916000",
    "longitude": "26.00626000",
    "wikiDataId": null
  },
  {
    "id": 94307,
    "name": "Gherghiţa",
    "state_id": 4729,
    "state_code": "PH",
    "country_id": 181,
    "country_code": "RO",
    "latitude": "44.80000000",
    "longitude": "26.26667000",
    "wikiDataId": null
  },
  {
    "id": 94335,
    "name": "Ghioșești",
    "state_id": 4729,
    "state_code": "PH",
    "country_id": 181,
    "country_code": "RO",
    "latitude": "45.24235000",
    "longitude": "25.62671000",
    "wikiDataId": null
  },
  {
    "id": 94385,
    "name": "Gorgota",
    "state_id": 4729,
    "state_code": "PH",
    "country_id": 181,
    "country_code": "RO",
    "latitude": "44.78333000",
    "longitude": "26.08333000",
    "wikiDataId": null
  },
  {
    "id": 94387,
    "name": "Gornet",
    "state_id": 4729,
    "state_code": "PH",
    "country_id": 181,
    "country_code": "RO",
    "latitude": "45.11667000",
    "longitude": "26.06667000",
    "wikiDataId": null
  },
  {
    "id": 94388,
    "name": "Gornet-Cricov",
    "state_id": 4729,
    "state_code": "PH",
    "country_id": 181,
    "country_code": "RO",
    "latitude": "45.08333000",
    "longitude": "26.26667000",
    "wikiDataId": null
  },
  {
    "id": 94390,
    "name": "Goruna",
    "state_id": 4729,
    "state_code": "PH",
    "country_id": 181,
    "country_code": "RO",
    "latitude": "45.08696000",
    "longitude": "25.94202000",
    "wikiDataId": null
  },
  {
    "id": 94399,
    "name": "Gradiștea",
    "state_id": 4729,
    "state_code": "PH",
    "country_id": 181,
    "country_code": "RO",
    "latitude": "44.88803000",
    "longitude": "26.51520000",
    "wikiDataId": null
  },
  {
    "id": 94426,
    "name": "Groșani",
    "state_id": 4729,
    "state_code": "PH",
    "country_id": 181,
    "country_code": "RO",
    "latitude": "45.24822000",
    "longitude": "25.94795000",
    "wikiDataId": null
  },
  {
    "id": 94450,
    "name": "Gura Beliei",
    "state_id": 4729,
    "state_code": "PH",
    "country_id": 181,
    "country_code": "RO",
    "latitude": "45.21064000",
    "longitude": "25.64946000",
    "wikiDataId": null
  },
  {
    "id": 94462,
    "name": "Gura Vadului",
    "state_id": 4729,
    "state_code": "PH",
    "country_id": 181,
    "country_code": "RO",
    "latitude": "45.05000000",
    "longitude": "26.46667000",
    "wikiDataId": null
  },
  {
    "id": 94463,
    "name": "Gura Viţioarei",
    "state_id": 4729,
    "state_code": "PH",
    "country_id": 181,
    "country_code": "RO",
    "latitude": "45.15000000",
    "longitude": "26.03333000",
    "wikiDataId": null
  },
  {
    "id": 94555,
    "name": "Homorâciu",
    "state_id": 4729,
    "state_code": "PH",
    "country_id": 181,
    "country_code": "RO",
    "latitude": "45.26940000",
    "longitude": "26.01634000",
    "wikiDataId": null
  },
  {
    "id": 94670,
    "name": "Inotești",
    "state_id": 4729,
    "state_code": "PH",
    "country_id": 181,
    "country_code": "RO",
    "latitude": "44.96146000",
    "longitude": "26.35782000",
    "wikiDataId": null
  },
  {
    "id": 94681,
    "name": "Iordăcheanu",
    "state_id": 4729,
    "state_code": "PH",
    "country_id": 181,
    "country_code": "RO",
    "latitude": "45.04392000",
    "longitude": "26.23920000",
    "wikiDataId": null
  },
  {
    "id": 94712,
    "name": "Izvoarele",
    "state_id": 4729,
    "state_code": "PH",
    "country_id": 181,
    "country_code": "RO",
    "latitude": "45.28376000",
    "longitude": "26.00119000",
    "wikiDataId": null
  },
  {
    "id": 94752,
    "name": "Jugureni",
    "state_id": 4729,
    "state_code": "PH",
    "country_id": 181,
    "country_code": "RO",
    "latitude": "45.10000000",
    "longitude": "26.45000000",
    "wikiDataId": null
  },
  {
    "id": 94760,
    "name": "Lapoș",
    "state_id": 4729,
    "state_code": "PH",
    "country_id": 181,
    "country_code": "RO",
    "latitude": "45.15197000",
    "longitude": "26.41911000",
    "wikiDataId": null
  },
  {
    "id": 94797,
    "name": "Liliești",
    "state_id": 4729,
    "state_code": "PH",
    "country_id": 181,
    "country_code": "RO",
    "latitude": "45.03458000",
    "longitude": "25.88554000",
    "wikiDataId": null
  },
  {
    "id": 94807,
    "name": "Lipăneşti",
    "state_id": 4729,
    "state_code": "PH",
    "country_id": 181,
    "country_code": "RO",
    "latitude": "45.05000000",
    "longitude": "26.01667000",
    "wikiDataId": null
  },
  {
    "id": 94816,
    "name": "Livadea",
    "state_id": 4729,
    "state_code": "PH",
    "country_id": 181,
    "country_code": "RO",
    "latitude": "45.18663000",
    "longitude": "25.92805000",
    "wikiDataId": null
  },
  {
    "id": 94831,
    "name": "Loloiasca",
    "state_id": 4729,
    "state_code": "PH",
    "country_id": 181,
    "country_code": "RO",
    "latitude": "44.96808000",
    "longitude": "26.29141000",
    "wikiDataId": null
  },
  {
    "id": 94869,
    "name": "Lunca Prahovei",
    "state_id": 4729,
    "state_code": "PH",
    "country_id": 181,
    "country_code": "RO",
    "latitude": "45.04714000",
    "longitude": "25.77161000",
    "wikiDataId": null
  },
  {
    "id": 94905,
    "name": "Magula",
    "state_id": 4729,
    "state_code": "PH",
    "country_id": 181,
    "country_code": "RO",
    "latitude": "44.93185000",
    "longitude": "26.30114000",
    "wikiDataId": null
  },
  {
    "id": 95244,
    "name": "Măgurele",
    "state_id": 4729,
    "state_code": "PH",
    "country_id": 181,
    "country_code": "RO",
    "latitude": "45.10000000",
    "longitude": "26.03333000",
    "wikiDataId": null
  },
  {
    "id": 95245,
    "name": "Măgureni",
    "state_id": 4729,
    "state_code": "PH",
    "country_id": 181,
    "country_code": "RO",
    "latitude": "45.06667000",
    "longitude": "25.73333000",
    "wikiDataId": null
  },
  {
    "id": 95257,
    "name": "Măneciu-Ungureni",
    "state_id": 4729,
    "state_code": "PH",
    "country_id": 181,
    "country_code": "RO",
    "latitude": "45.31667000",
    "longitude": "25.98333000",
    "wikiDataId": null
  },
  {
    "id": 95258,
    "name": "Măneşti",
    "state_id": 4729,
    "state_code": "PH",
    "country_id": 181,
    "country_code": "RO",
    "latitude": "44.86667000",
    "longitude": "25.85000000",
    "wikiDataId": null
  },
  {
    "id": 95272,
    "name": "Mărginenii de Jos",
    "state_id": 4729,
    "state_code": "PH",
    "country_id": 181,
    "country_code": "RO",
    "latitude": "44.95910000",
    "longitude": "25.75989000",
    "wikiDataId": null
  },
  {
    "id": 94957,
    "name": "Meri",
    "state_id": 4729,
    "state_code": "PH",
    "country_id": 181,
    "country_code": "RO",
    "latitude": "44.83366000",
    "longitude": "26.30863000",
    "wikiDataId": null
  },
  {
    "id": 95008,
    "name": "Minieri",
    "state_id": 4729,
    "state_code": "PH",
    "country_id": 181,
    "country_code": "RO",
    "latitude": "44.98372000",
    "longitude": "25.76083000",
    "wikiDataId": null
  },
  {
    "id": 95017,
    "name": "Mireșu Mare",
    "state_id": 4729,
    "state_code": "PH",
    "country_id": 181,
    "country_code": "RO",
    "latitude": "45.13508000",
    "longitude": "26.37714000",
    "wikiDataId": null
  },
  {
    "id": 95023,
    "name": "Miroslăvești",
    "state_id": 4729,
    "state_code": "PH",
    "country_id": 181,
    "country_code": "RO",
    "latitude": "44.80383000",
    "longitude": "26.08689000",
    "wikiDataId": null
  },
  {
    "id": 95029,
    "name": "Mislea",
    "state_id": 4729,
    "state_code": "PH",
    "country_id": 181,
    "country_code": "RO",
    "latitude": "45.09668000",
    "longitude": "25.82444000",
    "wikiDataId": null
  },
  {
    "id": 95034,
    "name": "Mizil",
    "state_id": 4729,
    "state_code": "PH",
    "country_id": 181,
    "country_code": "RO",
    "latitude": "45.01667000",
    "longitude": "26.45000000",
    "wikiDataId": null
  },
  {
    "id": 95044,
    "name": "Moceşti",
    "state_id": 4729,
    "state_code": "PH",
    "country_id": 181,
    "country_code": "RO",
    "latitude": "45.05000000",
    "longitude": "26.25000000",
    "wikiDataId": null
  },
  {
    "id": 95170,
    "name": "Municipiul Ploieşti",
    "state_id": 4729,
    "state_code": "PH",
    "country_id": 181,
    "country_code": "RO",
    "latitude": "44.94281000",
    "longitude": "26.02116000",
    "wikiDataId": null
  },
  {
    "id": 95306,
    "name": "Nedelea",
    "state_id": 4729,
    "state_code": "PH",
    "country_id": 181,
    "country_code": "RO",
    "latitude": "44.97191000",
    "longitude": "25.81647000",
    "wikiDataId": null
  },
  {
    "id": 95309,
    "name": "Negoiești",
    "state_id": 4729,
    "state_code": "PH",
    "country_id": 181,
    "country_code": "RO",
    "latitude": "44.87393000",
    "longitude": "25.98160000",
    "wikiDataId": null
  },
  {
    "id": 95392,
    "name": "Ocina de Sus",
    "state_id": 4729,
    "state_code": "PH",
    "country_id": 181,
    "country_code": "RO",
    "latitude": "45.20060000",
    "longitude": "25.59882000",
    "wikiDataId": null
  },
  {
    "id": 95415,
    "name": "Ogretin",
    "state_id": 4729,
    "state_code": "PH",
    "country_id": 181,
    "country_code": "RO",
    "latitude": "45.26483000",
    "longitude": "26.09169000",
    "wikiDataId": null
  },
  {
    "id": 95423,
    "name": "Olari",
    "state_id": 4729,
    "state_code": "PH",
    "country_id": 181,
    "country_code": "RO",
    "latitude": "44.78482000",
    "longitude": "26.21728000",
    "wikiDataId": null
  },
  {
    "id": 95428,
    "name": "Ologeni",
    "state_id": 4729,
    "state_code": "PH",
    "country_id": 181,
    "country_code": "RO",
    "latitude": "44.73370000",
    "longitude": "25.95059000",
    "wikiDataId": null
  },
  {
    "id": 95452,
    "name": "Oraş Azuga",
    "state_id": 4729,
    "state_code": "PH",
    "country_id": 181,
    "country_code": "RO",
    "latitude": "45.44512000",
    "longitude": "25.55616000",
    "wikiDataId": null
  },
  {
    "id": 95481,
    "name": "Oraş Bãicoi",
    "state_id": 4729,
    "state_code": "PH",
    "country_id": 181,
    "country_code": "RO",
    "latitude": "45.04160000",
    "longitude": "25.86964000",
    "wikiDataId": null
  },
  {
    "id": 95465,
    "name": "Oraş Boldeşti-Scãeni",
    "state_id": 4729,
    "state_code": "PH",
    "country_id": 181,
    "country_code": "RO",
    "latitude": "45.02458000",
    "longitude": "26.04574000",
    "wikiDataId": null
  },
  {
    "id": 95470,
    "name": "Oraş Breaza",
    "state_id": 4729,
    "state_code": "PH",
    "country_id": 181,
    "country_code": "RO",
    "latitude": "45.18710000",
    "longitude": "25.65851000",
    "wikiDataId": null
  },
  {
    "id": 95479,
    "name": "Oraş Buşteni",
    "state_id": 4729,
    "state_code": "PH",
    "country_id": 181,
    "country_code": "RO",
    "latitude": "45.40570000",
    "longitude": "25.53969000",
    "wikiDataId": null
  },
  {
    "id": 95495,
    "name": "Oraş Comarnic",
    "state_id": 4729,
    "state_code": "PH",
    "country_id": 181,
    "country_code": "RO",
    "latitude": "45.24962000",
    "longitude": "25.63859000",
    "wikiDataId": null
  },
  {
    "id": 95543,
    "name": "Oraş Mizil",
    "state_id": 4729,
    "state_code": "PH",
    "country_id": 181,
    "country_code": "RO",
    "latitude": "45.00844000",
    "longitude": "26.44410000",
    "wikiDataId": null
  },
  {
    "id": 95568,
    "name": "Oraş Plopeni",
    "state_id": 4729,
    "state_code": "PH",
    "country_id": 181,
    "country_code": "RO",
    "latitude": "45.04406000",
    "longitude": "25.95304000",
    "wikiDataId": null
  },
  {
    "id": 95588,
    "name": "Oraş Sinaia",
    "state_id": 4729,
    "state_code": "PH",
    "country_id": 181,
    "country_code": "RO",
    "latitude": "45.34842000",
    "longitude": "25.54937000",
    "wikiDataId": null
  },
  {
    "id": 95590,
    "name": "Oraş Slãnic",
    "state_id": 4729,
    "state_code": "PH",
    "country_id": 181,
    "country_code": "RO",
    "latitude": "45.23029000",
    "longitude": "25.94753000",
    "wikiDataId": null
  },
  {
    "id": 95613,
    "name": "Oraş Urlaţi",
    "state_id": 4729,
    "state_code": "PH",
    "country_id": 181,
    "country_code": "RO",
    "latitude": "44.99692000",
    "longitude": "26.24377000",
    "wikiDataId": null
  },
  {
    "id": 95622,
    "name": "Oraş Vãlenii De Munte",
    "state_id": 4729,
    "state_code": "PH",
    "country_id": 181,
    "country_code": "RO",
    "latitude": "45.18771000",
    "longitude": "26.03885000",
    "wikiDataId": null
  },
  {
    "id": 95679,
    "name": "Ostrovu",
    "state_id": 4729,
    "state_code": "PH",
    "country_id": 181,
    "country_code": "RO",
    "latitude": "45.20351000",
    "longitude": "25.90345000",
    "wikiDataId": null
  },
  {
    "id": 96004,
    "name": "Păcureţi",
    "state_id": 4729,
    "state_code": "PH",
    "country_id": 181,
    "country_code": "RO",
    "latitude": "45.15000000",
    "longitude": "26.13333000",
    "wikiDataId": null
  },
  {
    "id": 95698,
    "name": "Palanca",
    "state_id": 4729,
    "state_code": "PH",
    "country_id": 181,
    "country_code": "RO",
    "latitude": "44.81562000",
    "longitude": "26.19995000",
    "wikiDataId": null
  },
  {
    "id": 95705,
    "name": "Pantazi",
    "state_id": 4729,
    "state_code": "PH",
    "country_id": 181,
    "country_code": "RO",
    "latitude": "44.93492000",
    "longitude": "26.14020000",
    "wikiDataId": null
  },
  {
    "id": 95713,
    "name": "Parepa-Rușani",
    "state_id": 4729,
    "state_code": "PH",
    "country_id": 181,
    "country_code": "RO",
    "latitude": "44.90577000",
    "longitude": "26.35478000",
    "wikiDataId": null
  },
  {
    "id": 96029,
    "name": "Păuleşti",
    "state_id": 4729,
    "state_code": "PH",
    "country_id": 181,
    "country_code": "RO",
    "latitude": "45.00000000",
    "longitude": "25.98333000",
    "wikiDataId": null
  },
  {
    "id": 95742,
    "name": "Perșunari",
    "state_id": 4729,
    "state_code": "PH",
    "country_id": 181,
    "country_code": "RO",
    "latitude": "45.05682000",
    "longitude": "26.44784000",
    "wikiDataId": null
  },
  {
    "id": 95781,
    "name": "Pietriceaua",
    "state_id": 4729,
    "state_code": "PH",
    "country_id": 181,
    "country_code": "RO",
    "latitude": "45.21910000",
    "longitude": "25.80859000",
    "wikiDataId": null
  },
  {
    "id": 95791,
    "name": "Pietroșani",
    "state_id": 4729,
    "state_code": "PH",
    "country_id": 181,
    "country_code": "RO",
    "latitude": "44.83963000",
    "longitude": "26.10382000",
    "wikiDataId": null
  },
  {
    "id": 95807,
    "name": "Pleașa",
    "state_id": 4729,
    "state_code": "PH",
    "country_id": 181,
    "country_code": "RO",
    "latitude": "45.00583000",
    "longitude": "26.07211000",
    "wikiDataId": null
  },
  {
    "id": 95814,
    "name": "Ploieşti",
    "state_id": 4729,
    "state_code": "PH",
    "country_id": 181,
    "country_code": "RO",
    "latitude": "44.95000000",
    "longitude": "26.01667000",
    "wikiDataId": null
  },
  {
    "id": 95815,
    "name": "Ploieștiori",
    "state_id": 4729,
    "state_code": "PH",
    "country_id": 181,
    "country_code": "RO",
    "latitude": "44.98157000",
    "longitude": "26.01795000",
    "wikiDataId": null
  },
  {
    "id": 95819,
    "name": "Plopeni",
    "state_id": 4729,
    "state_code": "PH",
    "country_id": 181,
    "country_code": "RO",
    "latitude": "45.06552000",
    "longitude": "25.98114000",
    "wikiDataId": null
  },
  {
    "id": 95823,
    "name": "Plopu",
    "state_id": 4729,
    "state_code": "PH",
    "country_id": 181,
    "country_code": "RO",
    "latitude": "45.01667000",
    "longitude": "26.15000000",
    "wikiDataId": null
  },
  {
    "id": 95844,
    "name": "Podenii Noi",
    "state_id": 4729,
    "state_code": "PH",
    "country_id": 181,
    "country_code": "RO",
    "latitude": "45.11667000",
    "longitude": "26.16667000",
    "wikiDataId": null
  },
  {
    "id": 95845,
    "name": "Podenii Vechi",
    "state_id": 4729,
    "state_code": "PH",
    "country_id": 181,
    "country_code": "RO",
    "latitude": "45.08939000",
    "longitude": "26.11584000",
    "wikiDataId": null
  },
  {
    "id": 95864,
    "name": "Poiana",
    "state_id": 4729,
    "state_code": "PH",
    "country_id": 181,
    "country_code": "RO",
    "latitude": "45.24536000",
    "longitude": "25.66302000",
    "wikiDataId": null
  },
  {
    "id": 95873,
    "name": "Poiana Câmpina",
    "state_id": 4729,
    "state_code": "PH",
    "country_id": 181,
    "country_code": "RO",
    "latitude": "45.13333000",
    "longitude": "25.68333000",
    "wikiDataId": null
  },
  {
    "id": 95870,
    "name": "Poiana Copăceni",
    "state_id": 4729,
    "state_code": "PH",
    "country_id": 181,
    "country_code": "RO",
    "latitude": "45.16392000",
    "longitude": "26.06918000",
    "wikiDataId": null
  },
  {
    "id": 95884,
    "name": "Poiana Țapului",
    "state_id": 4729,
    "state_code": "PH",
    "country_id": 181,
    "country_code": "RO",
    "latitude": "45.39344000",
    "longitude": "25.54066000",
    "wikiDataId": null
  },
  {
    "id": 95887,
    "name": "Poienarii Apostoli",
    "state_id": 4729,
    "state_code": "PH",
    "country_id": 181,
    "country_code": "RO",
    "latitude": "44.77204000",
    "longitude": "26.05388000",
    "wikiDataId": null
  },
  {
    "id": 95888,
    "name": "Poienarii Burchii",
    "state_id": 4729,
    "state_code": "PH",
    "country_id": 181,
    "country_code": "RO",
    "latitude": "44.75000000",
    "longitude": "26.01667000",
    "wikiDataId": null
  },
  {
    "id": 95915,
    "name": "Popești",
    "state_id": 4729,
    "state_code": "PH",
    "country_id": 181,
    "country_code": "RO",
    "latitude": "44.86076000",
    "longitude": "25.99557000",
    "wikiDataId": null
  },
  {
    "id": 95925,
    "name": "Posada",
    "state_id": 4729,
    "state_code": "PH",
    "country_id": 181,
    "country_code": "RO",
    "latitude": "45.28714000",
    "longitude": "25.61882000",
    "wikiDataId": null
  },
  {
    "id": 95926,
    "name": "Poseștii-Pământeni",
    "state_id": 4729,
    "state_code": "PH",
    "country_id": 181,
    "country_code": "RO",
    "latitude": "45.26667000",
    "longitude": "26.15000000",
    "wikiDataId": null
  },
  {
    "id": 95931,
    "name": "Potigrafu",
    "state_id": 4729,
    "state_code": "PH",
    "country_id": 181,
    "country_code": "RO",
    "latitude": "44.78504000",
    "longitude": "26.10014000",
    "wikiDataId": null
  },
  {
    "id": 95969,
    "name": "Prăjani",
    "state_id": 4729,
    "state_code": "PH",
    "country_id": 181,
    "country_code": "RO",
    "latitude": "45.20422000",
    "longitude": "25.95151000",
    "wikiDataId": null
  },
  {
    "id": 95962,
    "name": "Proviţa de Jos",
    "state_id": 4729,
    "state_code": "PH",
    "country_id": 181,
    "country_code": "RO",
    "latitude": "45.11667000",
    "longitude": "25.65000000",
    "wikiDataId": null
  },
  {
    "id": 95963,
    "name": "Proviţa de Sus",
    "state_id": 4729,
    "state_code": "PH",
    "country_id": 181,
    "country_code": "RO",
    "latitude": "45.13333000",
    "longitude": "25.63333000",
    "wikiDataId": null
  },
  {
    "id": 95973,
    "name": "Puchenii Mari",
    "state_id": 4729,
    "state_code": "PH",
    "country_id": 181,
    "country_code": "RO",
    "latitude": "44.81667000",
    "longitude": "26.08333000",
    "wikiDataId": null
  },
  {
    "id": 95974,
    "name": "Puchenii Moșneni",
    "state_id": 4729,
    "state_code": "PH",
    "country_id": 181,
    "country_code": "RO",
    "latitude": "44.81213000",
    "longitude": "26.08701000",
    "wikiDataId": null
  },
  {
    "id": 96038,
    "name": "Rachieri",
    "state_id": 4729,
    "state_code": "PH",
    "country_id": 181,
    "country_code": "RO",
    "latitude": "44.95438000",
    "longitude": "26.12841000",
    "wikiDataId": null
  },
  {
    "id": 96165,
    "name": "Râfov",
    "state_id": 4729,
    "state_code": "PH",
    "country_id": 181,
    "country_code": "RO",
    "latitude": "44.86667000",
    "longitude": "26.13333000",
    "wikiDataId": null
  },
  {
    "id": 96112,
    "name": "Românești",
    "state_id": 4729,
    "state_code": "PH",
    "country_id": 181,
    "country_code": "RO",
    "latitude": "44.86667000",
    "longitude": "26.06667000",
    "wikiDataId": null
  },
  {
    "id": 96231,
    "name": "Salcia",
    "state_id": 4729,
    "state_code": "PH",
    "country_id": 181,
    "country_code": "RO",
    "latitude": "45.18333000",
    "longitude": "26.33333000",
    "wikiDataId": null
  },
  {
    "id": 106008,
    "name": "Sălciile",
    "state_id": 4729,
    "state_code": "PH",
    "country_id": 181,
    "country_code": "RO",
    "latitude": "44.81667000",
    "longitude": "26.48333000",
    "wikiDataId": null
  },
  {
    "id": 96530,
    "name": "Sângeru",
    "state_id": 4729,
    "state_code": "PH",
    "country_id": 181,
    "country_code": "RO",
    "latitude": "45.13333000",
    "longitude": "26.35000000",
    "wikiDataId": null
  },
  {
    "id": 96275,
    "name": "Schiulești",
    "state_id": 4729,
    "state_code": "PH",
    "country_id": 181,
    "country_code": "RO",
    "latitude": "45.28471000",
    "longitude": "25.95403000",
    "wikiDataId": null
  },
  {
    "id": 96280,
    "name": "Scorţeni",
    "state_id": 4729,
    "state_code": "PH",
    "country_id": 181,
    "country_code": "RO",
    "latitude": "45.10000000",
    "longitude": "25.85000000",
    "wikiDataId": null
  },
  {
    "id": 96288,
    "name": "Scurtești",
    "state_id": 4729,
    "state_code": "PH",
    "country_id": 181,
    "country_code": "RO",
    "latitude": "45.23759000",
    "longitude": "25.90264000",
    "wikiDataId": null
  },
  {
    "id": 96318,
    "name": "Secăria",
    "state_id": 4729,
    "state_code": "PH",
    "country_id": 181,
    "country_code": "RO",
    "latitude": "45.28333000",
    "longitude": "25.68333000",
    "wikiDataId": null
  },
  {
    "id": 96306,
    "name": "Seciu",
    "state_id": 4729,
    "state_code": "PH",
    "country_id": 181,
    "country_code": "RO",
    "latitude": "45.03275000",
    "longitude": "26.06474000",
    "wikiDataId": null
  },
  {
    "id": 96350,
    "name": "Sinaia",
    "state_id": 4729,
    "state_code": "PH",
    "country_id": 181,
    "country_code": "RO",
    "latitude": "45.35000000",
    "longitude": "25.55000000",
    "wikiDataId": null
  },
  {
    "id": 97128,
    "name": "Șipotu",
    "state_id": 4729,
    "state_code": "PH",
    "country_id": 181,
    "country_code": "RO",
    "latitude": "45.04076000",
    "longitude": "26.01714000",
    "wikiDataId": null
  },
  {
    "id": 97060,
    "name": "Şirna",
    "state_id": 4729,
    "state_code": "PH",
    "country_id": 181,
    "country_code": "RO",
    "latitude": "44.80000000",
    "longitude": "25.95000000",
    "wikiDataId": null
  },
  {
    "id": 96381,
    "name": "Slănic",
    "state_id": 4729,
    "state_code": "PH",
    "country_id": 181,
    "country_code": "RO",
    "latitude": "45.25000000",
    "longitude": "25.93333000",
    "wikiDataId": null
  },
  {
    "id": 96380,
    "name": "Slon",
    "state_id": 4729,
    "state_code": "PH",
    "country_id": 181,
    "country_code": "RO",
    "latitude": "45.35521000",
    "longitude": "26.04189000",
    "wikiDataId": null
  },
  {
    "id": 97065,
    "name": "Şoimari",
    "state_id": 4729,
    "state_code": "PH",
    "country_id": 181,
    "country_code": "RO",
    "latitude": "45.18333000",
    "longitude": "26.20000000",
    "wikiDataId": null
  },
  {
    "id": 97073,
    "name": "Şotrile",
    "state_id": 4729,
    "state_code": "PH",
    "country_id": 181,
    "country_code": "RO",
    "latitude": "45.21667000",
    "longitude": "25.71667000",
    "wikiDataId": null
  },
  {
    "id": 96423,
    "name": "Starchiojd",
    "state_id": 4729,
    "state_code": "PH",
    "country_id": 181,
    "country_code": "RO",
    "latitude": "45.31667000",
    "longitude": "26.18333000",
    "wikiDataId": null
  },
  {
    "id": 97083,
    "name": "Ştefeşti",
    "state_id": 4729,
    "state_code": "PH",
    "country_id": 181,
    "country_code": "RO",
    "latitude": "45.21667000",
    "longitude": "25.90000000",
    "wikiDataId": null
  },
  {
    "id": 96436,
    "name": "Stoenești",
    "state_id": 4729,
    "state_code": "PH",
    "country_id": 181,
    "country_code": "RO",
    "latitude": "44.92422000",
    "longitude": "25.85881000",
    "wikiDataId": null
  },
  {
    "id": 96452,
    "name": "Strejnicu",
    "state_id": 4729,
    "state_code": "PH",
    "country_id": 181,
    "country_code": "RO",
    "latitude": "44.91676000",
    "longitude": "25.95109000",
    "wikiDataId": null
  },
  {
    "id": 96505,
    "name": "Surani",
    "state_id": 4729,
    "state_code": "PH",
    "country_id": 181,
    "country_code": "RO",
    "latitude": "45.20000000",
    "longitude": "26.16667000",
    "wikiDataId": null
  },
  {
    "id": 106051,
    "name": "Talea",
    "state_id": 4729,
    "state_code": "PH",
    "country_id": 181,
    "country_code": "RO",
    "latitude": "45.22564000",
    "longitude": "25.56433000",
    "wikiDataId": null
  },
  {
    "id": 96591,
    "name": "Târgşoru Vechi",
    "state_id": 4729,
    "state_code": "PH",
    "country_id": 181,
    "country_code": "RO",
    "latitude": "44.86667000",
    "longitude": "25.91667000",
    "wikiDataId": null
  },
  {
    "id": 96611,
    "name": "Tăriceni",
    "state_id": 4729,
    "state_code": "PH",
    "country_id": 181,
    "country_code": "RO",
    "latitude": "44.79624000",
    "longitude": "25.96958000",
    "wikiDataId": null
  },
  {
    "id": 96618,
    "name": "Tătărani",
    "state_id": 4729,
    "state_code": "PH",
    "country_id": 181,
    "country_code": "RO",
    "latitude": "44.89763000",
    "longitude": "26.03509000",
    "wikiDataId": null
  },
  {
    "id": 96614,
    "name": "Tătaru",
    "state_id": 4729,
    "state_code": "PH",
    "country_id": 181,
    "country_code": "RO",
    "latitude": "45.10000000",
    "longitude": "26.33333000",
    "wikiDataId": null
  },
  {
    "id": 106073,
    "name": "Teişani",
    "state_id": 4729,
    "state_code": "PH",
    "country_id": 181,
    "country_code": "RO",
    "latitude": "45.23333000",
    "longitude": "25.98333000",
    "wikiDataId": null
  },
  {
    "id": 106078,
    "name": "Telega",
    "state_id": 4729,
    "state_code": "PH",
    "country_id": 181,
    "country_code": "RO",
    "latitude": "45.13333000",
    "longitude": "25.78333000",
    "wikiDataId": null
  },
  {
    "id": 106090,
    "name": "Teșila",
    "state_id": 4729,
    "state_code": "PH",
    "country_id": 181,
    "country_code": "RO",
    "latitude": "45.30352000",
    "longitude": "25.72324000",
    "wikiDataId": null
  },
  {
    "id": 106104,
    "name": "Tinosu",
    "state_id": 4729,
    "state_code": "PH",
    "country_id": 181,
    "country_code": "RO",
    "latitude": "44.81667000",
    "longitude": "26.01667000",
    "wikiDataId": null
  },
  {
    "id": 97139,
    "name": "Țintea",
    "state_id": 4729,
    "state_code": "PH",
    "country_id": 181,
    "country_code": "RO",
    "latitude": "45.03403000",
    "longitude": "25.90460000",
    "wikiDataId": null
  },
  {
    "id": 106126,
    "name": "Tomşani",
    "state_id": 4729,
    "state_code": "PH",
    "country_id": 181,
    "country_code": "RO",
    "latitude": "44.95000000",
    "longitude": "26.28333000",
    "wikiDataId": null
  },
  {
    "id": 106163,
    "name": "Trăisteni",
    "state_id": 4729,
    "state_code": "PH",
    "country_id": 181,
    "country_code": "RO",
    "latitude": "45.33857000",
    "longitude": "25.72767000",
    "wikiDataId": null
  },
  {
    "id": 106169,
    "name": "Tufeni",
    "state_id": 4729,
    "state_code": "PH",
    "country_id": 181,
    "country_code": "RO",
    "latitude": "45.05790000",
    "longitude": "25.83976000",
    "wikiDataId": null
  },
  {
    "id": 96679,
    "name": "Urlaţi",
    "state_id": 4729,
    "state_code": "PH",
    "country_id": 181,
    "country_code": "RO",
    "latitude": "44.98333000",
    "longitude": "26.23333000",
    "wikiDataId": null
  },
  {
    "id": 96681,
    "name": "Urleta",
    "state_id": 4729,
    "state_code": "PH",
    "country_id": 181,
    "country_code": "RO",
    "latitude": "45.08732000",
    "longitude": "25.79354000",
    "wikiDataId": null
  },
  {
    "id": 96700,
    "name": "Vadu Părului",
    "state_id": 4729,
    "state_code": "PH",
    "country_id": 181,
    "country_code": "RO",
    "latitude": "44.93132000",
    "longitude": "26.20940000",
    "wikiDataId": null
  },
  {
    "id": 96703,
    "name": "Vadu Săpat",
    "state_id": 4729,
    "state_code": "PH",
    "country_id": 181,
    "country_code": "RO",
    "latitude": "45.03973000",
    "longitude": "26.38700000",
    "wikiDataId": null
  },
  {
    "id": 96925,
    "name": "Vâlcăneşti",
    "state_id": 4729,
    "state_code": "PH",
    "country_id": 181,
    "country_code": "RO",
    "latitude": "45.11667000",
    "longitude": "25.93333000",
    "wikiDataId": null
  },
  {
    "id": 96720,
    "name": "Valea Călugărească",
    "state_id": 4729,
    "state_code": "PH",
    "country_id": 181,
    "country_code": "RO",
    "latitude": "44.96667000",
    "longitude": "26.15000000",
    "wikiDataId": null
  },
  {
    "id": 96718,
    "name": "Valea Cucului",
    "state_id": 4729,
    "state_code": "PH",
    "country_id": 181,
    "country_code": "RO",
    "latitude": "45.06525000",
    "longitude": "26.22793000",
    "wikiDataId": null
  },
  {
    "id": 96724,
    "name": "Valea Dulce",
    "state_id": 4729,
    "state_code": "PH",
    "country_id": 181,
    "country_code": "RO",
    "latitude": "45.11428000",
    "longitude": "26.20787000",
    "wikiDataId": null
  },
  {
    "id": 96760,
    "name": "Valea Târsei",
    "state_id": 4729,
    "state_code": "PH",
    "country_id": 181,
    "country_code": "RO",
    "latitude": "45.17711000",
    "longitude": "25.63323000",
    "wikiDataId": null
  },
  {
    "id": 96965,
    "name": "Vălenii de Munte",
    "state_id": 4729,
    "state_code": "PH",
    "country_id": 181,
    "country_code": "RO",
    "latitude": "45.18333000",
    "longitude": "26.03333000",
    "wikiDataId": null
  },
  {
    "id": 96970,
    "name": "Vărbila",
    "state_id": 4729,
    "state_code": "PH",
    "country_id": 181,
    "country_code": "RO",
    "latitude": "45.04654000",
    "longitude": "26.19691000",
    "wikiDataId": null
  },
  {
    "id": 96971,
    "name": "Vărbilău",
    "state_id": 4729,
    "state_code": "PH",
    "country_id": 181,
    "country_code": "RO",
    "latitude": "45.18333000",
    "longitude": "25.95000000",
    "wikiDataId": null
  },
  {
    "id": 96774,
    "name": "Varnița",
    "state_id": 4729,
    "state_code": "PH",
    "country_id": 181,
    "country_code": "RO",
    "latitude": "44.80679000",
    "longitude": "25.94530000",
    "wikiDataId": null
  }
]