[
  {
    "id": 3425,
    "name": "Anseba",
    "country_id": 68,
    "country_code": "ER",
    "state_code": "AN",
    "type": "region",
    "latitude": "16.50001010",
    "longitude": "37.50000480",
    "iso3166_2": "ER-AN",
    "native": "ኣንሰባ",
    "timezone": "Africa/Asmara"
  },
  {
    "id": 3427,
    "name": "Debub",
    "country_id": 68,
    "country_code": "ER",
    "state_code": "DU",
    "type": "region",
    "latitude": "14.90996670",
    "longitude": "38.81506920",
    "iso3166_2": "ER-DU",
    "native": "ዲቡብ .",
    "timezone": "Africa/Asmara"
  },
  {
    "id": 3428,
    "name": "Gash-Barka",
    "country_id": 68,
    "country_code": "ER",
    "state_code": "GB",
    "type": "region",
    "latitude": "15.25000000",
    "longitude": "37.50000000",
    "iso3166_2": "ER-GB",
    "native": "ጋሽ-እንቋዕ ደሓን መጻእኩም",
    "timezone": "Africa/Asmara"
  },
  {
    "id": 3426,
    "name": "Maekel",
    "country_id": 68,
    "country_code": "ER",
    "state_code": "MA",
    "type": "region",
    "latitude": "15.33333300",
    "longitude": "38.91666700",
    "iso3166_2": "ER-MA",
    "native": "ጉሓት",
    "timezone": "Africa/Asmara"
  },
  {
    "id": 3424,
    "name": "Northern Red Sea",
    "country_id": 68,
    "country_code": "ER",
    "state_code": "SK",
    "type": "region",
    "latitude": "16.00000000",
    "longitude": "39.00000000",
    "iso3166_2": "ER-SK",
    "native": "ሰሜናዊ ቀይሕ ባሕሪ",
    "timezone": "Africa/Asmara"
  },
  {
    "id": 3429,
    "name": "Southern Red Sea",
    "country_id": 68,
    "country_code": "ER",
    "state_code": "DK",
    "type": "region",
    "latitude": "13.75000000",
    "longitude": "41.50000000",
    "iso3166_2": "ER-DK",
    "native": "ደቡባዊ ቀይሕ ባሕሪ",
    "timezone": "Africa/Asmara"
  }
]