[
  {
    "id": 107098,
    "name": "Akyaka",
    "state_id": 2208,
    "state_code": "36",
    "country_id": 225,
    "country_code": "TR",
    "latitude": "40.74093000",
    "longitude": "43.61432000",
    "wikiDataId": null
  },
  {
    "id": 107189,
    "name": "Arpaçay",
    "state_id": 2208,
    "state_code": "36",
    "country_id": 225,
    "country_code": "TR",
    "latitude": "40.84522000",
    "longitude": "43.32747000",
    "wikiDataId": null
  },
  {
    "id": 107494,
    "name": "Digor",
    "state_id": 2208,
    "state_code": "36",
    "country_id": 225,
    "country_code": "TR",
    "latitude": "40.37515000",
    "longitude": "43.41361000",
    "wikiDataId": null
  },
  {
    "id": 107960,
    "name": "Kağızman",
    "state_id": 2208,
    "state_code": "36",
    "country_id": 225,
    "country_code": "TR",
    "latitude": "40.15669000",
    "longitude": "43.13424000",
    "wikiDataId": null
  },
  {
    "id": 107931,
    "name": "Merkez",
    "state_id": 2208,
    "state_code": "36",
    "country_id": 225,
    "country_code": "TR",
    "latitude": "40.59825000",
    "longitude": "43.08548000",
    "wikiDataId": null
  },
  {
    "id": 108401,
    "name": "Sarıkamış",
    "state_id": 2208,
    "state_code": "36",
    "country_id": 225,
    "country_code": "TR",
    "latitude": "40.32769000",
    "longitude": "42.58705000",
    "wikiDataId": null
  },
  {
    "id": 108430,
    "name": "Selim",
    "state_id": 2208,
    "state_code": "36",
    "country_id": 225,
    "country_code": "TR",
    "latitude": "40.45772000",
    "longitude": "42.78287000",
    "wikiDataId": null
  },
  {
    "id": 108511,
    "name": "Susuz",
    "state_id": 2208,
    "state_code": "36",
    "country_id": 225,
    "country_code": "TR",
    "latitude": "40.77910000",
    "longitude": "43.12769000",
    "wikiDataId": null
  }
]