[
  {
    "id": 55172,
    "name": "Abony",
    "state_id": 1059,
    "state_code": "PE",
    "country_id": 99,
    "country_code": "HU",
    "latitude": "47.18990000",
    "longitude": "20.00476000",
    "wikiDataId": null
  },
  {
    "id": 55174,
    "name": "Acsa",
    "state_id": 1059,
    "state_code": "PE",
    "country_id": 99,
    "country_code": "HU",
    "latitude": "47.79425000",
    "longitude": "19.38795000",
    "wikiDataId": null
  },
  {
    "id": 55183,
    "name": "Albertirsa",
    "state_id": 1059,
    "state_code": "PE",
    "country_id": 99,
    "country_code": "HU",
    "latitude": "47.24315000",
    "longitude": "19.61686000",
    "wikiDataId": null
  },
  {
    "id": 55185,
    "name": "Alsónémedi",
    "state_id": 1059,
    "state_code": "PE",
    "country_id": 99,
    "country_code": "HU",
    "latitude": "47.31524000",
    "longitude": "19.15843000",
    "wikiDataId": null
  },
  {
    "id": 55197,
    "name": "Aszód",
    "state_id": 1059,
    "state_code": "PE",
    "country_id": 99,
    "country_code": "HU",
    "latitude": "47.65174000",
    "longitude": "19.47850000",
    "wikiDataId": null
  },
  {
    "id": 55198,
    "name": "Aszódi Járás",
    "state_id": 1059,
    "state_code": "PE",
    "country_id": 99,
    "country_code": "HU",
    "latitude": "47.64738000",
    "longitude": "19.54240000",
    "wikiDataId": null
  },
  {
    "id": 55201,
    "name": "Bag",
    "state_id": 1059,
    "state_code": "PE",
    "country_id": 99,
    "country_code": "HU",
    "latitude": "47.63333000",
    "longitude": "19.48333000",
    "wikiDataId": null
  },
  {
    "id": 55245,
    "name": "Biatorbágy",
    "state_id": 1059,
    "state_code": "PE",
    "country_id": 99,
    "country_code": "HU",
    "latitude": "47.47060000",
    "longitude": "18.81892000",
    "wikiDataId": null
  },
  {
    "id": 55260,
    "name": "Budakalász",
    "state_id": 1059,
    "state_code": "PE",
    "country_id": 99,
    "country_code": "HU",
    "latitude": "47.61667000",
    "longitude": "19.05000000",
    "wikiDataId": null
  },
  {
    "id": 55261,
    "name": "Budakeszi",
    "state_id": 1059,
    "state_code": "PE",
    "country_id": 99,
    "country_code": "HU",
    "latitude": "47.51083000",
    "longitude": "18.92717000",
    "wikiDataId": null
  },
  {
    "id": 55262,
    "name": "Budakeszi Járás",
    "state_id": 1059,
    "state_code": "PE",
    "country_id": 99,
    "country_code": "HU",
    "latitude": "47.49788000",
    "longitude": "18.84980000",
    "wikiDataId": null
  },
  {
    "id": 55282,
    "name": "Budaörs",
    "state_id": 1059,
    "state_code": "PE",
    "country_id": 99,
    "country_code": "HU",
    "latitude": "47.46181000",
    "longitude": "18.95845000",
    "wikiDataId": null
  },
  {
    "id": 55284,
    "name": "Bugyi",
    "state_id": 1059,
    "state_code": "PE",
    "country_id": 99,
    "country_code": "HU",
    "latitude": "47.22748000",
    "longitude": "19.14664000",
    "wikiDataId": null
  },
  {
    "id": 55315,
    "name": "Cegléd",
    "state_id": 1059,
    "state_code": "PE",
    "country_id": 99,
    "country_code": "HU",
    "latitude": "47.17266000",
    "longitude": "19.79952000",
    "wikiDataId": null
  },
  {
    "id": 55316,
    "name": "Ceglédbercel",
    "state_id": 1059,
    "state_code": "PE",
    "country_id": 99,
    "country_code": "HU",
    "latitude": "47.22370000",
    "longitude": "19.66828000",
    "wikiDataId": null
  },
  {
    "id": 55317,
    "name": "Ceglédi Járás",
    "state_id": 1059,
    "state_code": "PE",
    "country_id": 99,
    "country_code": "HU",
    "latitude": "47.20000000",
    "longitude": "19.82463000",
    "wikiDataId": null
  },
  {
    "id": 55327,
    "name": "Csemő",
    "state_id": 1059,
    "state_code": "PE",
    "country_id": 99,
    "country_code": "HU",
    "latitude": "47.11799000",
    "longitude": "19.69092000",
    "wikiDataId": null
  },
  {
    "id": 55336,
    "name": "Csobánka",
    "state_id": 1059,
    "state_code": "PE",
    "country_id": 99,
    "country_code": "HU",
    "latitude": "47.64637000",
    "longitude": "18.96189000",
    "wikiDataId": null
  },
  {
    "id": 55350,
    "name": "Csömör",
    "state_id": 1059,
    "state_code": "PE",
    "country_id": 99,
    "country_code": "HU",
    "latitude": "47.55000000",
    "longitude": "19.23333000",
    "wikiDataId": null
  },
  {
    "id": 55351,
    "name": "Dabas",
    "state_id": 1059,
    "state_code": "PE",
    "country_id": 99,
    "country_code": "HU",
    "latitude": "47.18594000",
    "longitude": "19.31091000",
    "wikiDataId": null
  },
  {
    "id": 55352,
    "name": "Dabasi Járás",
    "state_id": 1059,
    "state_code": "PE",
    "country_id": 99,
    "country_code": "HU",
    "latitude": "47.19000000",
    "longitude": "19.33000000",
    "wikiDataId": null
  },
  {
    "id": 55384,
    "name": "Dánszentmiklós",
    "state_id": 1059,
    "state_code": "PE",
    "country_id": 99,
    "country_code": "HU",
    "latitude": "47.21486000",
    "longitude": "19.54695000",
    "wikiDataId": null
  },
  {
    "id": 55385,
    "name": "Dány",
    "state_id": 1059,
    "state_code": "PE",
    "country_id": 99,
    "country_code": "HU",
    "latitude": "47.52000000",
    "longitude": "19.54400000",
    "wikiDataId": null
  },
  {
    "id": 55388,
    "name": "Délegyháza",
    "state_id": 1059,
    "state_code": "PE",
    "country_id": 99,
    "country_code": "HU",
    "latitude": "47.24135000",
    "longitude": "19.09019000",
    "wikiDataId": null
  },
  {
    "id": 55362,
    "name": "Diósd",
    "state_id": 1059,
    "state_code": "PE",
    "country_id": 99,
    "country_code": "HU",
    "latitude": "47.40950000",
    "longitude": "18.94898000",
    "wikiDataId": null
  },
  {
    "id": 55370,
    "name": "Domony",
    "state_id": 1059,
    "state_code": "PE",
    "country_id": 99,
    "country_code": "HU",
    "latitude": "47.65552000",
    "longitude": "19.43229000",
    "wikiDataId": null
  },
  {
    "id": 55392,
    "name": "Dömsöd",
    "state_id": 1059,
    "state_code": "PE",
    "country_id": 99,
    "country_code": "HU",
    "latitude": "47.09005000",
    "longitude": "19.01106000",
    "wikiDataId": null
  },
  {
    "id": 55372,
    "name": "Dunabogdány",
    "state_id": 1059,
    "state_code": "PE",
    "country_id": 99,
    "country_code": "HU",
    "latitude": "47.79052000",
    "longitude": "19.04125000",
    "wikiDataId": null
  },
  {
    "id": 55374,
    "name": "Dunaharaszti",
    "state_id": 1059,
    "state_code": "PE",
    "country_id": 99,
    "country_code": "HU",
    "latitude": "47.35450000",
    "longitude": "19.09822000",
    "wikiDataId": null
  },
  {
    "id": 55375,
    "name": "Dunakeszi",
    "state_id": 1059,
    "state_code": "PE",
    "country_id": 99,
    "country_code": "HU",
    "latitude": "47.63641000",
    "longitude": "19.13864000",
    "wikiDataId": null
  },
  {
    "id": 55376,
    "name": "Dunakeszi Járás",
    "state_id": 1059,
    "state_code": "PE",
    "country_id": 99,
    "country_code": "HU",
    "latitude": "47.63365000",
    "longitude": "19.16254000",
    "wikiDataId": null
  },
  {
    "id": 55380,
    "name": "Dunavarsány",
    "state_id": 1059,
    "state_code": "PE",
    "country_id": 99,
    "country_code": "HU",
    "latitude": "47.27859000",
    "longitude": "19.06617000",
    "wikiDataId": null
  },
  {
    "id": 55394,
    "name": "Ecser",
    "state_id": 1059,
    "state_code": "PE",
    "country_id": 99,
    "country_code": "HU",
    "latitude": "47.44389000",
    "longitude": "19.32450000",
    "wikiDataId": null
  },
  {
    "id": 56145,
    "name": "Érd",
    "state_id": 1059,
    "state_code": "PE",
    "country_id": 99,
    "country_code": "HU",
    "latitude": "47.39489000",
    "longitude": "18.91361000",
    "wikiDataId": null
  },
  {
    "id": 56146,
    "name": "Érdi Járás",
    "state_id": 1059,
    "state_code": "PE",
    "country_id": 99,
    "country_code": "HU",
    "latitude": "47.35600000",
    "longitude": "18.90167000",
    "wikiDataId": null
  },
  {
    "id": 55411,
    "name": "Erdőkertes",
    "state_id": 1059,
    "state_code": "PE",
    "country_id": 99,
    "country_code": "HU",
    "latitude": "47.67261000",
    "longitude": "19.30786000",
    "wikiDataId": null
  },
  {
    "id": 55417,
    "name": "Farmos",
    "state_id": 1059,
    "state_code": "PE",
    "country_id": 99,
    "country_code": "HU",
    "latitude": "47.36067000",
    "longitude": "19.84619000",
    "wikiDataId": null
  },
  {
    "id": 55423,
    "name": "Felsőpakony",
    "state_id": 1059,
    "state_code": "PE",
    "country_id": 99,
    "country_code": "HU",
    "latitude": "47.34329000",
    "longitude": "19.23698000",
    "wikiDataId": null
  },
  {
    "id": 55433,
    "name": "Forrópuszta",
    "state_id": 1059,
    "state_code": "PE",
    "country_id": 99,
    "country_code": "HU",
    "latitude": "47.45504000",
    "longitude": "19.66001000",
    "wikiDataId": null
  },
  {
    "id": 55436,
    "name": "Fót",
    "state_id": 1059,
    "state_code": "PE",
    "country_id": 99,
    "country_code": "HU",
    "latitude": "47.61770000",
    "longitude": "19.18870000",
    "wikiDataId": null
  },
  {
    "id": 55444,
    "name": "Galgahévíz",
    "state_id": 1059,
    "state_code": "PE",
    "country_id": 99,
    "country_code": "HU",
    "latitude": "47.61667000",
    "longitude": "19.56667000",
    "wikiDataId": null
  },
  {
    "id": 55445,
    "name": "Galgamácsa",
    "state_id": 1059,
    "state_code": "PE",
    "country_id": 99,
    "country_code": "HU",
    "latitude": "47.69562000",
    "longitude": "19.38724000",
    "wikiDataId": null
  },
  {
    "id": 55474,
    "name": "Göd",
    "state_id": 1059,
    "state_code": "PE",
    "country_id": 99,
    "country_code": "HU",
    "latitude": "47.68324000",
    "longitude": "19.13417000",
    "wikiDataId": null
  },
  {
    "id": 55475,
    "name": "Gödöllő",
    "state_id": 1059,
    "state_code": "PE",
    "country_id": 99,
    "country_code": "HU",
    "latitude": "47.59657000",
    "longitude": "19.35515000",
    "wikiDataId": null
  },
  {
    "id": 55476,
    "name": "Gödöllői Járás",
    "state_id": 1059,
    "state_code": "PE",
    "country_id": 99,
    "country_code": "HU",
    "latitude": "47.55127000",
    "longitude": "19.39595000",
    "wikiDataId": null
  },
  {
    "id": 55449,
    "name": "Gomba",
    "state_id": 1059,
    "state_code": "PE",
    "country_id": 99,
    "country_code": "HU",
    "latitude": "47.37095000",
    "longitude": "19.53057000",
    "wikiDataId": null
  },
  {
    "id": 55456,
    "name": "Gyál",
    "state_id": 1059,
    "state_code": "PE",
    "country_id": 99,
    "country_code": "HU",
    "latitude": "47.38449000",
    "longitude": "19.22140000",
    "wikiDataId": null
  },
  {
    "id": 55457,
    "name": "Gyáli Járás",
    "state_id": 1059,
    "state_code": "PE",
    "country_id": 99,
    "country_code": "HU",
    "latitude": "47.36821000",
    "longitude": "19.27543000",
    "wikiDataId": null
  },
  {
    "id": 55458,
    "name": "Gyömrő",
    "state_id": 1059,
    "state_code": "PE",
    "country_id": 99,
    "country_code": "HU",
    "latitude": "47.42733000",
    "longitude": "19.40133000",
    "wikiDataId": null
  },
  {
    "id": 55496,
    "name": "Halásztelek",
    "state_id": 1059,
    "state_code": "PE",
    "country_id": 99,
    "country_code": "HU",
    "latitude": "47.36173000",
    "longitude": "18.98119000",
    "wikiDataId": null
  },
  {
    "id": 55507,
    "name": "Hernád",
    "state_id": 1059,
    "state_code": "PE",
    "country_id": 99,
    "country_code": "HU",
    "latitude": "47.16238000",
    "longitude": "19.43295000",
    "wikiDataId": null
  },
  {
    "id": 55520,
    "name": "Hévízgyörk",
    "state_id": 1059,
    "state_code": "PE",
    "country_id": 99,
    "country_code": "HU",
    "latitude": "47.63333000",
    "longitude": "19.51667000",
    "wikiDataId": null
  },
  {
    "id": 55526,
    "name": "Iklad",
    "state_id": 1059,
    "state_code": "PE",
    "country_id": 99,
    "country_code": "HU",
    "latitude": "47.66533000",
    "longitude": "19.43610000",
    "wikiDataId": null
  },
  {
    "id": 55527,
    "name": "Inárcs",
    "state_id": 1059,
    "state_code": "PE",
    "country_id": 99,
    "country_code": "HU",
    "latitude": "47.26200000",
    "longitude": "19.32700000",
    "wikiDataId": null
  },
  {
    "id": 55529,
    "name": "Isaszeg",
    "state_id": 1059,
    "state_code": "PE",
    "country_id": 99,
    "country_code": "HU",
    "latitude": "47.53011000",
    "longitude": "19.40205000",
    "wikiDataId": null
  },
  {
    "id": 55548,
    "name": "Jászkarajenő",
    "state_id": 1059,
    "state_code": "PE",
    "country_id": 99,
    "country_code": "HU",
    "latitude": "47.05000000",
    "longitude": "20.06667000",
    "wikiDataId": null
  },
  {
    "id": 55557,
    "name": "Kakucs",
    "state_id": 1059,
    "state_code": "PE",
    "country_id": 99,
    "country_code": "HU",
    "latitude": "47.24200000",
    "longitude": "19.36467000",
    "wikiDataId": null
  },
  {
    "id": 55570,
    "name": "Kartal",
    "state_id": 1059,
    "state_code": "PE",
    "country_id": 99,
    "country_code": "HU",
    "latitude": "47.67133000",
    "longitude": "19.54200000",
    "wikiDataId": null
  },
  {
    "id": 55588,
    "name": "Kerepes",
    "state_id": 1059,
    "state_code": "PE",
    "country_id": 99,
    "country_code": "HU",
    "latitude": "47.56008000",
    "longitude": "19.28289000",
    "wikiDataId": null
  },
  {
    "id": 55598,
    "name": "Kiskunlacháza",
    "state_id": 1059,
    "state_code": "PE",
    "country_id": 99,
    "country_code": "HU",
    "latitude": "47.18839000",
    "longitude": "19.00930000",
    "wikiDataId": null
  },
  {
    "id": 55606,
    "name": "Kismaros",
    "state_id": 1059,
    "state_code": "PE",
    "country_id": 99,
    "country_code": "HU",
    "latitude": "47.83742000",
    "longitude": "19.00463000",
    "wikiDataId": null
  },
  {
    "id": 55609,
    "name": "Kistarcsa",
    "state_id": 1059,
    "state_code": "PE",
    "country_id": 99,
    "country_code": "HU",
    "latitude": "47.54757000",
    "longitude": "19.26247000",
    "wikiDataId": null
  },
  {
    "id": 55617,
    "name": "Kocsér",
    "state_id": 1059,
    "state_code": "PE",
    "country_id": 99,
    "country_code": "HU",
    "latitude": "47.00165000",
    "longitude": "19.92067000",
    "wikiDataId": null
  },
  {
    "id": 55644,
    "name": "Kóka",
    "state_id": 1059,
    "state_code": "PE",
    "country_id": 99,
    "country_code": "HU",
    "latitude": "47.48552000",
    "longitude": "19.57876000",
    "wikiDataId": null
  },
  {
    "id": 55624,
    "name": "Kosd",
    "state_id": 1059,
    "state_code": "PE",
    "country_id": 99,
    "country_code": "HU",
    "latitude": "47.80791000",
    "longitude": "19.17821000",
    "wikiDataId": null
  },
  {
    "id": 55663,
    "name": "Leányfalu",
    "state_id": 1059,
    "state_code": "PE",
    "country_id": 99,
    "country_code": "HU",
    "latitude": "47.71778000",
    "longitude": "19.08585000",
    "wikiDataId": null
  },
  {
    "id": 55674,
    "name": "Maglód",
    "state_id": 1059,
    "state_code": "PE",
    "country_id": 99,
    "country_code": "HU",
    "latitude": "47.44258000",
    "longitude": "19.36438000",
    "wikiDataId": null
  },
  {
    "id": 55687,
    "name": "Mende",
    "state_id": 1059,
    "state_code": "PE",
    "country_id": 99,
    "country_code": "HU",
    "latitude": "47.43133000",
    "longitude": "19.45628000",
    "wikiDataId": null
  },
  {
    "id": 55707,
    "name": "Mogyoród",
    "state_id": 1059,
    "state_code": "PE",
    "country_id": 99,
    "country_code": "HU",
    "latitude": "47.59748000",
    "longitude": "19.24070000",
    "wikiDataId": null
  },
  {
    "id": 55711,
    "name": "Monor",
    "state_id": 1059,
    "state_code": "PE",
    "country_id": 99,
    "country_code": "HU",
    "latitude": "47.35133000",
    "longitude": "19.44733000",
    "wikiDataId": null
  },
  {
    "id": 55712,
    "name": "Monori Járás",
    "state_id": 1059,
    "state_code": "PE",
    "country_id": 99,
    "country_code": "HU",
    "latitude": "47.34990000",
    "longitude": "19.47680000",
    "wikiDataId": null
  },
  {
    "id": 55753,
    "name": "Nagykáta",
    "state_id": 1059,
    "state_code": "PE",
    "country_id": 99,
    "country_code": "HU",
    "latitude": "47.41514000",
    "longitude": "19.74410000",
    "wikiDataId": null
  },
  {
    "id": 55754,
    "name": "Nagykátai Járás",
    "state_id": 1059,
    "state_code": "PE",
    "country_id": 99,
    "country_code": "HU",
    "latitude": "47.39109000",
    "longitude": "19.73920000",
    "wikiDataId": null
  },
  {
    "id": 55755,
    "name": "Nagykőrös",
    "state_id": 1059,
    "state_code": "PE",
    "country_id": 99,
    "country_code": "HU",
    "latitude": "47.03419000",
    "longitude": "19.77857000",
    "wikiDataId": null
  },
  {
    "id": 55756,
    "name": "Nagykőrösi Járás",
    "state_id": 1059,
    "state_code": "PE",
    "country_id": 99,
    "country_code": "HU",
    "latitude": "47.03563000",
    "longitude": "19.79259000",
    "wikiDataId": null
  },
  {
    "id": 55750,
    "name": "Nagykovácsi",
    "state_id": 1059,
    "state_code": "PE",
    "country_id": 99,
    "country_code": "HU",
    "latitude": "47.65000000",
    "longitude": "19.01667000",
    "wikiDataId": null
  },
  {
    "id": 55757,
    "name": "Nagymaros",
    "state_id": 1059,
    "state_code": "PE",
    "country_id": 99,
    "country_code": "HU",
    "latitude": "47.79280000",
    "longitude": "18.95984000",
    "wikiDataId": null
  },
  {
    "id": 55763,
    "name": "Nagytarcsa",
    "state_id": 1059,
    "state_code": "PE",
    "country_id": 99,
    "country_code": "HU",
    "latitude": "47.53128000",
    "longitude": "19.28343000",
    "wikiDataId": null
  },
  {
    "id": 55767,
    "name": "Nyáregyháza",
    "state_id": 1059,
    "state_code": "PE",
    "country_id": 99,
    "country_code": "HU",
    "latitude": "47.26175000",
    "longitude": "19.50146000",
    "wikiDataId": null
  },
  {
    "id": 56149,
    "name": "Ócsa",
    "state_id": 1059,
    "state_code": "PE",
    "country_id": 99,
    "country_code": "HU",
    "latitude": "47.29986000",
    "longitude": "19.23057000",
    "wikiDataId": null
  },
  {
    "id": 56171,
    "name": "Őrbottyán",
    "state_id": 1059,
    "state_code": "PE",
    "country_id": 99,
    "country_code": "HU",
    "latitude": "47.68711000",
    "longitude": "19.28239000",
    "wikiDataId": null
  },
  {
    "id": 56158,
    "name": "Örkény",
    "state_id": 1059,
    "state_code": "PE",
    "country_id": 99,
    "country_code": "HU",
    "latitude": "47.12991000",
    "longitude": "19.43324000",
    "wikiDataId": null
  },
  {
    "id": 55841,
    "name": "Pánd",
    "state_id": 1059,
    "state_code": "PE",
    "country_id": 99,
    "country_code": "HU",
    "latitude": "47.35333000",
    "longitude": "19.63571000",
    "wikiDataId": null
  },
  {
    "id": 55847,
    "name": "Páty",
    "state_id": 1059,
    "state_code": "PE",
    "country_id": 99,
    "country_code": "HU",
    "latitude": "47.51709000",
    "longitude": "18.82851000",
    "wikiDataId": null
  },
  {
    "id": 55849,
    "name": "Pécel",
    "state_id": 1059,
    "state_code": "PE",
    "country_id": 99,
    "country_code": "HU",
    "latitude": "47.48962000",
    "longitude": "19.34162000",
    "wikiDataId": null
  },
  {
    "id": 55813,
    "name": "Perbál",
    "state_id": 1059,
    "state_code": "PE",
    "country_id": 99,
    "country_code": "HU",
    "latitude": "47.58957000",
    "longitude": "18.76099000",
    "wikiDataId": null
  },
  {
    "id": 55855,
    "name": "Péteri",
    "state_id": 1059,
    "state_code": "PE",
    "country_id": 99,
    "country_code": "HU",
    "latitude": "47.39104000",
    "longitude": "19.40981000",
    "wikiDataId": null
  },
  {
    "id": 55817,
    "name": "Pilis",
    "state_id": 1059,
    "state_code": "PE",
    "country_id": 99,
    "country_code": "HU",
    "latitude": "47.28904000",
    "longitude": "19.54848000",
    "wikiDataId": null
  },
  {
    "id": 55818,
    "name": "Pilisborosjenő",
    "state_id": 1059,
    "state_code": "PE",
    "country_id": 99,
    "country_code": "HU",
    "latitude": "47.60744000",
    "longitude": "18.99322000",
    "wikiDataId": null
  },
  {
    "id": 55819,
    "name": "Piliscsaba",
    "state_id": 1059,
    "state_code": "PE",
    "country_id": 99,
    "country_code": "HU",
    "latitude": "47.63417000",
    "longitude": "18.82886000",
    "wikiDataId": null
  },
  {
    "id": 55822,
    "name": "Pilisszántó",
    "state_id": 1059,
    "state_code": "PE",
    "country_id": 99,
    "country_code": "HU",
    "latitude": "47.66909000",
    "longitude": "18.88762000",
    "wikiDataId": null
  },
  {
    "id": 55820,
    "name": "Pilisszentiván",
    "state_id": 1059,
    "state_code": "PE",
    "country_id": 99,
    "country_code": "HU",
    "latitude": "47.60964000",
    "longitude": "18.89940000",
    "wikiDataId": null
  },
  {
    "id": 55821,
    "name": "Pilisszentkereszt",
    "state_id": 1059,
    "state_code": "PE",
    "country_id": 99,
    "country_code": "HU",
    "latitude": "47.69143000",
    "longitude": "18.90503000",
    "wikiDataId": null
  },
  {
    "id": 55823,
    "name": "Pilisvörösvár",
    "state_id": 1059,
    "state_code": "PE",
    "country_id": 99,
    "country_code": "HU",
    "latitude": "47.61386000",
    "longitude": "18.90893000",
    "wikiDataId": null
  },
  {
    "id": 55824,
    "name": "Pilisvörösvári Járás",
    "state_id": 1059,
    "state_code": "PE",
    "country_id": 99,
    "country_code": "HU",
    "latitude": "47.60925000",
    "longitude": "18.86658000",
    "wikiDataId": null
  },
  {
    "id": 55829,
    "name": "Pomáz",
    "state_id": 1059,
    "state_code": "PE",
    "country_id": 99,
    "country_code": "HU",
    "latitude": "47.64227000",
    "longitude": "19.02784000",
    "wikiDataId": null
  },
  {
    "id": 55872,
    "name": "Ráckeve",
    "state_id": 1059,
    "state_code": "PE",
    "country_id": 99,
    "country_code": "HU",
    "latitude": "47.16095000",
    "longitude": "18.94478000",
    "wikiDataId": null
  },
  {
    "id": 55873,
    "name": "Ráckevei Járás",
    "state_id": 1059,
    "state_code": "PE",
    "country_id": 99,
    "country_code": "HU",
    "latitude": "47.15158000",
    "longitude": "19.01456000",
    "wikiDataId": null
  },
  {
    "id": 55905,
    "name": "Solymár",
    "state_id": 1059,
    "state_code": "PE",
    "country_id": 99,
    "country_code": "HU",
    "latitude": "47.59246000",
    "longitude": "18.93212000",
    "wikiDataId": null
  },
  {
    "id": 55996,
    "name": "Sóskút",
    "state_id": 1059,
    "state_code": "PE",
    "country_id": 99,
    "country_code": "HU",
    "latitude": "47.40665000",
    "longitude": "18.82247000",
    "wikiDataId": null
  },
  {
    "id": 55998,
    "name": "Sülysáp",
    "state_id": 1059,
    "state_code": "PE",
    "country_id": 99,
    "country_code": "HU",
    "latitude": "47.45206000",
    "longitude": "19.53369000",
    "wikiDataId": null
  },
  {
    "id": 55914,
    "name": "Szada",
    "state_id": 1059,
    "state_code": "PE",
    "country_id": 99,
    "country_code": "HU",
    "latitude": "47.63333000",
    "longitude": "19.31667000",
    "wikiDataId": null
  },
  {
    "id": 55971,
    "name": "Százhalombatta",
    "state_id": 1059,
    "state_code": "PE",
    "country_id": 99,
    "country_code": "HU",
    "latitude": "47.32949000",
    "longitude": "18.93878000",
    "wikiDataId": null
  },
  {
    "id": 55934,
    "name": "Szentendre",
    "state_id": 1059,
    "state_code": "PE",
    "country_id": 99,
    "country_code": "HU",
    "latitude": "47.66943000",
    "longitude": "19.07561000",
    "wikiDataId": null
  },
  {
    "id": 55935,
    "name": "Szentendrei Járás",
    "state_id": 1059,
    "state_code": "PE",
    "country_id": 99,
    "country_code": "HU",
    "latitude": "47.71146000",
    "longitude": "19.02524000",
    "wikiDataId": null
  },
  {
    "id": 55946,
    "name": "Szentlőrinckáta",
    "state_id": 1059,
    "state_code": "PE",
    "country_id": 99,
    "country_code": "HU",
    "latitude": "47.51947000",
    "longitude": "19.75286000",
    "wikiDataId": null
  },
  {
    "id": 55947,
    "name": "Szentmártonkáta",
    "state_id": 1059,
    "state_code": "PE",
    "country_id": 99,
    "country_code": "HU",
    "latitude": "47.45419000",
    "longitude": "19.70143000",
    "wikiDataId": null
  },
  {
    "id": 55950,
    "name": "Szigetcsép",
    "state_id": 1059,
    "state_code": "PE",
    "country_id": 99,
    "country_code": "HU",
    "latitude": "47.26492000",
    "longitude": "18.97048000",
    "wikiDataId": null
  },
  {
    "id": 55951,
    "name": "Szigethalom",
    "state_id": 1059,
    "state_code": "PE",
    "country_id": 99,
    "country_code": "HU",
    "latitude": "47.32228000",
    "longitude": "19.00262000",
    "wikiDataId": null
  },
  {
    "id": 55952,
    "name": "Szigetszentmiklós",
    "state_id": 1059,
    "state_code": "PE",
    "country_id": 99,
    "country_code": "HU",
    "latitude": "47.34382000",
    "longitude": "19.04335000",
    "wikiDataId": null
  },
  {
    "id": 55953,
    "name": "Szigetszentmiklósi Járás",
    "state_id": 1059,
    "state_code": "PE",
    "country_id": 99,
    "country_code": "HU",
    "latitude": "47.30566000",
    "longitude": "19.02829000",
    "wikiDataId": null
  },
  {
    "id": 55956,
    "name": "Szigetújfalu",
    "state_id": 1059,
    "state_code": "PE",
    "country_id": 99,
    "country_code": "HU",
    "latitude": "47.23417000",
    "longitude": "18.92746000",
    "wikiDataId": null
  },
  {
    "id": 55962,
    "name": "Szob",
    "state_id": 1059,
    "state_code": "PE",
    "country_id": 99,
    "country_code": "HU",
    "latitude": "47.81921000",
    "longitude": "18.87020000",
    "wikiDataId": null
  },
  {
    "id": 55963,
    "name": "Szobi Járás",
    "state_id": 1059,
    "state_code": "PE",
    "country_id": 99,
    "country_code": "HU",
    "latitude": "47.93419000",
    "longitude": "18.85438000",
    "wikiDataId": null
  },
  {
    "id": 55977,
    "name": "Sződ",
    "state_id": 1059,
    "state_code": "PE",
    "country_id": 99,
    "country_code": "HU",
    "latitude": "47.72439000",
    "longitude": "19.17046000",
    "wikiDataId": null
  },
  {
    "id": 55978,
    "name": "Sződliget",
    "state_id": 1059,
    "state_code": "PE",
    "country_id": 99,
    "country_code": "HU",
    "latitude": "47.73259000",
    "longitude": "19.14749000",
    "wikiDataId": null
  },
  {
    "id": 56061,
    "name": "Táborfalva",
    "state_id": 1059,
    "state_code": "PE",
    "country_id": 99,
    "country_code": "HU",
    "latitude": "47.09942000",
    "longitude": "19.47837000",
    "wikiDataId": null
  },
  {
    "id": 56003,
    "name": "Tahitótfalu",
    "state_id": 1059,
    "state_code": "PE",
    "country_id": 99,
    "country_code": "HU",
    "latitude": "47.75000000",
    "longitude": "19.10000000",
    "wikiDataId": null
  },
  {
    "id": 56004,
    "name": "Taksony",
    "state_id": 1059,
    "state_code": "PE",
    "country_id": 99,
    "country_code": "HU",
    "latitude": "47.32968000",
    "longitude": "19.06695000",
    "wikiDataId": null
  },
  {
    "id": 56063,
    "name": "Tápióbicske",
    "state_id": 1059,
    "state_code": "PE",
    "country_id": 99,
    "country_code": "HU",
    "latitude": "47.36096000",
    "longitude": "19.68609000",
    "wikiDataId": null
  },
  {
    "id": 56064,
    "name": "Tápiógyörgye",
    "state_id": 1059,
    "state_code": "PE",
    "country_id": 99,
    "country_code": "HU",
    "latitude": "47.33505000",
    "longitude": "19.95276000",
    "wikiDataId": null
  },
  {
    "id": 56069,
    "name": "Tápióság",
    "state_id": 1059,
    "state_code": "PE",
    "country_id": 99,
    "country_code": "HU",
    "latitude": "47.40200000",
    "longitude": "19.63047000",
    "wikiDataId": null
  },
  {
    "id": 56065,
    "name": "Tápiószecső",
    "state_id": 1059,
    "state_code": "PE",
    "country_id": 99,
    "country_code": "HU",
    "latitude": "47.45000000",
    "longitude": "19.60923000",
    "wikiDataId": null
  },
  {
    "id": 56066,
    "name": "Tápiószele",
    "state_id": 1059,
    "state_code": "PE",
    "country_id": 99,
    "country_code": "HU",
    "latitude": "47.33609000",
    "longitude": "19.87724000",
    "wikiDataId": null
  },
  {
    "id": 56067,
    "name": "Tápiószentmárton",
    "state_id": 1059,
    "state_code": "PE",
    "country_id": 99,
    "country_code": "HU",
    "latitude": "47.33990000",
    "longitude": "19.74648000",
    "wikiDataId": null
  },
  {
    "id": 56068,
    "name": "Tápiószőlős",
    "state_id": 1059,
    "state_code": "PE",
    "country_id": 99,
    "country_code": "HU",
    "latitude": "47.30248000",
    "longitude": "19.85133000",
    "wikiDataId": null
  },
  {
    "id": 56071,
    "name": "Tárnok",
    "state_id": 1059,
    "state_code": "PE",
    "country_id": 99,
    "country_code": "HU",
    "latitude": "47.37327000",
    "longitude": "18.84579000",
    "wikiDataId": null
  },
  {
    "id": 56018,
    "name": "Telki",
    "state_id": 1059,
    "state_code": "PE",
    "country_id": 99,
    "country_code": "HU",
    "latitude": "47.54791000",
    "longitude": "18.82816000",
    "wikiDataId": null
  },
  {
    "id": 56076,
    "name": "Tóalmás",
    "state_id": 1059,
    "state_code": "PE",
    "country_id": 99,
    "country_code": "HU",
    "latitude": "47.50782000",
    "longitude": "19.66657000",
    "wikiDataId": null
  },
  {
    "id": 56079,
    "name": "Tököl",
    "state_id": 1059,
    "state_code": "PE",
    "country_id": 99,
    "country_code": "HU",
    "latitude": "47.32178000",
    "longitude": "18.96249000",
    "wikiDataId": null
  },
  {
    "id": 56083,
    "name": "Törökbálint",
    "state_id": 1059,
    "state_code": "PE",
    "country_id": 99,
    "country_code": "HU",
    "latitude": "47.42931000",
    "longitude": "18.91356000",
    "wikiDataId": null
  },
  {
    "id": 56082,
    "name": "Törtel",
    "state_id": 1059,
    "state_code": "PE",
    "country_id": 99,
    "country_code": "HU",
    "latitude": "47.12209000",
    "longitude": "19.93714000",
    "wikiDataId": null
  },
  {
    "id": 56058,
    "name": "Tura",
    "state_id": 1059,
    "state_code": "PE",
    "country_id": 99,
    "country_code": "HU",
    "latitude": "47.60924000",
    "longitude": "19.60279000",
    "wikiDataId": null
  },
  {
    "id": 56161,
    "name": "Újhartyán",
    "state_id": 1059,
    "state_code": "PE",
    "country_id": 99,
    "country_code": "HU",
    "latitude": "47.21981000",
    "longitude": "19.38638000",
    "wikiDataId": null
  },
  {
    "id": 56163,
    "name": "Újszilvás",
    "state_id": 1059,
    "state_code": "PE",
    "country_id": 99,
    "country_code": "HU",
    "latitude": "47.27477000",
    "longitude": "19.92477000",
    "wikiDataId": null
  },
  {
    "id": 56168,
    "name": "Üllő",
    "state_id": 1059,
    "state_code": "PE",
    "country_id": 99,
    "country_code": "HU",
    "latitude": "47.38771000",
    "longitude": "19.35533000",
    "wikiDataId": null
  },
  {
    "id": 56165,
    "name": "Úri",
    "state_id": 1059,
    "state_code": "PE",
    "country_id": 99,
    "country_code": "HU",
    "latitude": "47.41429000",
    "longitude": "19.52762000",
    "wikiDataId": null
  },
  {
    "id": 56169,
    "name": "Üröm",
    "state_id": 1059,
    "state_code": "PE",
    "country_id": 99,
    "country_code": "HU",
    "latitude": "47.59674000",
    "longitude": "19.01583000",
    "wikiDataId": null
  },
  {
    "id": 56105,
    "name": "Vác",
    "state_id": 1059,
    "state_code": "PE",
    "country_id": 99,
    "country_code": "HU",
    "latitude": "47.77591000",
    "longitude": "19.13612000",
    "wikiDataId": null
  },
  {
    "id": 56106,
    "name": "Váci Járás",
    "state_id": 1059,
    "state_code": "PE",
    "country_id": 99,
    "country_code": "HU",
    "latitude": "47.78316000",
    "longitude": "19.23882000",
    "wikiDataId": null
  },
  {
    "id": 56107,
    "name": "Vácszentlászló",
    "state_id": 1059,
    "state_code": "PE",
    "country_id": 99,
    "country_code": "HU",
    "latitude": "47.57400000",
    "longitude": "19.53771000",
    "wikiDataId": null
  },
  {
    "id": 56090,
    "name": "Valkó",
    "state_id": 1059,
    "state_code": "PE",
    "country_id": 99,
    "country_code": "HU",
    "latitude": "47.56391000",
    "longitude": "19.51267000",
    "wikiDataId": null
  },
  {
    "id": 56094,
    "name": "Vecsés",
    "state_id": 1059,
    "state_code": "PE",
    "country_id": 99,
    "country_code": "HU",
    "latitude": "47.40705000",
    "longitude": "19.28648000",
    "wikiDataId": null
  },
  {
    "id": 56095,
    "name": "Vecsési Járás",
    "state_id": 1059,
    "state_code": "PE",
    "country_id": 99,
    "country_code": "HU",
    "latitude": "47.42923000",
    "longitude": "19.30136000",
    "wikiDataId": null
  },
  {
    "id": 56097,
    "name": "Veresegyház",
    "state_id": 1059,
    "state_code": "PE",
    "country_id": 99,
    "country_code": "HU",
    "latitude": "47.64590000",
    "longitude": "19.29536000",
    "wikiDataId": null
  },
  {
    "id": 56099,
    "name": "Verőce",
    "state_id": 1059,
    "state_code": "PE",
    "country_id": 99,
    "country_code": "HU",
    "latitude": "47.82468000",
    "longitude": "19.03484000",
    "wikiDataId": null
  },
  {
    "id": 56103,
    "name": "Visegrád",
    "state_id": 1059,
    "state_code": "PE",
    "country_id": 99,
    "country_code": "HU",
    "latitude": "47.78526000",
    "longitude": "18.97090000",
    "wikiDataId": null
  },
  {
    "id": 56132,
    "name": "Zsámbék",
    "state_id": 1059,
    "state_code": "PE",
    "country_id": 99,
    "country_code": "HU",
    "latitude": "47.54814000",
    "longitude": "18.72011000",
    "wikiDataId": null
  },
  {
    "id": 56131,
    "name": "Zsámbok",
    "state_id": 1059,
    "state_code": "PE",
    "country_id": 99,
    "country_code": "HU",
    "latitude": "47.54381000",
    "longitude": "19.61048000",
    "wikiDataId": null
  }
]