[
  {
    "id": 89926,
    "name": "Alexandru I. Cuza",
    "state_id": 4735,
    "state_code": "IS",
    "country_id": 181,
    "country_code": "RO",
    "latitude": "47.13333000",
    "longitude": "26.85000000",
    "wikiDataId": null
  },
  {
    "id": 89958,
    "name": "Andrieşeni",
    "state_id": 4735,
    "state_code": "IS",
    "country_id": 181,
    "country_code": "RO",
    "latitude": "47.53333000",
    "longitude": "27.28333000",
    "wikiDataId": null
  },
  {
    "id": 89997,
    "name": "Aroneanu",
    "state_id": 4735,
    "state_code": "IS",
    "country_id": 181,
    "country_code": "RO",
    "latitude": "47.20000000",
    "longitude": "27.60000000",
    "wikiDataId": null
  },
  {
    "id": 90480,
    "name": "Bădeni",
    "state_id": 4735,
    "state_code": "IS",
    "country_id": 181,
    "country_code": "RO",
    "latitude": "47.40581000",
    "longitude": "26.94898000",
    "wikiDataId": null
  },
  {
    "id": 90052,
    "name": "Balș",
    "state_id": 4735,
    "state_code": "IS",
    "country_id": 181,
    "country_code": "RO",
    "latitude": "47.29628000",
    "longitude": "26.97856000",
    "wikiDataId": null
  },
  {
    "id": 90526,
    "name": "Bălţaţi",
    "state_id": 4735,
    "state_code": "IS",
    "country_id": 181,
    "country_code": "RO",
    "latitude": "47.21667000",
    "longitude": "27.15000000",
    "wikiDataId": null
  },
  {
    "id": 90453,
    "name": "Bârnova",
    "state_id": 4735,
    "state_code": "IS",
    "country_id": 181,
    "country_code": "RO",
    "latitude": "47.06667000",
    "longitude": "27.61667000",
    "wikiDataId": null
  },
  {
    "id": 90084,
    "name": "Belceşti",
    "state_id": 4735,
    "state_code": "IS",
    "country_id": 181,
    "country_code": "RO",
    "latitude": "47.30000000",
    "longitude": "27.08333000",
    "wikiDataId": null
  },
  {
    "id": 90152,
    "name": "Bivolari",
    "state_id": 4735,
    "state_code": "IS",
    "country_id": 181,
    "country_code": "RO",
    "latitude": "47.53333000",
    "longitude": "27.43333000",
    "wikiDataId": null
  },
  {
    "id": 90201,
    "name": "Bohotin",
    "state_id": 4735,
    "state_code": "IS",
    "country_id": 181,
    "country_code": "RO",
    "latitude": "46.93914000",
    "longitude": "27.97782000",
    "wikiDataId": null
  },
  {
    "id": 90232,
    "name": "Borosoaia",
    "state_id": 4735,
    "state_code": "IS",
    "country_id": 181,
    "country_code": "RO",
    "latitude": "47.46300000",
    "longitude": "27.09862000",
    "wikiDataId": null
  },
  {
    "id": 90241,
    "name": "Bosia",
    "state_id": 4735,
    "state_code": "IS",
    "country_id": 181,
    "country_code": "RO",
    "latitude": "47.21696000",
    "longitude": "27.76707000",
    "wikiDataId": null
  },
  {
    "id": 90251,
    "name": "Boureni",
    "state_id": 4735,
    "state_code": "IS",
    "country_id": 181,
    "country_code": "RO",
    "latitude": "47.26497000",
    "longitude": "26.97672000",
    "wikiDataId": null
  },
  {
    "id": 90325,
    "name": "Brădicești",
    "state_id": 4735,
    "state_code": "IS",
    "country_id": 181,
    "country_code": "RO",
    "latitude": "46.84810000",
    "longitude": "27.90270000",
    "wikiDataId": null
  },
  {
    "id": 90329,
    "name": "Brăeşti",
    "state_id": 4735,
    "state_code": "IS",
    "country_id": 181,
    "country_code": "RO",
    "latitude": "47.15000000",
    "longitude": "27.10000000",
    "wikiDataId": null
  },
  {
    "id": 90340,
    "name": "Brătești",
    "state_id": 4735,
    "state_code": "IS",
    "country_id": 181,
    "country_code": "RO",
    "latitude": "47.19135000",
    "longitude": "26.68580000",
    "wikiDataId": null
  },
  {
    "id": 90289,
    "name": "Breazu",
    "state_id": 4735,
    "state_code": "IS",
    "country_id": 181,
    "country_code": "RO",
    "latitude": "47.21343000",
    "longitude": "27.51815000",
    "wikiDataId": null
  },
  {
    "id": 90375,
    "name": "Buda",
    "state_id": 4735,
    "state_code": "IS",
    "country_id": 181,
    "country_code": "RO",
    "latitude": "47.40318000",
    "longitude": "26.67835000",
    "wikiDataId": null
  },
  {
    "id": 90389,
    "name": "Budăi",
    "state_id": 4735,
    "state_code": "IS",
    "country_id": 181,
    "country_code": "RO",
    "latitude": "47.21773000",
    "longitude": "27.22282000",
    "wikiDataId": null
  },
  {
    "id": 90395,
    "name": "Buhalnița",
    "state_id": 4735,
    "state_code": "IS",
    "country_id": 181,
    "country_code": "RO",
    "latitude": "47.37892000",
    "longitude": "26.91547000",
    "wikiDataId": null
  },
  {
    "id": 90425,
    "name": "Butea",
    "state_id": 4735,
    "state_code": "IS",
    "country_id": 181,
    "country_code": "RO",
    "latitude": "47.06667000",
    "longitude": "26.91667000",
    "wikiDataId": null
  },
  {
    "id": 90433,
    "name": "Buznea",
    "state_id": 4735,
    "state_code": "IS",
    "country_id": 181,
    "country_code": "RO",
    "latitude": "47.19515000",
    "longitude": "27.01572000",
    "wikiDataId": null
  },
  {
    "id": 93812,
    "name": "Cârjoaia",
    "state_id": 4735,
    "state_code": "IS",
    "country_id": 181,
    "country_code": "RO",
    "latitude": "47.34032000",
    "longitude": "26.90863000",
    "wikiDataId": null
  },
  {
    "id": 93818,
    "name": "Cârniceni",
    "state_id": 4735,
    "state_code": "IS",
    "country_id": 181,
    "country_code": "RO",
    "latitude": "47.33942000",
    "longitude": "27.50508000",
    "wikiDataId": null
  },
  {
    "id": 90618,
    "name": "Cepleniţa",
    "state_id": 4735,
    "state_code": "IS",
    "country_id": 181,
    "country_code": "RO",
    "latitude": "47.38333000",
    "longitude": "27.01667000",
    "wikiDataId": null
  },
  {
    "id": 90689,
    "name": "Chișcăreni",
    "state_id": 4735,
    "state_code": "IS",
    "country_id": 181,
    "country_code": "RO",
    "latitude": "47.46974000",
    "longitude": "27.19626000",
    "wikiDataId": null
  },
  {
    "id": 90719,
    "name": "Ciohorăni",
    "state_id": 4735,
    "state_code": "IS",
    "country_id": 181,
    "country_code": "RO",
    "latitude": "47.13485060",
    "longitude": "26.68622670",
    "wikiDataId": null
  },
  {
    "id": 90728,
    "name": "Ciorteşti",
    "state_id": 4735,
    "state_code": "IS",
    "country_id": 181,
    "country_code": "RO",
    "latitude": "46.90000000",
    "longitude": "27.83333000",
    "wikiDataId": null
  },
  {
    "id": 90757,
    "name": "Ciurea",
    "state_id": 4735,
    "state_code": "IS",
    "country_id": 181,
    "country_code": "RO",
    "latitude": "47.05000000",
    "longitude": "27.56667000",
    "wikiDataId": null
  },
  {
    "id": 90773,
    "name": "Coarnele Caprei",
    "state_id": 4735,
    "state_code": "IS",
    "country_id": 181,
    "country_code": "RO",
    "latitude": "47.38333000",
    "longitude": "27.10000000",
    "wikiDataId": null
  },
  {
    "id": 90788,
    "name": "Cogeasca",
    "state_id": 4735,
    "state_code": "IS",
    "country_id": 181,
    "country_code": "RO",
    "latitude": "47.16644000",
    "longitude": "27.38537000",
    "wikiDataId": null
  },
  {
    "id": 90811,
    "name": "Comarna",
    "state_id": 4735,
    "state_code": "IS",
    "country_id": 181,
    "country_code": "RO",
    "latitude": "47.05000000",
    "longitude": "27.78333000",
    "wikiDataId": null
  },
  {
    "id": 90848,
    "name": "Comuna Alexandru I. Cuza",
    "state_id": 4735,
    "state_code": "IS",
    "country_id": 181,
    "country_code": "RO",
    "latitude": "47.14424000",
    "longitude": "26.85449000",
    "wikiDataId": null
  },
  {
    "id": 90870,
    "name": "Comuna Andrieşeni",
    "state_id": 4735,
    "state_code": "IS",
    "country_id": 181,
    "country_code": "RO",
    "latitude": "47.51112000",
    "longitude": "27.29502000",
    "wikiDataId": null
  },
  {
    "id": 90896,
    "name": "Comuna Aroneanu",
    "state_id": 4735,
    "state_code": "IS",
    "country_id": 181,
    "country_code": "RO",
    "latitude": "47.21584000",
    "longitude": "27.60632000",
    "wikiDataId": null
  },
  {
    "id": 90931,
    "name": "Comuna Balş",
    "state_id": 4735,
    "state_code": "IS",
    "country_id": 181,
    "country_code": "RO",
    "latitude": "47.29219000",
    "longitude": "26.96028000",
    "wikiDataId": null
  },
  {
    "id": 91227,
    "name": "Comuna Bălţaţi",
    "state_id": 4735,
    "state_code": "IS",
    "country_id": 181,
    "country_code": "RO",
    "latitude": "47.23366000",
    "longitude": "27.11866000",
    "wikiDataId": null
  },
  {
    "id": 91190,
    "name": "Comuna Bârnova",
    "state_id": 4735,
    "state_code": "IS",
    "country_id": 181,
    "country_code": "RO",
    "latitude": "47.08669000",
    "longitude": "27.62635000",
    "wikiDataId": null
  },
  {
    "id": 90949,
    "name": "Comuna Belceşti",
    "state_id": 4735,
    "state_code": "IS",
    "country_id": 181,
    "country_code": "RO",
    "latitude": "47.30581000",
    "longitude": "27.08747000",
    "wikiDataId": null
  },
  {
    "id": 90999,
    "name": "Comuna Bivolari",
    "state_id": 4735,
    "state_code": "IS",
    "country_id": 181,
    "country_code": "RO",
    "latitude": "47.52988000",
    "longitude": "27.42726000",
    "wikiDataId": null
  },
  {
    "id": 91118,
    "name": "Comuna Brăeşti",
    "state_id": 4735,
    "state_code": "IS",
    "country_id": 181,
    "country_code": "RO",
    "latitude": "47.16318000",
    "longitude": "27.09031000",
    "wikiDataId": null
  },
  {
    "id": 91173,
    "name": "Comuna Butea",
    "state_id": 4735,
    "state_code": "IS",
    "country_id": 181,
    "country_code": "RO",
    "latitude": "47.08386000",
    "longitude": "26.93552000",
    "wikiDataId": null
  },
  {
    "id": 91284,
    "name": "Comuna Cepleniţa",
    "state_id": 4735,
    "state_code": "IS",
    "country_id": 181,
    "country_code": "RO",
    "latitude": "47.37581000",
    "longitude": "26.92597000",
    "wikiDataId": null
  },
  {
    "id": 91356,
    "name": "Comuna Ciorteşti",
    "state_id": 4735,
    "state_code": "IS",
    "country_id": 181,
    "country_code": "RO",
    "latitude": "46.91766000",
    "longitude": "27.84749000",
    "wikiDataId": null
  },
  {
    "id": 91375,
    "name": "Comuna Ciurea",
    "state_id": 4735,
    "state_code": "IS",
    "country_id": 181,
    "country_code": "RO",
    "latitude": "47.06150000",
    "longitude": "27.57572000",
    "wikiDataId": null
  },
  {
    "id": 91382,
    "name": "Comuna Coarnele Caprei",
    "state_id": 4735,
    "state_code": "IS",
    "country_id": 181,
    "country_code": "RO",
    "latitude": "47.40195000",
    "longitude": "27.09699000",
    "wikiDataId": null
  },
  {
    "id": 91407,
    "name": "Comuna Comarna",
    "state_id": 4735,
    "state_code": "IS",
    "country_id": 181,
    "country_code": "RO",
    "latitude": "47.07004000",
    "longitude": "27.78668000",
    "wikiDataId": null
  },
  {
    "id": 91457,
    "name": "Comuna Costeşti",
    "state_id": 4735,
    "state_code": "IS",
    "country_id": 181,
    "country_code": "RO",
    "latitude": "47.24224000",
    "longitude": "26.91751000",
    "wikiDataId": null
  },
  {
    "id": 91461,
    "name": "Comuna Costuleni",
    "state_id": 4735,
    "state_code": "IS",
    "country_id": 181,
    "country_code": "RO",
    "latitude": "47.01055000",
    "longitude": "27.85829000",
    "wikiDataId": null
  },
  {
    "id": 91466,
    "name": "Comuna Cotnari",
    "state_id": 4735,
    "state_code": "IS",
    "country_id": 181,
    "country_code": "RO",
    "latitude": "47.35813000",
    "longitude": "26.91687000",
    "wikiDataId": null
  },
  {
    "id": 91471,
    "name": "Comuna Cozmeşti",
    "state_id": 4735,
    "state_code": "IS",
    "country_id": 181,
    "country_code": "RO",
    "latitude": "46.86032000",
    "longitude": "28.01297000",
    "wikiDataId": null
  },
  {
    "id": 91496,
    "name": "Comuna Cristeşti",
    "state_id": 4735,
    "state_code": "IS",
    "country_id": 181,
    "country_code": "RO",
    "latitude": "47.27821000",
    "longitude": "26.58525000",
    "wikiDataId": null
  },
  {
    "id": 91520,
    "name": "Comuna Cucuteni",
    "state_id": 4735,
    "state_code": "IS",
    "country_id": 181,
    "country_code": "RO",
    "latitude": "47.27587000",
    "longitude": "26.92807000",
    "wikiDataId": null
  },
  {
    "id": 91599,
    "name": "Comuna Dagâţa",
    "state_id": 4735,
    "state_code": "IS",
    "country_id": 181,
    "country_code": "RO",
    "latitude": "46.94469000",
    "longitude": "27.19147000",
    "wikiDataId": null
  },
  {
    "id": 91611,
    "name": "Comuna Deleni",
    "state_id": 4735,
    "state_code": "IS",
    "country_id": 181,
    "country_code": "RO",
    "latitude": "47.47458000",
    "longitude": "26.89451000",
    "wikiDataId": null
  },
  {
    "id": 91644,
    "name": "Comuna Dobrovăţ",
    "state_id": 4735,
    "state_code": "IS",
    "country_id": 181,
    "country_code": "RO",
    "latitude": "46.96335000",
    "longitude": "27.72245000",
    "wikiDataId": null
  },
  {
    "id": 91655,
    "name": "Comuna Dolheşti",
    "state_id": 4735,
    "state_code": "IS",
    "country_id": 181,
    "country_code": "RO",
    "latitude": "46.86958000",
    "longitude": "27.90652000",
    "wikiDataId": null
  },
  {
    "id": 91697,
    "name": "Comuna Drăguşeni",
    "state_id": 4735,
    "state_code": "IS",
    "country_id": 181,
    "country_code": "RO",
    "latitude": "46.89432000",
    "longitude": "27.49491000",
    "wikiDataId": null
  },
  {
    "id": 91720,
    "name": "Comuna Dumeşti",
    "state_id": 4735,
    "state_code": "IS",
    "country_id": 181,
    "country_code": "RO",
    "latitude": "47.17668000",
    "longitude": "27.33470000",
    "wikiDataId": null
  },
  {
    "id": 91749,
    "name": "Comuna Erbiceni",
    "state_id": 4735,
    "state_code": "IS",
    "country_id": 181,
    "country_code": "RO",
    "latitude": "47.25219000",
    "longitude": "27.24756000",
    "wikiDataId": null
  },
  {
    "id": 91774,
    "name": "Comuna Focuri",
    "state_id": 4735,
    "state_code": "IS",
    "country_id": 181,
    "country_code": "RO",
    "latitude": "47.35113000",
    "longitude": "27.20200000",
    "wikiDataId": null
  },
  {
    "id": 91899,
    "name": "Comuna Golãieşti",
    "state_id": 4735,
    "state_code": "IS",
    "country_id": 181,
    "country_code": "RO",
    "latitude": "47.26355000",
    "longitude": "27.69515000",
    "wikiDataId": null
  },
  {
    "id": 91900,
    "name": "Comuna Gorban",
    "state_id": 4735,
    "state_code": "IS",
    "country_id": 181,
    "country_code": "RO",
    "latitude": "46.90059000",
    "longitude": "28.07017000",
    "wikiDataId": null
  },
  {
    "id": 91910,
    "name": "Comuna Grajduri",
    "state_id": 4735,
    "state_code": "IS",
    "country_id": 181,
    "country_code": "RO",
    "latitude": "46.97069000",
    "longitude": "27.55569000",
    "wikiDataId": null
  },
  {
    "id": 91925,
    "name": "Comuna Gropniţa",
    "state_id": 4735,
    "state_code": "IS",
    "country_id": 181,
    "country_code": "RO",
    "latitude": "47.36874000",
    "longitude": "27.26376000",
    "wikiDataId": null
  },
  {
    "id": 91927,
    "name": "Comuna Grozeşti",
    "state_id": 4735,
    "state_code": "IS",
    "country_id": 181,
    "country_code": "RO",
    "latitude": "47.01001000",
    "longitude": "28.02507000",
    "wikiDataId": null
  },
  {
    "id": 92040,
    "name": "Comuna Hălăuceşti",
    "state_id": 4735,
    "state_code": "IS",
    "country_id": 181,
    "country_code": "RO",
    "latitude": "47.10593000",
    "longitude": "26.80967000",
    "wikiDataId": null
  },
  {
    "id": 92044,
    "name": "Comuna Hărmăneşti",
    "state_id": 4735,
    "state_code": "IS",
    "country_id": 181,
    "country_code": "RO",
    "latitude": "47.27087000",
    "longitude": "26.81322000",
    "wikiDataId": null
  },
  {
    "id": 91995,
    "name": "Comuna Heleşteni",
    "state_id": 4735,
    "state_code": "IS",
    "country_id": 181,
    "country_code": "RO",
    "latitude": "47.19295000",
    "longitude": "26.88060000",
    "wikiDataId": null
  },
  {
    "id": 92009,
    "name": "Comuna Holboca",
    "state_id": 4735,
    "state_code": "IS",
    "country_id": 181,
    "country_code": "RO",
    "latitude": "47.17512000",
    "longitude": "27.68235000",
    "wikiDataId": null
  },
  {
    "id": 92020,
    "name": "Comuna Horleşti",
    "state_id": 4735,
    "state_code": "IS",
    "country_id": 181,
    "country_code": "RO",
    "latitude": "47.11718000",
    "longitude": "27.40856000",
    "wikiDataId": null
  },
  {
    "id": 92083,
    "name": "Comuna Ion Neculce",
    "state_id": 4735,
    "state_code": "IS",
    "country_id": 181,
    "country_code": "RO",
    "latitude": "47.20159000",
    "longitude": "27.03221000",
    "wikiDataId": null
  },
  {
    "id": 92089,
    "name": "Comuna Ipatele",
    "state_id": 4735,
    "state_code": "IS",
    "country_id": 181,
    "country_code": "RO",
    "latitude": "46.90390000",
    "longitude": "27.43762000",
    "wikiDataId": null
  },
  {
    "id": 92155,
    "name": "Comuna Lespezi",
    "state_id": 4735,
    "state_code": "IS",
    "country_id": 181,
    "country_code": "RO",
    "latitude": "47.34957000",
    "longitude": "26.68807000",
    "wikiDataId": null
  },
  {
    "id": 92161,
    "name": "Comuna Leţcani",
    "state_id": 4735,
    "state_code": "IS",
    "country_id": 181,
    "country_code": "RO",
    "latitude": "47.18012000",
    "longitude": "27.41296000",
    "wikiDataId": null
  },
  {
    "id": 92211,
    "name": "Comuna Lungani",
    "state_id": 4735,
    "state_code": "IS",
    "country_id": 181,
    "country_code": "RO",
    "latitude": "47.17564000",
    "longitude": "27.15749000",
    "wikiDataId": null
  },
  {
    "id": 92382,
    "name": "Comuna Mădârjac",
    "state_id": 4735,
    "state_code": "IS",
    "country_id": 181,
    "country_code": "RO",
    "latitude": "47.04094000",
    "longitude": "27.27716000",
    "wikiDataId": null
  },
  {
    "id": 92297,
    "name": "Comuna Mirceşti",
    "state_id": 4735,
    "state_code": "IS",
    "country_id": 181,
    "country_code": "RO",
    "latitude": "47.05486000",
    "longitude": "26.83945000",
    "wikiDataId": null
  },
  {
    "id": 92299,
    "name": "Comuna Mironeasa",
    "state_id": 4735,
    "state_code": "IS",
    "country_id": 181,
    "country_code": "RO",
    "latitude": "46.99869000",
    "longitude": "27.42519000",
    "wikiDataId": null
  },
  {
    "id": 92300,
    "name": "Comuna Miroslava",
    "state_id": 4735,
    "state_code": "IS",
    "country_id": 181,
    "country_code": "RO",
    "latitude": "47.13047000",
    "longitude": "27.51039000",
    "wikiDataId": null
  },
  {
    "id": 92301,
    "name": "Comuna Mirosloveşti",
    "state_id": 4735,
    "state_code": "IS",
    "country_id": 181,
    "country_code": "RO",
    "latitude": "47.13966000",
    "longitude": "26.64648000",
    "wikiDataId": null
  },
  {
    "id": 92319,
    "name": "Comuna Mogoşeşti",
    "state_id": 4735,
    "state_code": "IS",
    "country_id": 181,
    "country_code": "RO",
    "latitude": "47.04200000",
    "longitude": "27.48492000",
    "wikiDataId": null
  },
  {
    "id": 92320,
    "name": "Comuna Mogoşeşti-Siret",
    "state_id": 4735,
    "state_code": "IS",
    "country_id": 181,
    "country_code": "RO",
    "latitude": "47.13190000",
    "longitude": "26.77101000",
    "wikiDataId": null
  },
  {
    "id": 92347,
    "name": "Comuna Moşna",
    "state_id": 4735,
    "state_code": "IS",
    "country_id": 181,
    "country_code": "RO",
    "latitude": "46.92189000",
    "longitude": "27.95956000",
    "wikiDataId": null
  },
  {
    "id": 92351,
    "name": "Comuna Moţca",
    "state_id": 4735,
    "state_code": "IS",
    "country_id": 181,
    "country_code": "RO",
    "latitude": "47.22407000",
    "longitude": "26.61632000",
    "wikiDataId": null
  },
  {
    "id": 92341,
    "name": "Comuna Movileni",
    "state_id": 4735,
    "state_code": "IS",
    "country_id": 181,
    "country_code": "RO",
    "latitude": "47.32032000",
    "longitude": "27.38016000",
    "wikiDataId": null
  },
  {
    "id": 92526,
    "name": "Comuna Oţeleni",
    "state_id": 4735,
    "state_code": "IS",
    "country_id": 181,
    "country_code": "RO",
    "latitude": "47.08566000",
    "longitude": "27.02730000",
    "wikiDataId": null
  },
  {
    "id": 92604,
    "name": "Comuna Plugari",
    "state_id": 4735,
    "state_code": "IS",
    "country_id": 181,
    "country_code": "RO",
    "latitude": "47.47732000",
    "longitude": "27.11577000",
    "wikiDataId": null
  },
  {
    "id": 92654,
    "name": "Comuna Popeşti",
    "state_id": 4735,
    "state_code": "IS",
    "country_id": 181,
    "country_code": "RO",
    "latitude": "47.13704000",
    "longitude": "27.26169000",
    "wikiDataId": null
  },
  {
    "id": 92658,
    "name": "Comuna Popricani",
    "state_id": 4735,
    "state_code": "IS",
    "country_id": 181,
    "country_code": "RO",
    "latitude": "47.26750000",
    "longitude": "27.52729000",
    "wikiDataId": null
  },
  {
    "id": 92679,
    "name": "Comuna Prisăcani",
    "state_id": 4735,
    "state_code": "IS",
    "country_id": 181,
    "country_code": "RO",
    "latitude": "47.07015000",
    "longitude": "27.90795000",
    "wikiDataId": null
  },
  {
    "id": 92680,
    "name": "Comuna Probota",
    "state_id": 4735,
    "state_code": "IS",
    "country_id": 181,
    "country_code": "RO",
    "latitude": "47.38792000",
    "longitude": "27.49446000",
    "wikiDataId": null
  },
  {
    "id": 92837,
    "name": "Comuna Răchiţeni",
    "state_id": 4735,
    "state_code": "IS",
    "country_id": 181,
    "country_code": "RO",
    "latitude": "47.05163000",
    "longitude": "26.90504000",
    "wikiDataId": null
  },
  {
    "id": 92844,
    "name": "Comuna Răducăneni",
    "state_id": 4735,
    "state_code": "IS",
    "country_id": 181,
    "country_code": "RO",
    "latitude": "46.95541000",
    "longitude": "27.97344000",
    "wikiDataId": null
  },
  {
    "id": 92761,
    "name": "Comuna Rediu-Tătar",
    "state_id": 4735,
    "state_code": "IS",
    "country_id": 181,
    "country_code": "RO",
    "latitude": "47.23169000",
    "longitude": "27.48747000",
    "wikiDataId": null
  },
  {
    "id": 92787,
    "name": "Comuna Româneşti",
    "state_id": 4735,
    "state_code": "IS",
    "country_id": 181,
    "country_code": "RO",
    "latitude": "47.27171000",
    "longitude": "27.35819000",
    "wikiDataId": null
  },
  {
    "id": 92794,
    "name": "Comuna Roşcani",
    "state_id": 4735,
    "state_code": "IS",
    "country_id": 181,
    "country_code": "RO",
    "latitude": "47.44259000",
    "longitude": "27.41778000",
    "wikiDataId": null
  },
  {
    "id": 92808,
    "name": "Comuna Ruginoasa",
    "state_id": 4735,
    "state_code": "IS",
    "country_id": 181,
    "country_code": "RO",
    "latitude": "47.25259000",
    "longitude": "26.85589000",
    "wikiDataId": null
  },
  {
    "id": 92901,
    "name": "Comuna Scânteia",
    "state_id": 4735,
    "state_code": "IS",
    "country_id": 181,
    "country_code": "RO",
    "latitude": "46.92408000",
    "longitude": "27.58855000",
    "wikiDataId": null
  },
  {
    "id": 92884,
    "name": "Comuna Scheia",
    "state_id": 4735,
    "state_code": "IS",
    "country_id": 181,
    "country_code": "RO",
    "latitude": "46.93950000",
    "longitude": "27.49765000",
    "wikiDataId": null
  },
  {
    "id": 92889,
    "name": "Comuna Schitu-Duca",
    "state_id": 4735,
    "state_code": "IS",
    "country_id": 181,
    "country_code": "RO",
    "latitude": "47.00255000",
    "longitude": "27.76703000",
    "wikiDataId": null
  },
  {
    "id": 92892,
    "name": "Comuna Scobinţi",
    "state_id": 4735,
    "state_code": "IS",
    "country_id": 181,
    "country_code": "RO",
    "latitude": "47.40529000",
    "longitude": "26.89850000",
    "wikiDataId": null
  },
  {
    "id": 92939,
    "name": "Comuna Sineşti",
    "state_id": 4735,
    "state_code": "IS",
    "country_id": 181,
    "country_code": "RO",
    "latitude": "47.12117000",
    "longitude": "27.18745000",
    "wikiDataId": null
  },
  {
    "id": 93528,
    "name": "Comuna Şipote",
    "state_id": 4735,
    "state_code": "IS",
    "country_id": 181,
    "country_code": "RO",
    "latitude": "47.46038000",
    "longitude": "27.22592000",
    "wikiDataId": null
  },
  {
    "id": 92943,
    "name": "Comuna Sireţel",
    "state_id": 4735,
    "state_code": "IS",
    "country_id": 181,
    "country_code": "RO",
    "latitude": "47.41840000",
    "longitude": "26.73381000",
    "wikiDataId": null
  },
  {
    "id": 92998,
    "name": "Comuna Stolniceni-Prăjescu",
    "state_id": 4735,
    "state_code": "IS",
    "country_id": 181,
    "country_code": "RO",
    "latitude": "47.18563000",
    "longitude": "26.73525000",
    "wikiDataId": null
  },
  {
    "id": 93007,
    "name": "Comuna Strunga",
    "state_id": 4735,
    "state_code": "IS",
    "country_id": 181,
    "country_code": "RO",
    "latitude": "47.16021000",
    "longitude": "26.94400000",
    "wikiDataId": null
  },
  {
    "id": 93124,
    "name": "Comuna Tansa",
    "state_id": 4735,
    "state_code": "IS",
    "country_id": 181,
    "country_code": "RO",
    "latitude": "46.90812000",
    "longitude": "27.24808000",
    "wikiDataId": null
  },
  {
    "id": 93245,
    "name": "Comuna Tătăruşi",
    "state_id": 4735,
    "state_code": "IS",
    "country_id": 181,
    "country_code": "RO",
    "latitude": "47.34254000",
    "longitude": "26.58590000",
    "wikiDataId": null
  },
  {
    "id": 93570,
    "name": "Comuna Ţibana",
    "state_id": 4735,
    "state_code": "IS",
    "country_id": 181,
    "country_code": "RO",
    "latitude": "46.98685000",
    "longitude": "27.32607000",
    "wikiDataId": null
  },
  {
    "id": 93572,
    "name": "Comuna Ţibăneşti",
    "state_id": 4735,
    "state_code": "IS",
    "country_id": 181,
    "country_code": "RO",
    "latitude": "46.91757000",
    "longitude": "27.33547000",
    "wikiDataId": null
  },
  {
    "id": 93574,
    "name": "Comuna Ţigănaşi",
    "state_id": 4735,
    "state_code": "IS",
    "country_id": 181,
    "country_code": "RO",
    "latitude": "47.34867000",
    "longitude": "27.45588000",
    "wikiDataId": null
  },
  {
    "id": 93165,
    "name": "Comuna Todireşti",
    "state_id": 4735,
    "state_code": "IS",
    "country_id": 181,
    "country_code": "RO",
    "latitude": "47.32137000",
    "longitude": "26.87743000",
    "wikiDataId": null
  },
  {
    "id": 93168,
    "name": "Comuna Tomeşti",
    "state_id": 4735,
    "state_code": "IS",
    "country_id": 181,
    "country_code": "RO",
    "latitude": "47.11704000",
    "longitude": "27.70476000",
    "wikiDataId": null
  },
  {
    "id": 93193,
    "name": "Comuna Trifeşti",
    "state_id": 4735,
    "state_code": "IS",
    "country_id": 181,
    "country_code": "RO",
    "latitude": "47.44992000",
    "longitude": "27.53175000",
    "wikiDataId": null
  },
  {
    "id": 93578,
    "name": "Comuna Ţuţora",
    "state_id": 4735,
    "state_code": "IS",
    "country_id": 181,
    "country_code": "RO",
    "latitude": "47.12578000",
    "longitude": "27.79866000",
    "wikiDataId": null
  },
  {
    "id": 93268,
    "name": "Comuna Ungheni",
    "state_id": 4735,
    "state_code": "IS",
    "country_id": 181,
    "country_code": "RO",
    "latitude": "47.20176000",
    "longitude": "27.74664000",
    "wikiDataId": null
  },
  {
    "id": 93321,
    "name": "Comuna Valea Seacă",
    "state_id": 4735,
    "state_code": "IS",
    "country_id": 181,
    "country_code": "RO",
    "latitude": "47.28840000",
    "longitude": "26.66455000",
    "wikiDataId": null
  },
  {
    "id": 93432,
    "name": "Comuna Vânãtori",
    "state_id": 4735,
    "state_code": "IS",
    "country_id": 181,
    "country_code": "RO",
    "latitude": "47.33379000",
    "longitude": "26.76404000",
    "wikiDataId": null
  },
  {
    "id": 93353,
    "name": "Comuna Victoria",
    "state_id": 4735,
    "state_code": "IS",
    "country_id": 181,
    "country_code": "RO",
    "latitude": "47.30749000",
    "longitude": "27.60170000",
    "wikiDataId": null
  },
  {
    "id": 93388,
    "name": "Comuna Vlădeni",
    "state_id": 4735,
    "state_code": "IS",
    "country_id": 181,
    "country_code": "RO",
    "latitude": "47.43756000",
    "longitude": "27.33560000",
    "wikiDataId": null
  },
  {
    "id": 93399,
    "name": "Comuna Voineşti",
    "state_id": 4735,
    "state_code": "IS",
    "country_id": 181,
    "country_code": "RO",
    "latitude": "47.07509000",
    "longitude": "27.42151000",
    "wikiDataId": null
  },
  {
    "id": 93599,
    "name": "Conțești",
    "state_id": 4735,
    "state_code": "IS",
    "country_id": 181,
    "country_code": "RO",
    "latitude": "47.30960000",
    "longitude": "26.65605000",
    "wikiDataId": null
  },
  {
    "id": 93650,
    "name": "Coropceni",
    "state_id": 4735,
    "state_code": "IS",
    "country_id": 181,
    "country_code": "RO",
    "latitude": "46.94193000",
    "longitude": "27.83710000",
    "wikiDataId": null
  },
  {
    "id": 93665,
    "name": "Costești",
    "state_id": 4735,
    "state_code": "IS",
    "country_id": 181,
    "country_code": "RO",
    "latitude": "47.23428000",
    "longitude": "26.92622000",
    "wikiDataId": null
  },
  {
    "id": 93669,
    "name": "Costuleni",
    "state_id": 4735,
    "state_code": "IS",
    "country_id": 181,
    "country_code": "RO",
    "latitude": "47.03333000",
    "longitude": "27.85000000",
    "wikiDataId": null
  },
  {
    "id": 93676,
    "name": "Cotnari",
    "state_id": 4735,
    "state_code": "IS",
    "country_id": 181,
    "country_code": "RO",
    "latitude": "47.35000000",
    "longitude": "26.98333000",
    "wikiDataId": null
  },
  {
    "id": 93679,
    "name": "Covasna",
    "state_id": 4735,
    "state_code": "IS",
    "country_id": 181,
    "country_code": "RO",
    "latitude": "47.00255000",
    "longitude": "27.85106000",
    "wikiDataId": null
  },
  {
    "id": 93683,
    "name": "Cozia",
    "state_id": 4735,
    "state_code": "IS",
    "country_id": 181,
    "country_code": "RO",
    "latitude": "47.00319000",
    "longitude": "27.89434000",
    "wikiDataId": null
  },
  {
    "id": 93686,
    "name": "Cozmeşti",
    "state_id": 4735,
    "state_code": "IS",
    "country_id": 181,
    "country_code": "RO",
    "latitude": "46.88333000",
    "longitude": "27.98333000",
    "wikiDataId": null
  },
  {
    "id": 93719,
    "name": "Cristeşti",
    "state_id": 4735,
    "state_code": "IS",
    "country_id": 181,
    "country_code": "RO",
    "latitude": "47.26667000",
    "longitude": "26.56667000",
    "wikiDataId": null
  },
  {
    "id": 93728,
    "name": "Crivești",
    "state_id": 4735,
    "state_code": "IS",
    "country_id": 181,
    "country_code": "RO",
    "latitude": "47.32430000",
    "longitude": "26.78240000",
    "wikiDataId": null
  },
  {
    "id": 93742,
    "name": "Crucea",
    "state_id": 4735,
    "state_code": "IS",
    "country_id": 181,
    "country_code": "RO",
    "latitude": "47.16567000",
    "longitude": "27.17093000",
    "wikiDataId": null
  },
  {
    "id": 93762,
    "name": "Cucuteni",
    "state_id": 4735,
    "state_code": "IS",
    "country_id": 181,
    "country_code": "RO",
    "latitude": "47.28333000",
    "longitude": "26.93333000",
    "wikiDataId": null
  },
  {
    "id": 93887,
    "name": "Dagâţa",
    "state_id": 4735,
    "state_code": "IS",
    "country_id": 181,
    "country_code": "RO",
    "latitude": "46.91910770",
    "longitude": "27.19357290",
    "wikiDataId": null
  },
  {
    "id": 93892,
    "name": "Dancu",
    "state_id": 4735,
    "state_code": "IS",
    "country_id": 181,
    "country_code": "RO",
    "latitude": "47.15417000",
    "longitude": "27.66623000",
    "wikiDataId": null
  },
  {
    "id": 93915,
    "name": "Deleni",
    "state_id": 4735,
    "state_code": "IS",
    "country_id": 181,
    "country_code": "RO",
    "latitude": "47.46667000",
    "longitude": "26.88333000",
    "wikiDataId": null
  },
  {
    "id": 93969,
    "name": "Dobrovăţ",
    "state_id": 4735,
    "state_code": "IS",
    "country_id": 181,
    "country_code": "RO",
    "latitude": "46.95000000",
    "longitude": "27.70000000",
    "wikiDataId": null
  },
  {
    "id": 93983,
    "name": "Dolheşti",
    "state_id": 4735,
    "state_code": "IS",
    "country_id": 181,
    "country_code": "RO",
    "latitude": "46.86667000",
    "longitude": "27.90000000",
    "wikiDataId": null
  },
  {
    "id": 93993,
    "name": "Domnița",
    "state_id": 4735,
    "state_code": "IS",
    "country_id": 181,
    "country_code": "RO",
    "latitude": "47.02091000",
    "longitude": "27.33500000",
    "wikiDataId": null
  },
  {
    "id": 94053,
    "name": "Drăgușeni",
    "state_id": 4735,
    "state_code": "IS",
    "country_id": 181,
    "country_code": "RO",
    "latitude": "46.90116000",
    "longitude": "27.51260000",
    "wikiDataId": null
  },
  {
    "id": 94076,
    "name": "Dumbrava",
    "state_id": 4735,
    "state_code": "IS",
    "country_id": 181,
    "country_code": "RO",
    "latitude": "47.07578000",
    "longitude": "27.55174000",
    "wikiDataId": null
  },
  {
    "id": 94091,
    "name": "Dumbrăvița",
    "state_id": 4735,
    "state_code": "IS",
    "country_id": 181,
    "country_code": "RO",
    "latitude": "47.25483000",
    "longitude": "26.84169000",
    "wikiDataId": null
  },
  {
    "id": 94096,
    "name": "Dumeşti",
    "state_id": 4735,
    "state_code": "IS",
    "country_id": 181,
    "country_code": "RO",
    "latitude": "47.18333000",
    "longitude": "27.35000000",
    "wikiDataId": null
  },
  {
    "id": 94144,
    "name": "Erbiceni",
    "state_id": 4735,
    "state_code": "IS",
    "country_id": 181,
    "country_code": "RO",
    "latitude": "47.26667000",
    "longitude": "27.23333000",
    "wikiDataId": null
  },
  {
    "id": 94241,
    "name": "Fântânele",
    "state_id": 4735,
    "state_code": "IS",
    "country_id": 181,
    "country_code": "RO",
    "latitude": "47.41497750",
    "longitude": "27.18066400",
    "wikiDataId": null
  },
  {
    "id": 94266,
    "name": "Fărcășeni",
    "state_id": 4735,
    "state_code": "IS",
    "country_id": 181,
    "country_code": "RO",
    "latitude": "47.15987000",
    "longitude": "26.89615000",
    "wikiDataId": null
  },
  {
    "id": 94161,
    "name": "Fetești",
    "state_id": 4735,
    "state_code": "IS",
    "country_id": 181,
    "country_code": "RO",
    "latitude": "47.40932000",
    "longitude": "26.90885000",
    "wikiDataId": null
  },
  {
    "id": 94192,
    "name": "Focuri",
    "state_id": 4735,
    "state_code": "IS",
    "country_id": 181,
    "country_code": "RO",
    "latitude": "47.35000000",
    "longitude": "27.21667000",
    "wikiDataId": null
  },
  {
    "id": 94481,
    "name": "Gârbești",
    "state_id": 4735,
    "state_code": "IS",
    "country_id": 181,
    "country_code": "RO",
    "latitude": "46.98333000",
    "longitude": "27.30000000",
    "wikiDataId": null
  },
  {
    "id": 94363,
    "name": "Glodenii Gândului",
    "state_id": 4735,
    "state_code": "IS",
    "country_id": 181,
    "country_code": "RO",
    "latitude": "46.95158000",
    "longitude": "27.29938000",
    "wikiDataId": null
  },
  {
    "id": 94370,
    "name": "Goești",
    "state_id": 4735,
    "state_code": "IS",
    "country_id": 181,
    "country_code": "RO",
    "latitude": "47.15654000",
    "longitude": "27.13659000",
    "wikiDataId": null
  },
  {
    "id": 94380,
    "name": "Golăiești",
    "state_id": 4735,
    "state_code": "IS",
    "country_id": 181,
    "country_code": "RO",
    "latitude": "47.23333000",
    "longitude": "27.70000000",
    "wikiDataId": null
  },
  {
    "id": 94382,
    "name": "Gorban",
    "state_id": 4735,
    "state_code": "IS",
    "country_id": 181,
    "country_code": "RO",
    "latitude": "46.87611000",
    "longitude": "28.07889000",
    "wikiDataId": null
  },
  {
    "id": 94391,
    "name": "Goruni",
    "state_id": 4735,
    "state_code": "IS",
    "country_id": 181,
    "country_code": "RO",
    "latitude": "47.10389000",
    "longitude": "27.71854000",
    "wikiDataId": null
  },
  {
    "id": 94400,
    "name": "Grajduri",
    "state_id": 4735,
    "state_code": "IS",
    "country_id": 181,
    "country_code": "RO",
    "latitude": "46.96667000",
    "longitude": "27.51667000",
    "wikiDataId": null
  },
  {
    "id": 94420,
    "name": "Gropniţa",
    "state_id": 4735,
    "state_code": "IS",
    "country_id": 181,
    "country_code": "RO",
    "latitude": "47.35000000",
    "longitude": "27.25000000",
    "wikiDataId": null
  },
  {
    "id": 94422,
    "name": "Grozeşti",
    "state_id": 4735,
    "state_code": "IS",
    "country_id": 181,
    "country_code": "RO",
    "latitude": "46.99083000",
    "longitude": "28.05056000",
    "wikiDataId": null
  },
  {
    "id": 94602,
    "name": "Hălăuceşti",
    "state_id": 4735,
    "state_code": "IS",
    "country_id": 181,
    "country_code": "RO",
    "latitude": "47.10000000",
    "longitude": "26.80000000",
    "wikiDataId": null
  },
  {
    "id": 94588,
    "name": "Hârlău",
    "state_id": 4735,
    "state_code": "IS",
    "country_id": 181,
    "country_code": "RO",
    "latitude": "47.43333000",
    "longitude": "26.90000000",
    "wikiDataId": null
  },
  {
    "id": 94606,
    "name": "Hărmăneasa",
    "state_id": 4735,
    "state_code": "IS",
    "country_id": 181,
    "country_code": "RO",
    "latitude": "47.20000000",
    "longitude": "26.86667000",
    "wikiDataId": null
  },
  {
    "id": 94607,
    "name": "Hărmăneștii Vechi",
    "state_id": 4735,
    "state_code": "IS",
    "country_id": 181,
    "country_code": "RO",
    "latitude": "47.27732000",
    "longitude": "26.81394000",
    "wikiDataId": null
  },
  {
    "id": 94591,
    "name": "Hârtoape",
    "state_id": 4735,
    "state_code": "IS",
    "country_id": 181,
    "country_code": "RO",
    "latitude": "47.32164000",
    "longitude": "26.72459000",
    "wikiDataId": null
  },
  {
    "id": 94526,
    "name": "Heci",
    "state_id": 4735,
    "state_code": "IS",
    "country_id": 181,
    "country_code": "RO",
    "latitude": "47.34325000",
    "longitude": "26.66226000",
    "wikiDataId": null
  },
  {
    "id": 94528,
    "name": "Heleșteni",
    "state_id": 4735,
    "state_code": "IS",
    "country_id": 181,
    "country_code": "RO",
    "latitude": "47.20303000",
    "longitude": "26.87755000",
    "wikiDataId": null
  },
  {
    "id": 94544,
    "name": "Hodora",
    "state_id": 4735,
    "state_code": "IS",
    "country_id": 181,
    "country_code": "RO",
    "latitude": "47.33712000",
    "longitude": "27.01970000",
    "wikiDataId": null
  },
  {
    "id": 94549,
    "name": "Holboca",
    "state_id": 4735,
    "state_code": "IS",
    "country_id": 181,
    "country_code": "RO",
    "latitude": "47.15000000",
    "longitude": "27.70000000",
    "wikiDataId": null
  },
  {
    "id": 94564,
    "name": "Horleşti",
    "state_id": 4735,
    "state_code": "IS",
    "country_id": 181,
    "country_code": "RO",
    "latitude": "47.11667000",
    "longitude": "27.36667000",
    "wikiDataId": null
  },
  {
    "id": 94630,
    "name": "Iaşi",
    "state_id": 4735,
    "state_code": "IS",
    "country_id": 181,
    "country_code": "RO",
    "latitude": "47.16667000",
    "longitude": "27.60000000",
    "wikiDataId": null
  },
  {
    "id": 94628,
    "name": "Iazu Nou",
    "state_id": 4735,
    "state_code": "IS",
    "country_id": 181,
    "country_code": "RO",
    "latitude": "47.48272000",
    "longitude": "27.20913000",
    "wikiDataId": null
  },
  {
    "id": 94675,
    "name": "Ion Neculce",
    "state_id": 4735,
    "state_code": "IS",
    "country_id": 181,
    "country_code": "RO",
    "latitude": "47.20344000",
    "longitude": "27.05268000",
    "wikiDataId": null
  },
  {
    "id": 94683,
    "name": "Ipatele",
    "state_id": 4735,
    "state_code": "IS",
    "country_id": 181,
    "country_code": "RO",
    "latitude": "46.91667000",
    "longitude": "27.41667000",
    "wikiDataId": null
  },
  {
    "id": 94695,
    "name": "Iugani",
    "state_id": 4735,
    "state_code": "IS",
    "country_id": 181,
    "country_code": "RO",
    "latitude": "47.04431000",
    "longitude": "26.82891000",
    "wikiDataId": null
  },
  {
    "id": 94706,
    "name": "Izvoarele",
    "state_id": 4735,
    "state_code": "IS",
    "country_id": 181,
    "country_code": "RO",
    "latitude": "47.04241000",
    "longitude": "26.90230000",
    "wikiDataId": null
  },
  {
    "id": 94782,
    "name": "Lespezi",
    "state_id": 4735,
    "state_code": "IS",
    "country_id": 181,
    "country_code": "RO",
    "latitude": "47.36667000",
    "longitude": "26.70000000",
    "wikiDataId": null
  },
  {
    "id": 94791,
    "name": "Leţcani",
    "state_id": 4735,
    "state_code": "IS",
    "country_id": 181,
    "country_code": "RO",
    "latitude": "47.18333000",
    "longitude": "27.41667000",
    "wikiDataId": null
  },
  {
    "id": 94810,
    "name": "Liteni",
    "state_id": 4735,
    "state_code": "IS",
    "country_id": 181,
    "country_code": "RO",
    "latitude": "47.30169000",
    "longitude": "27.03837000",
    "wikiDataId": null
  },
  {
    "id": 94853,
    "name": "Lunca",
    "state_id": 4735,
    "state_code": "IS",
    "country_id": 181,
    "country_code": "RO",
    "latitude": "47.28144000",
    "longitude": "26.73708000",
    "wikiDataId": null
  },
  {
    "id": 94863,
    "name": "Lunca Cetățuii",
    "state_id": 4735,
    "state_code": "IS",
    "country_id": 181,
    "country_code": "RO",
    "latitude": "47.09660000",
    "longitude": "27.56319000",
    "wikiDataId": null
  },
  {
    "id": 94880,
    "name": "Lungani",
    "state_id": 4735,
    "state_code": "IS",
    "country_id": 181,
    "country_code": "RO",
    "latitude": "47.18333000",
    "longitude": "27.15000000",
    "wikiDataId": null
  },
  {
    "id": 95232,
    "name": "Mădârjac",
    "state_id": 4735,
    "state_code": "IS",
    "country_id": 181,
    "country_code": "RO",
    "latitude": "47.04994000",
    "longitude": "27.26182000",
    "wikiDataId": null
  },
  {
    "id": 95261,
    "name": "Mănăstirea",
    "state_id": 4735,
    "state_code": "IS",
    "country_id": 181,
    "country_code": "RO",
    "latitude": "46.95000000",
    "longitude": "27.20000000",
    "wikiDataId": null
  },
  {
    "id": 94940,
    "name": "Maxut",
    "state_id": 4735,
    "state_code": "IS",
    "country_id": 181,
    "country_code": "RO",
    "latitude": "47.44040000",
    "longitude": "26.89204000",
    "wikiDataId": null
  },
  {
    "id": 95014,
    "name": "Mirceşti",
    "state_id": 4735,
    "state_code": "IS",
    "country_id": 181,
    "country_code": "RO",
    "latitude": "47.08333000",
    "longitude": "26.83333000",
    "wikiDataId": null
  },
  {
    "id": 95019,
    "name": "Mironeasa",
    "state_id": 4735,
    "state_code": "IS",
    "country_id": 181,
    "country_code": "RO",
    "latitude": "46.96667000",
    "longitude": "27.41667000",
    "wikiDataId": null
  },
  {
    "id": 95021,
    "name": "Miroslava",
    "state_id": 4735,
    "state_code": "IS",
    "country_id": 181,
    "country_code": "RO",
    "latitude": "47.15000000",
    "longitude": "27.51667000",
    "wikiDataId": null
  },
  {
    "id": 95022,
    "name": "Miroslovești",
    "state_id": 4735,
    "state_code": "IS",
    "country_id": 181,
    "country_code": "RO",
    "latitude": "47.15000000",
    "longitude": "26.65000000",
    "wikiDataId": null
  },
  {
    "id": 95053,
    "name": "Mogoşeşti",
    "state_id": 4735,
    "state_code": "IS",
    "country_id": 181,
    "country_code": "RO",
    "latitude": "47.03333000",
    "longitude": "27.53333000",
    "wikiDataId": null
  },
  {
    "id": 95054,
    "name": "Mogoşeşti-Siret",
    "state_id": 4735,
    "state_code": "IS",
    "country_id": 181,
    "country_code": "RO",
    "latitude": "47.13333000",
    "longitude": "26.78333000",
    "wikiDataId": null
  },
  {
    "id": 95088,
    "name": "Moşna",
    "state_id": 4735,
    "state_code": "IS",
    "country_id": 181,
    "country_code": "RO",
    "latitude": "46.91667000",
    "longitude": "27.95000000",
    "wikiDataId": null
  },
  {
    "id": 95092,
    "name": "Moţca",
    "state_id": 4735,
    "state_code": "IS",
    "country_id": 181,
    "country_code": "RO",
    "latitude": "47.25000000",
    "longitude": "26.61667000",
    "wikiDataId": null
  },
  {
    "id": 95083,
    "name": "Movileni",
    "state_id": 4735,
    "state_code": "IS",
    "country_id": 181,
    "country_code": "RO",
    "latitude": "47.31667000",
    "longitude": "27.35000000",
    "wikiDataId": null
  },
  {
    "id": 95100,
    "name": "Muncelu de Sus",
    "state_id": 4735,
    "state_code": "IS",
    "country_id": 181,
    "country_code": "RO",
    "latitude": "47.12384000",
    "longitude": "26.73518000",
    "wikiDataId": null
  },
  {
    "id": 95150,
    "name": "Municipiul Iaşi",
    "state_id": 4735,
    "state_code": "IS",
    "country_id": 181,
    "country_code": "RO",
    "latitude": "47.16184000",
    "longitude": "27.58451000",
    "wikiDataId": null
  },
  {
    "id": 95166,
    "name": "Municipiul Paşcani",
    "state_id": 4735,
    "state_code": "IS",
    "country_id": 181,
    "country_code": "RO",
    "latitude": "47.24736000",
    "longitude": "26.71235000",
    "wikiDataId": null
  },
  {
    "id": 95199,
    "name": "Munteni",
    "state_id": 4735,
    "state_code": "IS",
    "country_id": 181,
    "country_code": "RO",
    "latitude": "47.31530000",
    "longitude": "27.13839000",
    "wikiDataId": null
  },
  {
    "id": 95531,
    "name": "Oraş Hârlãu",
    "state_id": 4735,
    "state_code": "IS",
    "country_id": 181,
    "country_code": "RO",
    "latitude": "47.43153000",
    "longitude": "26.87774000",
    "wikiDataId": null
  },
  {
    "id": 95569,
    "name": "Oraş Podu Iloaiei",
    "state_id": 4735,
    "state_code": "IS",
    "country_id": 181,
    "country_code": "RO",
    "latitude": "47.20807000",
    "longitude": "27.26548000",
    "wikiDataId": null
  },
  {
    "id": 95607,
    "name": "Oraş Târgu Frumos",
    "state_id": 4735,
    "state_code": "IS",
    "country_id": 181,
    "country_code": "RO",
    "latitude": "47.20788000",
    "longitude": "27.01196000",
    "wikiDataId": null
  },
  {
    "id": 95674,
    "name": "Osoi",
    "state_id": 4735,
    "state_code": "IS",
    "country_id": 181,
    "country_code": "RO",
    "latitude": "47.09479000",
    "longitude": "27.80091000",
    "wikiDataId": null
  },
  {
    "id": 95689,
    "name": "Oţeleni",
    "state_id": 4735,
    "state_code": "IS",
    "country_id": 181,
    "country_code": "RO",
    "latitude": "47.08333000",
    "longitude": "27.03333000",
    "wikiDataId": null
  },
  {
    "id": 95998,
    "name": "Pârcovaci",
    "state_id": 4735,
    "state_code": "IS",
    "country_id": 181,
    "country_code": "RO",
    "latitude": "47.43586000",
    "longitude": "26.85075000",
    "wikiDataId": null
  },
  {
    "id": 95718,
    "name": "Paşcani",
    "state_id": 4735,
    "state_code": "IS",
    "country_id": 181,
    "country_code": "RO",
    "latitude": "47.24690000",
    "longitude": "26.72291000",
    "wikiDataId": null
  },
  {
    "id": 96036,
    "name": "Păușești",
    "state_id": 4735,
    "state_code": "IS",
    "country_id": 181,
    "country_code": "RO",
    "latitude": "47.15810000",
    "longitude": "27.32594000",
    "wikiDataId": null
  },
  {
    "id": 95730,
    "name": "Perieni",
    "state_id": 4735,
    "state_code": "IS",
    "country_id": 181,
    "country_code": "RO",
    "latitude": "47.38469000",
    "longitude": "27.47453000",
    "wikiDataId": null
  },
  {
    "id": 95786,
    "name": "Pietrosu",
    "state_id": 4735,
    "state_code": "IS",
    "country_id": 181,
    "country_code": "RO",
    "latitude": "47.34118000",
    "longitude": "26.60817000",
    "wikiDataId": null
  },
  {
    "id": 95831,
    "name": "Plugari",
    "state_id": 4735,
    "state_code": "IS",
    "country_id": 181,
    "country_code": "RO",
    "latitude": "47.48333000",
    "longitude": "27.10000000",
    "wikiDataId": null
  },
  {
    "id": 95849,
    "name": "Podolenii de Sus",
    "state_id": 4735,
    "state_code": "IS",
    "country_id": 181,
    "country_code": "RO",
    "latitude": "46.85716000",
    "longitude": "28.01545000",
    "wikiDataId": null
  },
  {
    "id": 95850,
    "name": "Podu Iloaiei",
    "state_id": 4735,
    "state_code": "IS",
    "country_id": 181,
    "country_code": "RO",
    "latitude": "47.21667000",
    "longitude": "27.26667000",
    "wikiDataId": null
  },
  {
    "id": 95862,
    "name": "Poiana",
    "state_id": 4735,
    "state_code": "IS",
    "country_id": 181,
    "country_code": "RO",
    "latitude": "47.49299000",
    "longitude": "26.86387000",
    "wikiDataId": null
  },
  {
    "id": 95877,
    "name": "Poiana Mărului",
    "state_id": 4735,
    "state_code": "IS",
    "country_id": 181,
    "country_code": "RO",
    "latitude": "47.37951000",
    "longitude": "26.89243000",
    "wikiDataId": null
  },
  {
    "id": 95893,
    "name": "Poienile",
    "state_id": 4735,
    "state_code": "IS",
    "country_id": 181,
    "country_code": "RO",
    "latitude": "46.96087920",
    "longitude": "27.21056600",
    "wikiDataId": null
  },
  {
    "id": 95909,
    "name": "Popeşti",
    "state_id": 4735,
    "state_code": "IS",
    "country_id": 181,
    "country_code": "RO",
    "latitude": "47.15000000",
    "longitude": "27.23333000",
    "wikiDataId": null
  },
  {
    "id": 95919,
    "name": "Popricani",
    "state_id": 4735,
    "state_code": "IS",
    "country_id": 181,
    "country_code": "RO",
    "latitude": "47.30000000",
    "longitude": "27.51667000",
    "wikiDataId": null
  },
  {
    "id": 95956,
    "name": "Prisăcani",
    "state_id": 4735,
    "state_code": "IS",
    "country_id": 181,
    "country_code": "RO",
    "latitude": "47.08333000",
    "longitude": "27.88333000",
    "wikiDataId": null
  },
  {
    "id": 95957,
    "name": "Probota",
    "state_id": 4735,
    "state_code": "IS",
    "country_id": 181,
    "country_code": "RO",
    "latitude": "47.38333000",
    "longitude": "27.50000000",
    "wikiDataId": null
  },
  {
    "id": 96185,
    "name": "Răchiteni",
    "state_id": 4735,
    "state_code": "IS",
    "country_id": 181,
    "country_code": "RO",
    "latitude": "47.05347000",
    "longitude": "26.91730000",
    "wikiDataId": null
  },
  {
    "id": 96199,
    "name": "Răducăneni",
    "state_id": 4735,
    "state_code": "IS",
    "country_id": 181,
    "country_code": "RO",
    "latitude": "46.95000000",
    "longitude": "27.93333000",
    "wikiDataId": null
  },
  {
    "id": 96213,
    "name": "Războieni",
    "state_id": 4735,
    "state_code": "IS",
    "country_id": 181,
    "country_code": "RO",
    "latitude": "47.21754000",
    "longitude": "27.05039000",
    "wikiDataId": null
  },
  {
    "id": 96075,
    "name": "Rediu",
    "state_id": 4735,
    "state_code": "IS",
    "country_id": 181,
    "country_code": "RO",
    "latitude": "47.21667000",
    "longitude": "27.50000000",
    "wikiDataId": null
  },
  {
    "id": 96110,
    "name": "Româneşti",
    "state_id": 4735,
    "state_code": "IS",
    "country_id": 181,
    "country_code": "RO",
    "latitude": "47.28333000",
    "longitude": "27.31667000",
    "wikiDataId": null
  },
  {
    "id": 96134,
    "name": "Roșcani",
    "state_id": 4735,
    "state_code": "IS",
    "country_id": 181,
    "country_code": "RO",
    "latitude": "47.45581000",
    "longitude": "27.40021000",
    "wikiDataId": null
  },
  {
    "id": 96148,
    "name": "Ruginoasa",
    "state_id": 4735,
    "state_code": "IS",
    "country_id": 181,
    "country_code": "RO",
    "latitude": "47.25000000",
    "longitude": "26.85000000",
    "wikiDataId": null
  },
  {
    "id": 96259,
    "name": "Satu Nou",
    "state_id": 4735,
    "state_code": "IS",
    "country_id": 181,
    "country_code": "RO",
    "latitude": "47.32147000",
    "longitude": "27.09555000",
    "wikiDataId": null
  },
  {
    "id": 96292,
    "name": "Scânteia",
    "state_id": 4735,
    "state_code": "IS",
    "country_id": 181,
    "country_code": "RO",
    "latitude": "46.91667000",
    "longitude": "27.56667000",
    "wikiDataId": null
  },
  {
    "id": 96265,
    "name": "Scheia",
    "state_id": 4735,
    "state_code": "IS",
    "country_id": 181,
    "country_code": "RO",
    "latitude": "47.11725000",
    "longitude": "26.88153000",
    "wikiDataId": null
  },
  {
    "id": 96273,
    "name": "Schitu-Duca",
    "state_id": 4735,
    "state_code": "IS",
    "country_id": 181,
    "country_code": "RO",
    "latitude": "47.03333000",
    "longitude": "27.76667000",
    "wikiDataId": null
  },
  {
    "id": 96277,
    "name": "Scobinţi",
    "state_id": 4735,
    "state_code": "IS",
    "country_id": 181,
    "country_code": "RO",
    "latitude": "47.38333000",
    "longitude": "26.93333000",
    "wikiDataId": null
  },
  {
    "id": 96352,
    "name": "Sineşti",
    "state_id": 4735,
    "state_code": "IS",
    "country_id": 181,
    "country_code": "RO",
    "latitude": "47.11441290",
    "longitude": "27.19340220",
    "wikiDataId": null
  },
  {
    "id": 97057,
    "name": "Şipote",
    "state_id": 4735,
    "state_code": "IS",
    "country_id": 181,
    "country_code": "RO",
    "latitude": "47.46667000",
    "longitude": "27.21667000",
    "wikiDataId": null
  },
  {
    "id": 96359,
    "name": "Sireţel",
    "state_id": 4735,
    "state_code": "IS",
    "country_id": 181,
    "country_code": "RO",
    "latitude": "47.40000000",
    "longitude": "26.73333000",
    "wikiDataId": null
  },
  {
    "id": 96371,
    "name": "Slobozia",
    "state_id": 4735,
    "state_code": "IS",
    "country_id": 181,
    "country_code": "RO",
    "latitude": "47.05758000",
    "longitude": "27.41446000",
    "wikiDataId": null
  },
  {
    "id": 96395,
    "name": "Soci",
    "state_id": 4735,
    "state_code": "IS",
    "country_id": 181,
    "country_code": "RO",
    "latitude": "47.18573000",
    "longitude": "26.64446000",
    "wikiDataId": null
  },
  {
    "id": 96399,
    "name": "Sodomeni",
    "state_id": 4735,
    "state_code": "IS",
    "country_id": 181,
    "country_code": "RO",
    "latitude": "47.22233000",
    "longitude": "26.68805000",
    "wikiDataId": null
  },
  {
    "id": 96431,
    "name": "Sticlăria",
    "state_id": 4735,
    "state_code": "IS",
    "country_id": 181,
    "country_code": "RO",
    "latitude": "47.40115000",
    "longitude": "26.83797000",
    "wikiDataId": null
  },
  {
    "id": 96442,
    "name": "Stolniceni-Prăjescu",
    "state_id": 4735,
    "state_code": "IS",
    "country_id": 181,
    "country_code": "RO",
    "latitude": "47.19858000",
    "longitude": "26.74810000",
    "wikiDataId": null
  },
  {
    "id": 96445,
    "name": "Stornești",
    "state_id": 4735,
    "state_code": "IS",
    "country_id": 181,
    "country_code": "RO",
    "latitude": "47.11571450",
    "longitude": "27.16625190",
    "wikiDataId": null
  },
  {
    "id": 96459,
    "name": "Strunga",
    "state_id": 4735,
    "state_code": "IS",
    "country_id": 181,
    "country_code": "RO",
    "latitude": "47.16667000",
    "longitude": "26.98333000",
    "wikiDataId": null
  },
  {
    "id": 96497,
    "name": "Suhuleț",
    "state_id": 4735,
    "state_code": "IS",
    "country_id": 181,
    "country_code": "RO",
    "latitude": "46.90368000",
    "longitude": "27.25849000",
    "wikiDataId": null
  },
  {
    "id": 106050,
    "name": "Tabăra",
    "state_id": 4735,
    "state_code": "IS",
    "country_id": 181,
    "country_code": "RO",
    "latitude": "47.57395000",
    "longitude": "27.41213000",
    "wikiDataId": null
  },
  {
    "id": 106058,
    "name": "Tansa",
    "state_id": 4735,
    "state_code": "IS",
    "country_id": 181,
    "country_code": "RO",
    "latitude": "46.91667000",
    "longitude": "27.23333000",
    "wikiDataId": null
  },
  {
    "id": 96583,
    "name": "Târgu Frumos",
    "state_id": 4735,
    "state_code": "IS",
    "country_id": 181,
    "country_code": "RO",
    "latitude": "47.20000000",
    "longitude": "27.00000000",
    "wikiDataId": null
  },
  {
    "id": 96620,
    "name": "Tătăruşi",
    "state_id": 4735,
    "state_code": "IS",
    "country_id": 181,
    "country_code": "RO",
    "latitude": "47.35000000",
    "longitude": "26.60000000",
    "wikiDataId": null
  },
  {
    "id": 97101,
    "name": "Ţibana",
    "state_id": 4735,
    "state_code": "IS",
    "country_id": 181,
    "country_code": "RO",
    "latitude": "46.98333000",
    "longitude": "27.33333000",
    "wikiDataId": null
  },
  {
    "id": 97103,
    "name": "Ţibăneşti",
    "state_id": 4735,
    "state_code": "IS",
    "country_id": 181,
    "country_code": "RO",
    "latitude": "46.91667000",
    "longitude": "27.33333000",
    "wikiDataId": null
  },
  {
    "id": 97106,
    "name": "Ţigănaşi",
    "state_id": 4735,
    "state_code": "IS",
    "country_id": 181,
    "country_code": "RO",
    "latitude": "47.33333000",
    "longitude": "27.46667000",
    "wikiDataId": null
  },
  {
    "id": 106115,
    "name": "Todireşti",
    "state_id": 4735,
    "state_code": "IS",
    "country_id": 181,
    "country_code": "RO",
    "latitude": "47.31667000",
    "longitude": "26.83333000",
    "wikiDataId": null
  },
  {
    "id": 106121,
    "name": "Tomeşti",
    "state_id": 4735,
    "state_code": "IS",
    "country_id": 181,
    "country_code": "RO",
    "latitude": "47.11667000",
    "longitude": "27.68333000",
    "wikiDataId": null
  },
  {
    "id": 106129,
    "name": "Topile",
    "state_id": 4735,
    "state_code": "IS",
    "country_id": 181,
    "country_code": "RO",
    "latitude": "47.26340000",
    "longitude": "26.66883000",
    "wikiDataId": null
  },
  {
    "id": 106143,
    "name": "Totoești",
    "state_id": 4735,
    "state_code": "IS",
    "country_id": 181,
    "country_code": "RO",
    "latitude": "47.25107000",
    "longitude": "27.28879000",
    "wikiDataId": null
  },
  {
    "id": 106156,
    "name": "Trifeşti",
    "state_id": 4735,
    "state_code": "IS",
    "country_id": 181,
    "country_code": "RO",
    "latitude": "47.45000000",
    "longitude": "27.51667000",
    "wikiDataId": null
  },
  {
    "id": 97110,
    "name": "Ţuţora",
    "state_id": 4735,
    "state_code": "IS",
    "country_id": 181,
    "country_code": "RO",
    "latitude": "47.13333000",
    "longitude": "27.78333000",
    "wikiDataId": null
  },
  {
    "id": 96634,
    "name": "Uda",
    "state_id": 4735,
    "state_code": "IS",
    "country_id": 181,
    "country_code": "RO",
    "latitude": "47.33645000",
    "longitude": "26.57165000",
    "wikiDataId": null
  },
  {
    "id": 96732,
    "name": "Valea Lupului",
    "state_id": 4735,
    "state_code": "IS",
    "country_id": 181,
    "country_code": "RO",
    "latitude": "47.17738570",
    "longitude": "27.50213930",
    "wikiDataId": null
  },
  {
    "id": 96753,
    "name": "Valea Seacă",
    "state_id": 4735,
    "state_code": "IS",
    "country_id": 181,
    "country_code": "RO",
    "latitude": "47.29219000",
    "longitude": "26.66876000",
    "wikiDataId": null
  },
  {
    "id": 96930,
    "name": "Vânători",
    "state_id": 4735,
    "state_code": "IS",
    "country_id": 181,
    "country_code": "RO",
    "latitude": "47.23333000",
    "longitude": "27.53333000",
    "wikiDataId": null
  },
  {
    "id": 96792,
    "name": "Verșeni",
    "state_id": 4735,
    "state_code": "IS",
    "country_id": 181,
    "country_code": "RO",
    "latitude": "47.11294000",
    "longitude": "26.64341000",
    "wikiDataId": null
  },
  {
    "id": 96805,
    "name": "Victoria",
    "state_id": 4735,
    "state_code": "IS",
    "country_id": 181,
    "country_code": "RO",
    "latitude": "47.28333000",
    "longitude": "27.58333000",
    "wikiDataId": null
  },
  {
    "id": 96862,
    "name": "Vlădeni",
    "state_id": 4735,
    "state_code": "IS",
    "country_id": 181,
    "country_code": "RO",
    "latitude": "47.41667000",
    "longitude": "27.33333000",
    "wikiDataId": null
  },
  {
    "id": 96881,
    "name": "Voineşti",
    "state_id": 4735,
    "state_code": "IS",
    "country_id": 181,
    "country_code": "RO",
    "latitude": "47.06667000",
    "longitude": "27.41667000",
    "wikiDataId": null
  },
  {
    "id": 96978,
    "name": "Zagavia",
    "state_id": 4735,
    "state_code": "IS",
    "country_id": 181,
    "country_code": "RO",
    "latitude": "47.41911000",
    "longitude": "26.89790000",
    "wikiDataId": null
  },
  {
    "id": 97001,
    "name": "Zmeu",
    "state_id": 4735,
    "state_code": "IS",
    "country_id": 181,
    "country_code": "RO",
    "latitude": "47.19161000",
    "longitude": "27.17917000",
    "wikiDataId": null
  }
]