[
  {
    "id": 76749,
    "name": "Abuja",
    "state_id": 293,
    "state_code": "FC",
    "country_id": 161,
    "country_code": "NG",
    "latitude": "9.05785000",
    "longitude": "7.49508000",
    "wikiDataId": null
  },
  {
    "id": 153367,
    "name": "Asokoro",
    "state_id": 293,
    "state_code": "FC",
    "country_id": 161,
    "country_code": "NG",
    "latitude": "9.04790000",
    "longitude": "7.51550000",
    "wikiDataId": null
  },
  {
    "id": 153362,
    "name": "Bamburu",
    "state_id": 293,
    "state_code": "FC",
    "country_id": 161,
    "country_code": "NG",
    "latitude": "9.11360000",
    "longitude": "7.10960000",
    "wikiDataId": null
  },
  {
    "id": 153366,
    "name": "Garki",
    "state_id": 293,
    "state_code": "FC",
    "country_id": 161,
    "country_code": "NG",
    "latitude": "9.03190000",
    "longitude": "7.48280000",
    "wikiDataId": null
  },
  {
    "id": 153364,
    "name": "Gwagwalada",
    "state_id": 293,
    "state_code": "FC",
    "country_id": 161,
    "country_code": "NG",
    "latitude": "8.95080000",
    "longitude": "7.07670000",
    "wikiDataId": null
  },
  {
    "id": 153363,
    "name": "Gwarinpa",
    "state_id": 293,
    "state_code": "FC",
    "country_id": 161,
    "country_code": "NG",
    "latitude": "9.10990000",
    "longitude": "7.40420000",
    "wikiDataId": null
  },
  {
    "id": 153371,
    "name": "Jikwoyi",
    "state_id": 293,
    "state_code": "FC",
    "country_id": 161,
    "country_code": "NG",
    "latitude": "8.99130000",
    "longitude": "7.55630000",
    "wikiDataId": null
  },
  {
    "id": 153368,
    "name": "Karu",
    "state_id": 293,
    "state_code": "FC",
    "country_id": 161,
    "country_code": "NG",
    "latitude": "8.99280000",
    "longitude": "7.57250000",
    "wikiDataId": null
  },
  {
    "id": 153369,
    "name": "Kubwa",
    "state_id": 293,
    "state_code": "FC",
    "country_id": 161,
    "country_code": "NG",
    "latitude": "9.15380000",
    "longitude": "7.32200000",
    "wikiDataId": null
  },
  {
    "id": 76990,
    "name": "Kuje",
    "state_id": 293,
    "state_code": "FC",
    "country_id": 161,
    "country_code": "NG",
    "latitude": "8.87952000",
    "longitude": "7.22756000",
    "wikiDataId": null
  },
  {
    "id": 153370,
    "name": "Kurunduma",
    "state_id": 293,
    "state_code": "FC",
    "country_id": 161,
    "country_code": "NG",
    "latitude": "9.01510000",
    "longitude": "7.53490000",
    "wikiDataId": null
  },
  {
    "id": 76997,
    "name": "Kwali",
    "state_id": 293,
    "state_code": "FC",
    "country_id": 161,
    "country_code": "NG",
    "latitude": "8.88346000",
    "longitude": "7.01858000",
    "wikiDataId": null
  },
  {
    "id": 77014,
    "name": "Madala",
    "state_id": 293,
    "state_code": "FC",
    "country_id": 161,
    "country_code": "NG",
    "latitude": "9.10444000",
    "longitude": "7.21333000",
    "wikiDataId": null
  },
  {
    "id": 153365,
    "name": "Maitama",
    "state_id": 293,
    "state_code": "FC",
    "country_id": 161,
    "country_code": "NG",
    "latitude": "9.08820000",
    "longitude": "7.49340000",
    "wikiDataId": null
  },
  {
    "id": 153373,
    "name": "Wuse",
    "state_id": 293,
    "state_code": "FC",
    "country_id": 161,
    "country_code": "NG",
    "latitude": "9.07470000",
    "longitude": "7.47600000",
    "wikiDataId": null
  },
  {
    "id": 153372,
    "name": "Zuba",
    "state_id": 293,
    "state_code": "FC",
    "country_id": 161,
    "country_code": "NG",
    "latitude": "9.10230000",
    "longitude": "7.19520000",
    "wikiDataId": null
  }
]