[
  {
    "id": 23574,
    "name": "Alsterdorf",
    "state_id": 3016,
    "state_code": "HH",
    "country_id": 82,
    "country_code": "DE",
    "latitude": "53.61083000",
    "longitude": "10.01306000",
    "wikiDataId": null
  },
  {
    "id": 23631,
    "name": "Altona",
    "state_id": 3016,
    "state_code": "HH",
    "country_id": 82,
    "country_code": "DE",
    "latitude": "53.55000000",
    "longitude": "9.93333000",
    "wikiDataId": null
  },
  {
    "id": 23936,
    "name": "Barmbek-Nord",
    "state_id": 3016,
    "state_code": "HH",
    "country_id": 82,
    "country_code": "DE",
    "latitude": "53.60520000",
    "longitude": "10.03988000",
    "wikiDataId": null
  },
  {
    "id": 24032,
    "name": "Bergedorf",
    "state_id": 3016,
    "state_code": "HH",
    "country_id": 82,
    "country_code": "DE",
    "latitude": "53.48462000",
    "longitude": "10.22904000",
    "wikiDataId": null
  },
  {
    "id": 24047,
    "name": "Bergstedt",
    "state_id": 3016,
    "state_code": "HH",
    "country_id": 82,
    "country_code": "DE",
    "latitude": "53.67111000",
    "longitude": "10.12694000",
    "wikiDataId": null
  },
  {
    "id": 24241,
    "name": "Borgfelde",
    "state_id": 3016,
    "state_code": "HH",
    "country_id": 82,
    "country_code": "DE",
    "latitude": "53.55475000",
    "longitude": "10.03447000",
    "wikiDataId": null
  },
  {
    "id": 24788,
    "name": "Duvenstedt",
    "state_id": 3016,
    "state_code": "HH",
    "country_id": 82,
    "country_code": "DE",
    "latitude": "53.70806000",
    "longitude": "10.10444000",
    "wikiDataId": null
  },
  {
    "id": 24910,
    "name": "Eidelstedt",
    "state_id": 3016,
    "state_code": "HH",
    "country_id": 82,
    "country_code": "DE",
    "latitude": "53.60697000",
    "longitude": "9.90538000",
    "wikiDataId": null
  },
  {
    "id": 24919,
    "name": "Eimsbüttel",
    "state_id": 3016,
    "state_code": "HH",
    "country_id": 82,
    "country_code": "DE",
    "latitude": "53.57416000",
    "longitude": "9.95679000",
    "wikiDataId": null
  },
  {
    "id": 25143,
    "name": "Farmsen-Berne",
    "state_id": 3016,
    "state_code": "HH",
    "country_id": 82,
    "country_code": "DE",
    "latitude": "53.60639000",
    "longitude": "10.11972000",
    "wikiDataId": null
  },
  {
    "id": 25314,
    "name": "Fuhlsbüttel",
    "state_id": 3016,
    "state_code": "HH",
    "country_id": 82,
    "country_code": "DE",
    "latitude": "53.63459000",
    "longitude": "10.01608000",
    "wikiDataId": null
  },
  {
    "id": 25866,
    "name": "Hamburg",
    "state_id": 3016,
    "state_code": "HH",
    "country_id": 82,
    "country_code": "DE",
    "latitude": "53.57532000",
    "longitude": "10.01534000",
    "wikiDataId": null
  },
  {
    "id": 25867,
    "name": "Hamburg-Altstadt",
    "state_id": 3016,
    "state_code": "HH",
    "country_id": 82,
    "country_code": "DE",
    "latitude": "53.55000000",
    "longitude": "10.00000000",
    "wikiDataId": null
  },
  {
    "id": 25868,
    "name": "Hamburg-Mitte",
    "state_id": 3016,
    "state_code": "HH",
    "country_id": 82,
    "country_code": "DE",
    "latitude": "53.55000000",
    "longitude": "10.01667000",
    "wikiDataId": null
  },
  {
    "id": 25869,
    "name": "Hamburg-Nord",
    "state_id": 3016,
    "state_code": "HH",
    "country_id": 82,
    "country_code": "DE",
    "latitude": "53.58935000",
    "longitude": "9.98400000",
    "wikiDataId": null
  },
  {
    "id": 25877,
    "name": "Hammerbrook",
    "state_id": 3016,
    "state_code": "HH",
    "country_id": 82,
    "country_code": "DE",
    "latitude": "53.54527000",
    "longitude": "10.03042000",
    "wikiDataId": null
  },
  {
    "id": 25897,
    "name": "Harburg",
    "state_id": 3016,
    "state_code": "HH",
    "country_id": 82,
    "country_code": "DE",
    "latitude": "53.46057000",
    "longitude": "9.98388000",
    "wikiDataId": null
  },
  {
    "id": 26284,
    "name": "Hummelsbüttel",
    "state_id": 3016,
    "state_code": "HH",
    "country_id": 82,
    "country_code": "DE",
    "latitude": "53.64773000",
    "longitude": "10.04149000",
    "wikiDataId": null
  },
  {
    "id": 26670,
    "name": "Kleiner Grasbrook",
    "state_id": 3016,
    "state_code": "HH",
    "country_id": 82,
    "country_code": "DE",
    "latitude": "53.53111000",
    "longitude": "9.99361000",
    "wikiDataId": null
  },
  {
    "id": 26922,
    "name": "Langenhorn",
    "state_id": 3016,
    "state_code": "HH",
    "country_id": 82,
    "country_code": "DE",
    "latitude": "53.66667000",
    "longitude": "10.01667000",
    "wikiDataId": null
  },
  {
    "id": 27036,
    "name": "Lemsahl-Mellingstedt",
    "state_id": 3016,
    "state_code": "HH",
    "country_id": 82,
    "country_code": "DE",
    "latitude": "53.68998000",
    "longitude": "10.09648000",
    "wikiDataId": null
  },
  {
    "id": 27178,
    "name": "Lurup",
    "state_id": 3016,
    "state_code": "HH",
    "country_id": 82,
    "country_code": "DE",
    "latitude": "53.59266000",
    "longitude": "9.87697000",
    "wikiDataId": null
  },
  {
    "id": 27280,
    "name": "Marienthal",
    "state_id": 3016,
    "state_code": "HH",
    "country_id": 82,
    "country_code": "DE",
    "latitude": "53.56667000",
    "longitude": "10.08333000",
    "wikiDataId": null
  },
  {
    "id": 27793,
    "name": "Neustadt",
    "state_id": 3016,
    "state_code": "HH",
    "country_id": 82,
    "country_code": "DE",
    "latitude": "53.55196000",
    "longitude": "9.98558000",
    "wikiDataId": null
  },
  {
    "id": 28098,
    "name": "Ohlsdorf",
    "state_id": 3016,
    "state_code": "HH",
    "country_id": 82,
    "country_code": "DE",
    "latitude": "53.62594000",
    "longitude": "10.03145000",
    "wikiDataId": null
  },
  {
    "id": 28181,
    "name": "Ottensen",
    "state_id": 3016,
    "state_code": "HH",
    "country_id": 82,
    "country_code": "DE",
    "latitude": "53.55000000",
    "longitude": "9.91667000",
    "wikiDataId": null
  },
  {
    "id": 28351,
    "name": "Poppenbüttel",
    "state_id": 3016,
    "state_code": "HH",
    "country_id": 82,
    "country_code": "DE",
    "latitude": "53.65917000",
    "longitude": "10.08472000",
    "wikiDataId": null
  },
  {
    "id": 28726,
    "name": "Rothenburgsort",
    "state_id": 3016,
    "state_code": "HH",
    "country_id": 82,
    "country_code": "DE",
    "latitude": "53.53500000",
    "longitude": "10.04082000",
    "wikiDataId": null
  },
  {
    "id": 28888,
    "name": "Sasel",
    "state_id": 3016,
    "state_code": "HH",
    "country_id": 82,
    "country_code": "DE",
    "latitude": "53.65385000",
    "longitude": "10.11184000",
    "wikiDataId": null
  },
  {
    "id": 29311,
    "name": "St. Georg",
    "state_id": 3016,
    "state_code": "HH",
    "country_id": 82,
    "country_code": "DE",
    "latitude": "53.55513000",
    "longitude": "10.01231000",
    "wikiDataId": null
  },
  {
    "id": 29312,
    "name": "St. Pauli",
    "state_id": 3016,
    "state_code": "HH",
    "country_id": 82,
    "country_code": "DE",
    "latitude": "53.55700000",
    "longitude": "9.96400000",
    "wikiDataId": null
  },
  {
    "id": 29354,
    "name": "Steilshoop",
    "state_id": 3016,
    "state_code": "HH",
    "country_id": 82,
    "country_code": "DE",
    "latitude": "53.61028000",
    "longitude": "10.05917000",
    "wikiDataId": null
  },
  {
    "id": 29396,
    "name": "Stellingen",
    "state_id": 3016,
    "state_code": "HH",
    "country_id": 82,
    "country_code": "DE",
    "latitude": "53.59220000",
    "longitude": "9.92870000",
    "wikiDataId": null
  },
  {
    "id": 30000,
    "name": "Wandsbek",
    "state_id": 3016,
    "state_code": "HH",
    "country_id": 82,
    "country_code": "DE",
    "latitude": "53.58334000",
    "longitude": "10.08305000",
    "wikiDataId": null
  },
  {
    "id": 30145,
    "name": "Wellingsbüttel",
    "state_id": 3016,
    "state_code": "HH",
    "country_id": 82,
    "country_code": "DE",
    "latitude": "53.64104000",
    "longitude": "10.07980000",
    "wikiDataId": null
  },
  {
    "id": 30333,
    "name": "Winterhude",
    "state_id": 3016,
    "state_code": "HH",
    "country_id": 82,
    "country_code": "DE",
    "latitude": "53.60000000",
    "longitude": "10.00000000",
    "wikiDataId": null
  },
  {
    "id": 30370,
    "name": "Wohldorf-Ohlstedt",
    "state_id": 3016,
    "state_code": "HH",
    "country_id": 82,
    "country_code": "DE",
    "latitude": "53.69282000",
    "longitude": "10.13117000",
    "wikiDataId": null
  }
]