[
  {
    "id": 22011,
    "name": "Acherítou",
    "state_id": 749,
    "state_code": "04",
    "country_id": 57,
    "country_code": "CY",
    "latitude": "35.10022000",
    "longitude": "33.86155000",
    "wikiDataId": null
  },
  {
    "id": 22102,
    "name": "Áchna",
    "state_id": 749,
    "state_code": "04",
    "country_id": 57,
    "country_code": "CY",
    "latitude": "35.05515000",
    "longitude": "33.78388000",
    "wikiDataId": null
  },
  {
    "id": 22014,
    "name": "Ammochostos Municipality",
    "state_id": 749,
    "state_code": "04",
    "country_id": 57,
    "country_code": "CY",
    "latitude": "35.11755000",
    "longitude": "33.94335000",
    "wikiDataId": null
  },
  {
    "id": 22020,
    "name": "Avgórou",
    "state_id": 749,
    "state_code": "04",
    "country_id": 57,
    "country_code": "CY",
    "latitude": "35.03615000",
    "longitude": "33.83918000",
    "wikiDataId": null
  },
  {
    "id": 22021,
    "name": "Ayia Napa",
    "state_id": 749,
    "state_code": "04",
    "country_id": 57,
    "country_code": "CY",
    "latitude": "34.98213000",
    "longitude": "34.00183000",
    "wikiDataId": null
  },
  {
    "id": 22023,
    "name": "Derýneia",
    "state_id": 749,
    "state_code": "04",
    "country_id": 57,
    "country_code": "CY",
    "latitude": "35.06484000",
    "longitude": "33.96083000",
    "wikiDataId": null
  },
  {
    "id": 22029,
    "name": "Famagusta",
    "state_id": 749,
    "state_code": "04",
    "country_id": 57,
    "country_code": "CY",
    "latitude": "35.12054000",
    "longitude": "33.93894000",
    "wikiDataId": null
  },
  {
    "id": 22030,
    "name": "Frénaros",
    "state_id": 749,
    "state_code": "04",
    "country_id": 57,
    "country_code": "CY",
    "latitude": "35.04121000",
    "longitude": "33.92242000",
    "wikiDataId": null
  },
  {
    "id": 22052,
    "name": "Lefkónoiko",
    "state_id": 749,
    "state_code": "04",
    "country_id": 57,
    "country_code": "CY",
    "latitude": "35.25980000",
    "longitude": "33.73189000",
    "wikiDataId": null
  },
  {
    "id": 22054,
    "name": "Leonárisso",
    "state_id": 749,
    "state_code": "04",
    "country_id": 57,
    "country_code": "CY",
    "latitude": "35.46892000",
    "longitude": "34.13886000",
    "wikiDataId": null
  },
  {
    "id": 22056,
    "name": "Liopétri",
    "state_id": 749,
    "state_code": "04",
    "country_id": 57,
    "country_code": "CY",
    "latitude": "35.00885000",
    "longitude": "33.89256000",
    "wikiDataId": null
  },
  {
    "id": 22072,
    "name": "Paralímni",
    "state_id": 749,
    "state_code": "04",
    "country_id": 57,
    "country_code": "CY",
    "latitude": "35.03945000",
    "longitude": "33.98181000",
    "wikiDataId": null
  },
  {
    "id": 22078,
    "name": "Protaras",
    "state_id": 749,
    "state_code": "04",
    "country_id": 57,
    "country_code": "CY",
    "latitude": "35.01250000",
    "longitude": "34.05833000",
    "wikiDataId": null
  },
  {
    "id": 22090,
    "name": "Rizokárpaso",
    "state_id": 749,
    "state_code": "04",
    "country_id": 57,
    "country_code": "CY",
    "latitude": "35.59719000",
    "longitude": "34.37916000",
    "wikiDataId": null
  },
  {
    "id": 22095,
    "name": "Tríkomo",
    "state_id": 749,
    "state_code": "04",
    "country_id": 57,
    "country_code": "CY",
    "latitude": "35.28628000",
    "longitude": "33.89167000",
    "wikiDataId": null
  }
]