[
  {
    "id": 8217,
    "name": "Banovići",
    "state_id": 467,
    "state_code": "BIH",
    "country_id": 28,
    "country_code": "BA",
    "latitude": "44.40596000",
    "longitude": "18.52648000",
    "wikiDataId": null
  },
  {
    "id": 8218,
    "name": "Barice",
    "state_id": 467,
    "state_code": "BIH",
    "country_id": 28,
    "country_code": "BA",
    "latitude": "44.54065000",
    "longitude": "18.48069000",
    "wikiDataId": null
  },
  {
    "id": 8219,
    "name": "Bihać",
    "state_id": 467,
    "state_code": "BIH",
    "country_id": 28,
    "country_code": "BA",
    "latitude": "44.81694000",
    "longitude": "15.87083000",
    "wikiDataId": null
  },
  {
    "id": 8220,
    "name": "Bijela",
    "state_id": 467,
    "state_code": "BIH",
    "country_id": 28,
    "country_code": "BA",
    "latitude": "43.60871000",
    "longitude": "17.95078000",
    "wikiDataId": null
  },
  {
    "id": 8222,
    "name": "Bila",
    "state_id": 467,
    "state_code": "BIH",
    "country_id": 28,
    "country_code": "BA",
    "latitude": "43.78265000",
    "longitude": "16.92676000",
    "wikiDataId": null
  },
  {
    "id": 8224,
    "name": "Blagaj",
    "state_id": 467,
    "state_code": "BIH",
    "country_id": 28,
    "country_code": "BA",
    "latitude": "43.25892000",
    "longitude": "17.88815000",
    "wikiDataId": null
  },
  {
    "id": 8226,
    "name": "Bosanska Krupa",
    "state_id": 467,
    "state_code": "BIH",
    "country_id": 28,
    "country_code": "BA",
    "latitude": "44.88250000",
    "longitude": "16.15139000",
    "wikiDataId": null
  },
  {
    "id": 8227,
    "name": "Bosanski Petrovac",
    "state_id": 467,
    "state_code": "BIH",
    "country_id": 28,
    "country_code": "BA",
    "latitude": "44.55537000",
    "longitude": "16.36897000",
    "wikiDataId": null
  },
  {
    "id": 8228,
    "name": "Bosansko Grahovo",
    "state_id": 467,
    "state_code": "BIH",
    "country_id": 28,
    "country_code": "BA",
    "latitude": "44.17944000",
    "longitude": "16.36389000",
    "wikiDataId": null
  },
  {
    "id": 8229,
    "name": "Breza",
    "state_id": 467,
    "state_code": "BIH",
    "country_id": 28,
    "country_code": "BA",
    "latitude": "44.01862000",
    "longitude": "18.26063000",
    "wikiDataId": null
  },
  {
    "id": 8234,
    "name": "Bugojno",
    "state_id": 467,
    "state_code": "BIH",
    "country_id": 28,
    "country_code": "BA",
    "latitude": "44.05722000",
    "longitude": "17.45083000",
    "wikiDataId": null
  },
  {
    "id": 8235,
    "name": "Busovača",
    "state_id": 467,
    "state_code": "BIH",
    "country_id": 28,
    "country_code": "BA",
    "latitude": "44.09769000",
    "longitude": "17.87830000",
    "wikiDataId": null
  },
  {
    "id": 8236,
    "name": "Bužim",
    "state_id": 467,
    "state_code": "BIH",
    "country_id": 28,
    "country_code": "BA",
    "latitude": "45.05361000",
    "longitude": "16.03254000",
    "wikiDataId": null
  },
  {
    "id": 8431,
    "name": "Čapljina",
    "state_id": 467,
    "state_code": "BIH",
    "country_id": 28,
    "country_code": "BA",
    "latitude": "43.12139000",
    "longitude": "17.68444000",
    "wikiDataId": null
  },
  {
    "id": 8237,
    "name": "Cazin",
    "state_id": 467,
    "state_code": "BIH",
    "country_id": 28,
    "country_code": "BA",
    "latitude": "44.96694000",
    "longitude": "15.94306000",
    "wikiDataId": null
  },
  {
    "id": 8433,
    "name": "Čelić",
    "state_id": 467,
    "state_code": "BIH",
    "country_id": 28,
    "country_code": "BA",
    "latitude": "44.72524000",
    "longitude": "18.81474000",
    "wikiDataId": null
  },
  {
    "id": 8238,
    "name": "Cim",
    "state_id": 467,
    "state_code": "BIH",
    "country_id": 28,
    "country_code": "BA",
    "latitude": "43.35401000",
    "longitude": "17.78045000",
    "wikiDataId": null
  },
  {
    "id": 8435,
    "name": "Čitluk",
    "state_id": 467,
    "state_code": "BIH",
    "country_id": 28,
    "country_code": "BA",
    "latitude": "43.22861000",
    "longitude": "17.70083000",
    "wikiDataId": null
  },
  {
    "id": 8429,
    "name": "Ćoralići",
    "state_id": 467,
    "state_code": "BIH",
    "country_id": 28,
    "country_code": "BA",
    "latitude": "45.00694000",
    "longitude": "15.87194000",
    "wikiDataId": null
  },
  {
    "id": 8239,
    "name": "Crnići",
    "state_id": 467,
    "state_code": "BIH",
    "country_id": 28,
    "country_code": "BA",
    "latitude": "43.13156000",
    "longitude": "17.86452000",
    "wikiDataId": null
  },
  {
    "id": 8241,
    "name": "Divičani",
    "state_id": 467,
    "state_code": "BIH",
    "country_id": 28,
    "country_code": "BA",
    "latitude": "44.36682000",
    "longitude": "17.32678000",
    "wikiDataId": null
  },
  {
    "id": 8243,
    "name": "Dobrinje",
    "state_id": 467,
    "state_code": "BIH",
    "country_id": 28,
    "country_code": "BA",
    "latitude": "44.05008000",
    "longitude": "18.11958000",
    "wikiDataId": null
  },
  {
    "id": 8245,
    "name": "Domaljevac",
    "state_id": 467,
    "state_code": "BIH",
    "country_id": 28,
    "country_code": "BA",
    "latitude": "45.06110000",
    "longitude": "18.58612000",
    "wikiDataId": null
  },
  {
    "id": 8246,
    "name": "Donja Dubica",
    "state_id": 467,
    "state_code": "BIH",
    "country_id": 28,
    "country_code": "BA",
    "latitude": "45.07559000",
    "longitude": "18.41023000",
    "wikiDataId": null
  },
  {
    "id": 8247,
    "name": "Donja Mahala",
    "state_id": 467,
    "state_code": "BIH",
    "country_id": 28,
    "country_code": "BA",
    "latitude": "45.04327000",
    "longitude": "18.66996000",
    "wikiDataId": null
  },
  {
    "id": 8248,
    "name": "Donja Međiđa",
    "state_id": 467,
    "state_code": "BIH",
    "country_id": 28,
    "country_code": "BA",
    "latitude": "44.80235000",
    "longitude": "18.40477000",
    "wikiDataId": null
  },
  {
    "id": 8249,
    "name": "Donji Vakuf",
    "state_id": 467,
    "state_code": "BIH",
    "country_id": 28,
    "country_code": "BA",
    "latitude": "44.14361000",
    "longitude": "17.40000000",
    "wikiDataId": null
  },
  {
    "id": 8250,
    "name": "Drežnica",
    "state_id": 467,
    "state_code": "BIH",
    "country_id": 28,
    "country_code": "BA",
    "latitude": "43.52891000",
    "longitude": "17.28120000",
    "wikiDataId": null
  },
  {
    "id": 8251,
    "name": "Drinovci",
    "state_id": 467,
    "state_code": "BIH",
    "country_id": 28,
    "country_code": "BA",
    "latitude": "43.35454000",
    "longitude": "17.32536000",
    "wikiDataId": null
  },
  {
    "id": 8252,
    "name": "Drvar",
    "state_id": 467,
    "state_code": "BIH",
    "country_id": 28,
    "country_code": "BA",
    "latitude": "44.37389000",
    "longitude": "16.38083000",
    "wikiDataId": null
  },
  {
    "id": 8253,
    "name": "Dubrave Donje",
    "state_id": 467,
    "state_code": "BIH",
    "country_id": 28,
    "country_code": "BA",
    "latitude": "44.48060000",
    "longitude": "18.69709000",
    "wikiDataId": null
  },
  {
    "id": 8254,
    "name": "Dubrave Gornje",
    "state_id": 467,
    "state_code": "BIH",
    "country_id": 28,
    "country_code": "BA",
    "latitude": "44.47229000",
    "longitude": "18.72685000",
    "wikiDataId": null
  },
  {
    "id": 8255,
    "name": "Dubravica",
    "state_id": 467,
    "state_code": "BIH",
    "country_id": 28,
    "country_code": "BA",
    "latitude": "44.44131000",
    "longitude": "18.11883000",
    "wikiDataId": null
  },
  {
    "id": 8257,
    "name": "Fojnica",
    "state_id": 467,
    "state_code": "BIH",
    "country_id": 28,
    "country_code": "BA",
    "latitude": "43.95952000",
    "longitude": "17.90288000",
    "wikiDataId": null
  },
  {
    "id": 8260,
    "name": "Glamoč",
    "state_id": 467,
    "state_code": "BIH",
    "country_id": 28,
    "country_code": "BA",
    "latitude": "44.04583000",
    "longitude": "16.84861000",
    "wikiDataId": null
  },
  {
    "id": 8261,
    "name": "Gnojnica",
    "state_id": 467,
    "state_code": "BIH",
    "country_id": 28,
    "country_code": "BA",
    "latitude": "44.62058000",
    "longitude": "18.44684000",
    "wikiDataId": null
  },
  {
    "id": 8262,
    "name": "Goražde",
    "state_id": 467,
    "state_code": "BIH",
    "country_id": 28,
    "country_code": "BA",
    "latitude": "43.66795000",
    "longitude": "18.97564000",
    "wikiDataId": null
  },
  {
    "id": 8263,
    "name": "Gorica",
    "state_id": 467,
    "state_code": "BIH",
    "country_id": 28,
    "country_code": "BA",
    "latitude": "43.41833000",
    "longitude": "17.28500000",
    "wikiDataId": null
  },
  {
    "id": 8264,
    "name": "Gornja Breza",
    "state_id": 467,
    "state_code": "BIH",
    "country_id": 28,
    "country_code": "BA",
    "latitude": "44.03758000",
    "longitude": "18.24564000",
    "wikiDataId": null
  },
  {
    "id": 8265,
    "name": "Gornja Koprivna",
    "state_id": 467,
    "state_code": "BIH",
    "country_id": 28,
    "country_code": "BA",
    "latitude": "45.01091000",
    "longitude": "15.95487000",
    "wikiDataId": null
  },
  {
    "id": 8266,
    "name": "Gornja Tuzla",
    "state_id": 467,
    "state_code": "BIH",
    "country_id": 28,
    "country_code": "BA",
    "latitude": "44.55659000",
    "longitude": "18.76159000",
    "wikiDataId": null
  },
  {
    "id": 8267,
    "name": "Gornje Moštre",
    "state_id": 467,
    "state_code": "BIH",
    "country_id": 28,
    "country_code": "BA",
    "latitude": "44.01911000",
    "longitude": "18.15477000",
    "wikiDataId": null
  },
  {
    "id": 8268,
    "name": "Gornje Živinice",
    "state_id": 467,
    "state_code": "BIH",
    "country_id": 28,
    "country_code": "BA",
    "latitude": "44.42921000",
    "longitude": "18.61667000",
    "wikiDataId": null
  },
  {
    "id": 8269,
    "name": "Gornji Vakuf",
    "state_id": 467,
    "state_code": "BIH",
    "country_id": 28,
    "country_code": "BA",
    "latitude": "43.93806000",
    "longitude": "17.58833000",
    "wikiDataId": null
  },
  {
    "id": 8270,
    "name": "Gostovići",
    "state_id": 467,
    "state_code": "BIH",
    "country_id": 28,
    "country_code": "BA",
    "latitude": "44.41124000",
    "longitude": "18.17029000",
    "wikiDataId": null
  },
  {
    "id": 8273,
    "name": "Gračanica",
    "state_id": 467,
    "state_code": "BIH",
    "country_id": 28,
    "country_code": "BA",
    "latitude": "43.73333000",
    "longitude": "18.28333000",
    "wikiDataId": null
  },
  {
    "id": 8271,
    "name": "Gradačac",
    "state_id": 467,
    "state_code": "BIH",
    "country_id": 28,
    "country_code": "BA",
    "latitude": "44.87851000",
    "longitude": "18.42764000",
    "wikiDataId": null
  },
  {
    "id": 8274,
    "name": "Gromiljak",
    "state_id": 467,
    "state_code": "BIH",
    "country_id": 28,
    "country_code": "BA",
    "latitude": "43.96668000",
    "longitude": "18.05504000",
    "wikiDataId": null
  },
  {
    "id": 8275,
    "name": "Grude",
    "state_id": 467,
    "state_code": "BIH",
    "country_id": 28,
    "country_code": "BA",
    "latitude": "43.37208000",
    "longitude": "17.41449000",
    "wikiDataId": null
  },
  {
    "id": 8276,
    "name": "Hadžići",
    "state_id": 467,
    "state_code": "BIH",
    "country_id": 28,
    "country_code": "BA",
    "latitude": "43.82222000",
    "longitude": "18.20667000",
    "wikiDataId": null
  },
  {
    "id": 8277,
    "name": "Hercegovačko-Neretvanski Kanton",
    "state_id": 467,
    "state_code": "BIH",
    "country_id": 28,
    "country_code": "BA",
    "latitude": "43.45722000",
    "longitude": "17.81250000",
    "wikiDataId": null
  },
  {
    "id": 8279,
    "name": "Hotonj",
    "state_id": 467,
    "state_code": "BIH",
    "country_id": 28,
    "country_code": "BA",
    "latitude": "43.89341000",
    "longitude": "18.37751000",
    "wikiDataId": null
  },
  {
    "id": 8281,
    "name": "Ilići",
    "state_id": 467,
    "state_code": "BIH",
    "country_id": 28,
    "country_code": "BA",
    "latitude": "43.34765000",
    "longitude": "17.76848000",
    "wikiDataId": null
  },
  {
    "id": 8280,
    "name": "Ilijaš",
    "state_id": 467,
    "state_code": "BIH",
    "country_id": 28,
    "country_code": "BA",
    "latitude": "43.95128000",
    "longitude": "18.27128000",
    "wikiDataId": null
  },
  {
    "id": 8283,
    "name": "Izačić",
    "state_id": 467,
    "state_code": "BIH",
    "country_id": 28,
    "country_code": "BA",
    "latitude": "44.87485000",
    "longitude": "15.78256000",
    "wikiDataId": null
  },
  {
    "id": 8284,
    "name": "Jablanica",
    "state_id": 467,
    "state_code": "BIH",
    "country_id": 28,
    "country_code": "BA",
    "latitude": "43.66028000",
    "longitude": "17.76167000",
    "wikiDataId": null
  },
  {
    "id": 8285,
    "name": "Jajce",
    "state_id": 467,
    "state_code": "BIH",
    "country_id": 28,
    "country_code": "BA",
    "latitude": "44.34203000",
    "longitude": "17.27059000",
    "wikiDataId": null
  },
  {
    "id": 8287,
    "name": "Jelah",
    "state_id": 467,
    "state_code": "BIH",
    "country_id": 28,
    "country_code": "BA",
    "latitude": "44.65400000",
    "longitude": "17.95897000",
    "wikiDataId": null
  },
  {
    "id": 8288,
    "name": "Jezerski",
    "state_id": 467,
    "state_code": "BIH",
    "country_id": 28,
    "country_code": "BA",
    "latitude": "44.98172000",
    "longitude": "16.09447000",
    "wikiDataId": null
  },
  {
    "id": 8293,
    "name": "Kačuni",
    "state_id": 467,
    "state_code": "BIH",
    "country_id": 28,
    "country_code": "BA",
    "latitude": "44.06433000",
    "longitude": "17.93894000",
    "wikiDataId": null
  },
  {
    "id": 8289,
    "name": "Kakanj",
    "state_id": 467,
    "state_code": "BIH",
    "country_id": 28,
    "country_code": "BA",
    "latitude": "44.13311000",
    "longitude": "18.12292000",
    "wikiDataId": null
  },
  {
    "id": 8291,
    "name": "Kanton Sarajevo",
    "state_id": 467,
    "state_code": "BIH",
    "country_id": 28,
    "country_code": "BA",
    "latitude": "43.84333000",
    "longitude": "18.24222000",
    "wikiDataId": null
  },
  {
    "id": 8292,
    "name": "Karadaglije",
    "state_id": 467,
    "state_code": "BIH",
    "country_id": 28,
    "country_code": "BA",
    "latitude": "44.57065000",
    "longitude": "18.01775000",
    "wikiDataId": null
  },
  {
    "id": 8294,
    "name": "Kiseljak",
    "state_id": 467,
    "state_code": "BIH",
    "country_id": 28,
    "country_code": "BA",
    "latitude": "44.48904000",
    "longitude": "18.56982000",
    "wikiDataId": null
  },
  {
    "id": 8295,
    "name": "Kladanj",
    "state_id": 467,
    "state_code": "BIH",
    "country_id": 28,
    "country_code": "BA",
    "latitude": "44.22669000",
    "longitude": "18.69274000",
    "wikiDataId": null
  },
  {
    "id": 8296,
    "name": "Ključ",
    "state_id": 467,
    "state_code": "BIH",
    "country_id": 28,
    "country_code": "BA",
    "latitude": "44.53251000",
    "longitude": "16.77682000",
    "wikiDataId": null
  },
  {
    "id": 8299,
    "name": "Kobilja Glava",
    "state_id": 467,
    "state_code": "BIH",
    "country_id": 28,
    "country_code": "BA",
    "latitude": "43.88188000",
    "longitude": "18.38864000",
    "wikiDataId": null
  },
  {
    "id": 8306,
    "name": "Kočerin",
    "state_id": 467,
    "state_code": "BIH",
    "country_id": 28,
    "country_code": "BA",
    "latitude": "43.39005000",
    "longitude": "17.48552000",
    "wikiDataId": null
  },
  {
    "id": 8300,
    "name": "Konjic",
    "state_id": 467,
    "state_code": "BIH",
    "country_id": 28,
    "country_code": "BA",
    "latitude": "43.65126000",
    "longitude": "17.96082000",
    "wikiDataId": null
  },
  {
    "id": 8304,
    "name": "Kovači",
    "state_id": 467,
    "state_code": "BIH",
    "country_id": 28,
    "country_code": "BA",
    "latitude": "44.44874000",
    "longitude": "18.20521000",
    "wikiDataId": null
  },
  {
    "id": 8310,
    "name": "Liješnica",
    "state_id": 467,
    "state_code": "BIH",
    "country_id": 28,
    "country_code": "BA",
    "latitude": "44.49497000",
    "longitude": "18.07644000",
    "wikiDataId": null
  },
  {
    "id": 8311,
    "name": "Livno",
    "state_id": 467,
    "state_code": "BIH",
    "country_id": 28,
    "country_code": "BA",
    "latitude": "43.82695000",
    "longitude": "17.00746000",
    "wikiDataId": null
  },
  {
    "id": 8313,
    "name": "Ljubuški",
    "state_id": 467,
    "state_code": "BIH",
    "country_id": 28,
    "country_code": "BA",
    "latitude": "43.19694000",
    "longitude": "17.54500000",
    "wikiDataId": null
  },
  {
    "id": 8314,
    "name": "Lokvine",
    "state_id": 467,
    "state_code": "BIH",
    "country_id": 28,
    "country_code": "BA",
    "latitude": "44.20466000",
    "longitude": "17.85665000",
    "wikiDataId": null
  },
  {
    "id": 8316,
    "name": "Lukavac",
    "state_id": 467,
    "state_code": "BIH",
    "country_id": 28,
    "country_code": "BA",
    "latitude": "44.54245000",
    "longitude": "18.52618000",
    "wikiDataId": null
  },
  {
    "id": 8317,
    "name": "Lukavica",
    "state_id": 467,
    "state_code": "BIH",
    "country_id": 28,
    "country_code": "BA",
    "latitude": "44.76452000",
    "longitude": "18.16887000",
    "wikiDataId": null
  },
  {
    "id": 8318,
    "name": "Maglaj",
    "state_id": 467,
    "state_code": "BIH",
    "country_id": 28,
    "country_code": "BA",
    "latitude": "44.54771000",
    "longitude": "18.10003000",
    "wikiDataId": null
  },
  {
    "id": 8320,
    "name": "Mahala",
    "state_id": 467,
    "state_code": "BIH",
    "country_id": 28,
    "country_code": "BA",
    "latitude": "44.01194000",
    "longitude": "18.25528000",
    "wikiDataId": null
  },
  {
    "id": 8321,
    "name": "Mala Kladuša",
    "state_id": 467,
    "state_code": "BIH",
    "country_id": 28,
    "country_code": "BA",
    "latitude": "45.13443000",
    "longitude": "15.85217000",
    "wikiDataId": null
  },
  {
    "id": 8322,
    "name": "Malešići",
    "state_id": 467,
    "state_code": "BIH",
    "country_id": 28,
    "country_code": "BA",
    "latitude": "44.73824000",
    "longitude": "18.27335000",
    "wikiDataId": null
  },
  {
    "id": 8327,
    "name": "Mionica",
    "state_id": 467,
    "state_code": "BIH",
    "country_id": 28,
    "country_code": "BA",
    "latitude": "44.86646000",
    "longitude": "18.46603000",
    "wikiDataId": null
  },
  {
    "id": 8329,
    "name": "Mostar",
    "state_id": 467,
    "state_code": "BIH",
    "country_id": 28,
    "country_code": "BA",
    "latitude": "43.34333000",
    "longitude": "17.80806000",
    "wikiDataId": null
  },
  {
    "id": 8330,
    "name": "Mramor",
    "state_id": 467,
    "state_code": "BIH",
    "country_id": 28,
    "country_code": "BA",
    "latitude": "44.59234000",
    "longitude": "18.56458000",
    "wikiDataId": null
  },
  {
    "id": 8332,
    "name": "Neum",
    "state_id": 467,
    "state_code": "BIH",
    "country_id": 28,
    "country_code": "BA",
    "latitude": "42.92333000",
    "longitude": "17.61556000",
    "wikiDataId": null
  },
  {
    "id": 8336,
    "name": "Novi Šeher",
    "state_id": 467,
    "state_code": "BIH",
    "country_id": 28,
    "country_code": "BA",
    "latitude": "44.51031000",
    "longitude": "18.02624000",
    "wikiDataId": null
  },
  {
    "id": 8335,
    "name": "Novi Travnik",
    "state_id": 467,
    "state_code": "BIH",
    "country_id": 28,
    "country_code": "BA",
    "latitude": "44.17133000",
    "longitude": "17.65816000",
    "wikiDataId": null
  },
  {
    "id": 8338,
    "name": "Odžak",
    "state_id": 467,
    "state_code": "BIH",
    "country_id": 28,
    "country_code": "BA",
    "latitude": "45.02461000",
    "longitude": "18.32107000",
    "wikiDataId": null
  },
  {
    "id": 8339,
    "name": "Olovo",
    "state_id": 467,
    "state_code": "BIH",
    "country_id": 28,
    "country_code": "BA",
    "latitude": "44.12770000",
    "longitude": "18.58065000",
    "wikiDataId": null
  },
  {
    "id": 8340,
    "name": "Omanjska",
    "state_id": 467,
    "state_code": "BIH",
    "country_id": 28,
    "country_code": "BA",
    "latitude": "44.69831000",
    "longitude": "17.95757000",
    "wikiDataId": null
  },
  {
    "id": 8344,
    "name": "Orahovica Donja",
    "state_id": 467,
    "state_code": "BIH",
    "country_id": 28,
    "country_code": "BA",
    "latitude": "44.65345000",
    "longitude": "18.36951000",
    "wikiDataId": null
  },
  {
    "id": 8345,
    "name": "Orašac",
    "state_id": 467,
    "state_code": "BIH",
    "country_id": 28,
    "country_code": "BA",
    "latitude": "44.63039000",
    "longitude": "16.07443000",
    "wikiDataId": null
  },
  {
    "id": 8346,
    "name": "Orašje",
    "state_id": 467,
    "state_code": "BIH",
    "country_id": 28,
    "country_code": "BA",
    "latitude": "45.03366000",
    "longitude": "18.69334000",
    "wikiDataId": null
  },
  {
    "id": 8347,
    "name": "Orguz",
    "state_id": 467,
    "state_code": "BIH",
    "country_id": 28,
    "country_code": "BA",
    "latitude": "43.77414000",
    "longitude": "16.86329000",
    "wikiDataId": null
  },
  {
    "id": 8348,
    "name": "Ostrožac",
    "state_id": 467,
    "state_code": "BIH",
    "country_id": 28,
    "country_code": "BA",
    "latitude": "44.90866000",
    "longitude": "15.94045000",
    "wikiDataId": null
  },
  {
    "id": 8349,
    "name": "Otoka",
    "state_id": 467,
    "state_code": "BIH",
    "country_id": 28,
    "country_code": "BA",
    "latitude": "44.96000000",
    "longitude": "16.17917000",
    "wikiDataId": null
  },
  {
    "id": 8351,
    "name": "Pajić Polje",
    "state_id": 467,
    "state_code": "BIH",
    "country_id": 28,
    "country_code": "BA",
    "latitude": "43.97583000",
    "longitude": "17.52750000",
    "wikiDataId": null
  },
  {
    "id": 8353,
    "name": "Pazarić",
    "state_id": 467,
    "state_code": "BIH",
    "country_id": 28,
    "country_code": "BA",
    "latitude": "43.78882000",
    "longitude": "18.16049000",
    "wikiDataId": null
  },
  {
    "id": 8356,
    "name": "Peći",
    "state_id": 467,
    "state_code": "BIH",
    "country_id": 28,
    "country_code": "BA",
    "latitude": "44.63139000",
    "longitude": "16.78250000",
    "wikiDataId": null
  },
  {
    "id": 8357,
    "name": "Pećigrad",
    "state_id": 467,
    "state_code": "BIH",
    "country_id": 28,
    "country_code": "BA",
    "latitude": "45.05444000",
    "longitude": "15.89694000",
    "wikiDataId": null
  },
  {
    "id": 8359,
    "name": "Pjanići",
    "state_id": 467,
    "state_code": "BIH",
    "country_id": 28,
    "country_code": "BA",
    "latitude": "44.98568000",
    "longitude": "15.82304000",
    "wikiDataId": null
  },
  {
    "id": 8361,
    "name": "Podhum",
    "state_id": 467,
    "state_code": "BIH",
    "country_id": 28,
    "country_code": "BA",
    "latitude": "43.72295000",
    "longitude": "16.99887000",
    "wikiDataId": null
  },
  {
    "id": 8362,
    "name": "Podzvizd",
    "state_id": 467,
    "state_code": "BIH",
    "country_id": 28,
    "country_code": "BA",
    "latitude": "45.17417000",
    "longitude": "15.87361000",
    "wikiDataId": null
  },
  {
    "id": 8363,
    "name": "Polje",
    "state_id": 467,
    "state_code": "BIH",
    "country_id": 28,
    "country_code": "BA",
    "latitude": "43.88014000",
    "longitude": "18.07452000",
    "wikiDataId": null
  },
  {
    "id": 8364,
    "name": "Polje-Bijela",
    "state_id": 467,
    "state_code": "BIH",
    "country_id": 28,
    "country_code": "BA",
    "latitude": "43.63299000",
    "longitude": "17.97216000",
    "wikiDataId": null
  },
  {
    "id": 8366,
    "name": "Potoci",
    "state_id": 467,
    "state_code": "BIH",
    "country_id": 28,
    "country_code": "BA",
    "latitude": "43.40953000",
    "longitude": "17.87855000",
    "wikiDataId": null
  },
  {
    "id": 8370,
    "name": "Prozor",
    "state_id": 467,
    "state_code": "BIH",
    "country_id": 28,
    "country_code": "BA",
    "latitude": "43.82222000",
    "longitude": "17.60917000",
    "wikiDataId": null
  },
  {
    "id": 8371,
    "name": "Puračić",
    "state_id": 467,
    "state_code": "BIH",
    "country_id": 28,
    "country_code": "BA",
    "latitude": "44.54562000",
    "longitude": "18.47865000",
    "wikiDataId": null
  },
  {
    "id": 8372,
    "name": "Radišići",
    "state_id": 467,
    "state_code": "BIH",
    "country_id": 28,
    "country_code": "BA",
    "latitude": "43.22302000",
    "longitude": "17.54056000",
    "wikiDataId": null
  },
  {
    "id": 8373,
    "name": "Rodoč",
    "state_id": 467,
    "state_code": "BIH",
    "country_id": 28,
    "country_code": "BA",
    "latitude": "43.31453000",
    "longitude": "17.80290000",
    "wikiDataId": null
  },
  {
    "id": 8376,
    "name": "Rumboci",
    "state_id": 467,
    "state_code": "BIH",
    "country_id": 28,
    "country_code": "BA",
    "latitude": "43.83154000",
    "longitude": "17.50273000",
    "wikiDataId": null
  },
  {
    "id": 8377,
    "name": "Sanica",
    "state_id": 467,
    "state_code": "BIH",
    "country_id": 28,
    "country_code": "BA",
    "latitude": "44.61354000",
    "longitude": "16.64062000",
    "wikiDataId": null
  },
  {
    "id": 8378,
    "name": "Sanski Most",
    "state_id": 467,
    "state_code": "BIH",
    "country_id": 28,
    "country_code": "BA",
    "latitude": "44.76670000",
    "longitude": "16.66700000",
    "wikiDataId": null
  },
  {
    "id": 8379,
    "name": "Sapna",
    "state_id": 467,
    "state_code": "BIH",
    "country_id": 28,
    "country_code": "BA",
    "latitude": "44.50380000",
    "longitude": "18.99818000",
    "wikiDataId": null
  },
  {
    "id": 8380,
    "name": "Sarajevo",
    "state_id": 467,
    "state_code": "BIH",
    "country_id": 28,
    "country_code": "BA",
    "latitude": "43.84864000",
    "longitude": "18.35644000",
    "wikiDataId": null
  },
  {
    "id": 8438,
    "name": "Šerići",
    "state_id": 467,
    "state_code": "BIH",
    "country_id": 28,
    "country_code": "BA",
    "latitude": "44.46674000",
    "longitude": "18.56370000",
    "wikiDataId": null
  },
  {
    "id": 8440,
    "name": "Široki Brijeg",
    "state_id": 467,
    "state_code": "BIH",
    "country_id": 28,
    "country_code": "BA",
    "latitude": "43.38290000",
    "longitude": "17.59416000",
    "wikiDataId": null
  },
  {
    "id": 8381,
    "name": "Skokovi",
    "state_id": 467,
    "state_code": "BIH",
    "country_id": 28,
    "country_code": "BA",
    "latitude": "45.03139000",
    "longitude": "15.91444000",
    "wikiDataId": null
  },
  {
    "id": 8382,
    "name": "Sladna",
    "state_id": 467,
    "state_code": "BIH",
    "country_id": 28,
    "country_code": "BA",
    "latitude": "44.72897000",
    "longitude": "18.42575000",
    "wikiDataId": null
  },
  {
    "id": 8384,
    "name": "Solina",
    "state_id": 467,
    "state_code": "BIH",
    "country_id": 28,
    "country_code": "BA",
    "latitude": "44.56226000",
    "longitude": "18.69322000",
    "wikiDataId": null
  },
  {
    "id": 8387,
    "name": "Srebrenik",
    "state_id": 467,
    "state_code": "BIH",
    "country_id": 28,
    "country_code": "BA",
    "latitude": "44.70819000",
    "longitude": "18.48834000",
    "wikiDataId": null
  },
  {
    "id": 8390,
    "name": "Stijena",
    "state_id": 467,
    "state_code": "BIH",
    "country_id": 28,
    "country_code": "BA",
    "latitude": "44.93630000",
    "longitude": "16.02224000",
    "wikiDataId": null
  },
  {
    "id": 8391,
    "name": "Stjepan-Polje",
    "state_id": 467,
    "state_code": "BIH",
    "country_id": 28,
    "country_code": "BA",
    "latitude": "44.71634000",
    "longitude": "18.25783000",
    "wikiDataId": null
  },
  {
    "id": 8392,
    "name": "Stolac",
    "state_id": 467,
    "state_code": "BIH",
    "country_id": 28,
    "country_code": "BA",
    "latitude": "43.08400000",
    "longitude": "17.95995000",
    "wikiDataId": null
  },
  {
    "id": 8441,
    "name": "Šturlić",
    "state_id": 467,
    "state_code": "BIH",
    "country_id": 28,
    "country_code": "BA",
    "latitude": "45.06389000",
    "longitude": "15.77806000",
    "wikiDataId": null
  },
  {
    "id": 8442,
    "name": "Šumatac",
    "state_id": 467,
    "state_code": "BIH",
    "country_id": 28,
    "country_code": "BA",
    "latitude": "45.09743000",
    "longitude": "15.85818000",
    "wikiDataId": null
  },
  {
    "id": 8394,
    "name": "Tasovčići",
    "state_id": 467,
    "state_code": "BIH",
    "country_id": 28,
    "country_code": "BA",
    "latitude": "43.11333000",
    "longitude": "17.72000000",
    "wikiDataId": null
  },
  {
    "id": 8396,
    "name": "Tešanj",
    "state_id": 467,
    "state_code": "BIH",
    "country_id": 28,
    "country_code": "BA",
    "latitude": "44.61191000",
    "longitude": "17.98552000",
    "wikiDataId": null
  },
  {
    "id": 8397,
    "name": "Tešanjka",
    "state_id": 467,
    "state_code": "BIH",
    "country_id": 28,
    "country_code": "BA",
    "latitude": "44.67228000",
    "longitude": "18.01109000",
    "wikiDataId": null
  },
  {
    "id": 8398,
    "name": "Todorovo",
    "state_id": 467,
    "state_code": "BIH",
    "country_id": 28,
    "country_code": "BA",
    "latitude": "45.08833000",
    "longitude": "15.93083000",
    "wikiDataId": null
  },
  {
    "id": 8399,
    "name": "Tojšići",
    "state_id": 467,
    "state_code": "BIH",
    "country_id": 28,
    "country_code": "BA",
    "latitude": "44.50133000",
    "longitude": "18.78523000",
    "wikiDataId": null
  },
  {
    "id": 8400,
    "name": "Tomislavgrad",
    "state_id": 467,
    "state_code": "BIH",
    "country_id": 28,
    "country_code": "BA",
    "latitude": "43.71849000",
    "longitude": "17.22515000",
    "wikiDataId": null
  },
  {
    "id": 8401,
    "name": "Travnik",
    "state_id": 467,
    "state_code": "BIH",
    "country_id": 28,
    "country_code": "BA",
    "latitude": "44.22637000",
    "longitude": "17.66583000",
    "wikiDataId": null
  },
  {
    "id": 8404,
    "name": "Tržačka Raštela",
    "state_id": 467,
    "state_code": "BIH",
    "country_id": 28,
    "country_code": "BA",
    "latitude": "44.97597000",
    "longitude": "15.78489000",
    "wikiDataId": null
  },
  {
    "id": 8405,
    "name": "Turbe",
    "state_id": 467,
    "state_code": "BIH",
    "country_id": 28,
    "country_code": "BA",
    "latitude": "44.24352000",
    "longitude": "17.57499000",
    "wikiDataId": null
  },
  {
    "id": 8406,
    "name": "Tuzla",
    "state_id": 467,
    "state_code": "BIH",
    "country_id": 28,
    "country_code": "BA",
    "latitude": "44.53842000",
    "longitude": "18.66709000",
    "wikiDataId": null
  },
  {
    "id": 8408,
    "name": "Ustikolina",
    "state_id": 467,
    "state_code": "BIH",
    "country_id": 28,
    "country_code": "BA",
    "latitude": "43.58338000",
    "longitude": "18.79106000",
    "wikiDataId": null
  },
  {
    "id": 8409,
    "name": "Vareš",
    "state_id": 467,
    "state_code": "BIH",
    "country_id": 28,
    "country_code": "BA",
    "latitude": "44.16444000",
    "longitude": "18.32833000",
    "wikiDataId": null
  },
  {
    "id": 8410,
    "name": "Varoška Rijeka",
    "state_id": 467,
    "state_code": "BIH",
    "country_id": 28,
    "country_code": "BA",
    "latitude": "45.08936000",
    "longitude": "16.01906000",
    "wikiDataId": null
  },
  {
    "id": 8411,
    "name": "Velagići",
    "state_id": 467,
    "state_code": "BIH",
    "country_id": 28,
    "country_code": "BA",
    "latitude": "44.55618000",
    "longitude": "16.73349000",
    "wikiDataId": null
  },
  {
    "id": 8412,
    "name": "Velika Kladuša",
    "state_id": 467,
    "state_code": "BIH",
    "country_id": 28,
    "country_code": "BA",
    "latitude": "45.18497000",
    "longitude": "15.80579000",
    "wikiDataId": null
  },
  {
    "id": 8414,
    "name": "Vidoši",
    "state_id": 467,
    "state_code": "BIH",
    "country_id": 28,
    "country_code": "BA",
    "latitude": "43.77139000",
    "longitude": "17.02833000",
    "wikiDataId": null
  },
  {
    "id": 8415,
    "name": "Visoko",
    "state_id": 467,
    "state_code": "BIH",
    "country_id": 28,
    "country_code": "BA",
    "latitude": "43.98889000",
    "longitude": "18.17806000",
    "wikiDataId": null
  },
  {
    "id": 8416,
    "name": "Vitez",
    "state_id": 467,
    "state_code": "BIH",
    "country_id": 28,
    "country_code": "BA",
    "latitude": "44.15424000",
    "longitude": "17.79009000",
    "wikiDataId": null
  },
  {
    "id": 8417,
    "name": "Vitina",
    "state_id": 467,
    "state_code": "BIH",
    "country_id": 28,
    "country_code": "BA",
    "latitude": "43.23750000",
    "longitude": "17.48389000",
    "wikiDataId": null
  },
  {
    "id": 8420,
    "name": "Vogošća",
    "state_id": 467,
    "state_code": "BIH",
    "country_id": 28,
    "country_code": "BA",
    "latitude": "43.90225000",
    "longitude": "18.34438000",
    "wikiDataId": null
  },
  {
    "id": 8421,
    "name": "Voljevac",
    "state_id": 467,
    "state_code": "BIH",
    "country_id": 28,
    "country_code": "BA",
    "latitude": "43.87873000",
    "longitude": "17.65861000",
    "wikiDataId": null
  },
  {
    "id": 8422,
    "name": "Vrnograč",
    "state_id": 467,
    "state_code": "BIH",
    "country_id": 28,
    "country_code": "BA",
    "latitude": "45.16369000",
    "longitude": "15.95444000",
    "wikiDataId": null
  },
  {
    "id": 8423,
    "name": "Vukovije Donje",
    "state_id": 467,
    "state_code": "BIH",
    "country_id": 28,
    "country_code": "BA",
    "latitude": "44.46209000",
    "longitude": "18.74941000",
    "wikiDataId": null
  },
  {
    "id": 8424,
    "name": "Zabrišće",
    "state_id": 467,
    "state_code": "BIH",
    "country_id": 28,
    "country_code": "BA",
    "latitude": "43.79224000",
    "longitude": "16.94224000",
    "wikiDataId": null
  },
  {
    "id": 8425,
    "name": "Zavidovići",
    "state_id": 467,
    "state_code": "BIH",
    "country_id": 28,
    "country_code": "BA",
    "latitude": "44.44583000",
    "longitude": "18.14972000",
    "wikiDataId": null
  },
  {
    "id": 8426,
    "name": "Zborište",
    "state_id": 467,
    "state_code": "BIH",
    "country_id": 28,
    "country_code": "BA",
    "latitude": "45.14593000",
    "longitude": "16.01728000",
    "wikiDataId": null
  },
  {
    "id": 8443,
    "name": "Željezno Polje",
    "state_id": 467,
    "state_code": "BIH",
    "country_id": 28,
    "country_code": "BA",
    "latitude": "44.39875000",
    "longitude": "17.94103000",
    "wikiDataId": null
  },
  {
    "id": 8427,
    "name": "Zenica",
    "state_id": 467,
    "state_code": "BIH",
    "country_id": 28,
    "country_code": "BA",
    "latitude": "44.20169000",
    "longitude": "17.90397000",
    "wikiDataId": null
  },
  {
    "id": 8444,
    "name": "Žepče",
    "state_id": 467,
    "state_code": "BIH",
    "country_id": 28,
    "country_code": "BA",
    "latitude": "44.42667000",
    "longitude": "18.03778000",
    "wikiDataId": null
  },
  {
    "id": 8445,
    "name": "Živinice",
    "state_id": 467,
    "state_code": "BIH",
    "country_id": 28,
    "country_code": "BA",
    "latitude": "44.44929000",
    "longitude": "18.64978000",
    "wikiDataId": null
  }
]