[
  {
    "id": 48389,
    "name": "Barlborough",
    "state_id": 2295,
    "state_code": "SHF",
    "country_id": 232,
    "country_code": "GB",
    "latitude": "53.28795000",
    "longitude": "-1.28815000",
    "wikiDataId": null
  },
  {
    "id": 48455,
    "name": "Beighton",
    "state_id": 2295,
    "state_code": "SHF",
    "country_id": 232,
    "country_code": "GB",
    "latitude": "53.33333000",
    "longitude": "-1.33333000",
    "wikiDataId": null
  },
  {
    "id": 48774,
    "name": "Burngreave",
    "state_id": 2295,
    "state_code": "SHF",
    "country_id": 232,
    "country_code": "GB",
    "latitude": "53.39302000",
    "longitude": "-1.45789000",
    "wikiDataId": null
  },
  {
    "id": 49040,
    "name": "Clowne",
    "state_id": 2295,
    "state_code": "SHF",
    "country_id": 232,
    "country_code": "GB",
    "latitude": "53.27449000",
    "longitude": "-1.26406000",
    "wikiDataId": null
  },
  {
    "id": 49329,
    "name": "Dronfield",
    "state_id": 2295,
    "state_code": "SHF",
    "country_id": 232,
    "country_code": "GB",
    "latitude": "53.30221000",
    "longitude": "-1.47507000",
    "wikiDataId": null
  },
  {
    "id": 49842,
    "name": "Hathersage",
    "state_id": 2295,
    "state_code": "SHF",
    "country_id": 232,
    "country_code": "GB",
    "latitude": "53.33030000",
    "longitude": "-1.65398000",
    "wikiDataId": null
  },
  {
    "id": 49984,
    "name": "Hope Valley",
    "state_id": 2295,
    "state_code": "SHF",
    "country_id": 232,
    "country_code": "GB",
    "latitude": "53.34819000",
    "longitude": "-1.74485000",
    "wikiDataId": null
  },
  {
    "id": 50146,
    "name": "Killamarsh",
    "state_id": 2295,
    "state_code": "SHF",
    "country_id": 232,
    "country_code": "GB",
    "latitude": "53.32395000",
    "longitude": "-1.31688000",
    "wikiDataId": null
  },
  {
    "id": 50829,
    "name": "Oughtibridge",
    "state_id": 2295,
    "state_code": "SHF",
    "country_id": 232,
    "country_code": "GB",
    "latitude": "53.43612000",
    "longitude": "-1.53902000",
    "wikiDataId": null
  },
  {
    "id": 51255,
    "name": "Sheffield",
    "state_id": 2295,
    "state_code": "SHF",
    "country_id": 232,
    "country_code": "GB",
    "latitude": "53.38297000",
    "longitude": "-1.46590000",
    "wikiDataId": null
  },
  {
    "id": 51434,
    "name": "Staveley",
    "state_id": 2295,
    "state_code": "SHF",
    "country_id": 232,
    "country_code": "GB",
    "latitude": "53.26667000",
    "longitude": "-1.35000000",
    "wikiDataId": null
  }
]