[
  {
    "id": 10151,
    "name": "Alta Floresta d'Oeste",
    "state_id": 2013,
    "state_code": "RO",
    "country_id": 31,
    "country_code": "BR",
    "latitude": "-12.47107000",
    "longitude": "-62.13705000",
    "wikiDataId": null
  },
  {
    "id": 10164,
    "name": "Alto Alegre dos Parecis",
    "state_id": 2013,
    "state_code": "RO",
    "country_id": 31,
    "country_code": "BR",
    "latitude": "-12.75601000",
    "longitude": "-61.97971000",
    "wikiDataId": null
  },
  {
    "id": 10176,
    "name": "Alto Paraíso",
    "state_id": 2013,
    "state_code": "RO",
    "country_id": 31,
    "country_code": "BR",
    "latitude": "-9.65996000",
    "longitude": "-63.58719000",
    "wikiDataId": null
  },
  {
    "id": 10196,
    "name": "Alvorada d'Oeste",
    "state_id": 2013,
    "state_code": "RO",
    "country_id": 31,
    "country_code": "BR",
    "latitude": "-11.29925000",
    "longitude": "-62.50152000",
    "wikiDataId": null
  },
  {
    "id": 10396,
    "name": "Ariquemes",
    "state_id": 2013,
    "state_code": "RO",
    "country_id": 31,
    "country_code": "BR",
    "latitude": "-9.91333000",
    "longitude": "-63.04083000",
    "wikiDataId": null
  },
  {
    "id": 10834,
    "name": "Buritis",
    "state_id": 2013,
    "state_code": "RO",
    "country_id": 31,
    "country_code": "BR",
    "latitude": "-10.09215000",
    "longitude": "-63.96964000",
    "wikiDataId": null
  },
  {
    "id": 10851,
    "name": "Cabixi",
    "state_id": 2013,
    "state_code": "RO",
    "country_id": 31,
    "country_code": "BR",
    "latitude": "-13.51083000",
    "longitude": "-60.60257000",
    "wikiDataId": null
  },
  {
    "id": 10859,
    "name": "Cacaulândia",
    "state_id": 2013,
    "state_code": "RO",
    "country_id": 31,
    "country_code": "BR",
    "latitude": "-10.32583000",
    "longitude": "-63.14953000",
    "wikiDataId": null
  },
  {
    "id": 10885,
    "name": "Cacoal",
    "state_id": 2013,
    "state_code": "RO",
    "country_id": 31,
    "country_code": "BR",
    "latitude": "-11.43861000",
    "longitude": "-61.44722000",
    "wikiDataId": null
  },
  {
    "id": 11000,
    "name": "Campo Novo de Rondônia",
    "state_id": 2013,
    "state_code": "RO",
    "country_id": 31,
    "country_code": "BR",
    "latitude": "-10.48146000",
    "longitude": "-63.85192000",
    "wikiDataId": null
  },
  {
    "id": 11035,
    "name": "Candeias do Jamari",
    "state_id": 2013,
    "state_code": "RO",
    "country_id": 31,
    "country_code": "BR",
    "latitude": "-8.94512000",
    "longitude": "-63.35731000",
    "wikiDataId": null
  },
  {
    "id": 11186,
    "name": "Castanheiras",
    "state_id": 2013,
    "state_code": "RO",
    "country_id": 31,
    "country_code": "BR",
    "latitude": "-11.42661000",
    "longitude": "-61.88918000",
    "wikiDataId": null
  },
  {
    "id": 11244,
    "name": "Cerejeiras",
    "state_id": 2013,
    "state_code": "RO",
    "country_id": 31,
    "country_code": "BR",
    "latitude": "-13.18319000",
    "longitude": "-61.47518000",
    "wikiDataId": null
  },
  {
    "id": 11282,
    "name": "Chupinguaia",
    "state_id": 2013,
    "state_code": "RO",
    "country_id": 31,
    "country_code": "BR",
    "latitude": "-12.67240000",
    "longitude": "-60.92622000",
    "wikiDataId": null
  },
  {
    "id": 11331,
    "name": "Colorado do Oeste",
    "state_id": 2013,
    "state_code": "RO",
    "country_id": 31,
    "country_code": "BR",
    "latitude": "-13.08252000",
    "longitude": "-60.49419000",
    "wikiDataId": null
  },
  {
    "id": 11441,
    "name": "Corumbiara",
    "state_id": 2013,
    "state_code": "RO",
    "country_id": 31,
    "country_code": "BR",
    "latitude": "-12.87592000",
    "longitude": "-61.11993000",
    "wikiDataId": null
  },
  {
    "id": 11448,
    "name": "Costa Marques",
    "state_id": 2013,
    "state_code": "RO",
    "country_id": 31,
    "country_code": "BR",
    "latitude": "-12.06168000",
    "longitude": "-64.07323000",
    "wikiDataId": null
  },
  {
    "id": 11511,
    "name": "Cujubim",
    "state_id": 2013,
    "state_code": "RO",
    "country_id": 31,
    "country_code": "BR",
    "latitude": "-8.97819000",
    "longitude": "-62.44252000",
    "wikiDataId": null
  },
  {
    "id": 11735,
    "name": "Espigão d'Oeste",
    "state_id": 2013,
    "state_code": "RO",
    "country_id": 31,
    "country_code": "BR",
    "latitude": "-11.46622000",
    "longitude": "-60.69924000",
    "wikiDataId": null
  },
  {
    "id": 11766,
    "name": "Extrema",
    "state_id": 2013,
    "state_code": "RO",
    "country_id": 31,
    "country_code": "BR",
    "latitude": "-9.77136000",
    "longitude": "-66.35583000",
    "wikiDataId": null
  },
  {
    "id": 11984,
    "name": "Governador Jorge Teixeira",
    "state_id": 2013,
    "state_code": "RO",
    "country_id": 31,
    "country_code": "BR",
    "latitude": "-10.78462000",
    "longitude": "-63.04433000",
    "wikiDataId": null
  },
  {
    "id": 12019,
    "name": "Guajará Mirim",
    "state_id": 2013,
    "state_code": "RO",
    "country_id": 31,
    "country_code": "BR",
    "latitude": "-10.78356000",
    "longitude": "-65.33552000",
    "wikiDataId": null
  },
  {
    "id": 12439,
    "name": "Itapuã do Oeste",
    "state_id": 2013,
    "state_code": "RO",
    "country_id": 31,
    "country_code": "BR",
    "latitude": "-9.03389000",
    "longitude": "-63.23215000",
    "wikiDataId": null
  },
  {
    "id": 12596,
    "name": "Jaru",
    "state_id": 2013,
    "state_code": "RO",
    "country_id": 31,
    "country_code": "BR",
    "latitude": "-10.43889000",
    "longitude": "-62.46639000",
    "wikiDataId": null
  },
  {
    "id": 12629,
    "name": "Ji Paraná",
    "state_id": 2013,
    "state_code": "RO",
    "country_id": 31,
    "country_code": "BR",
    "latitude": "-10.88528000",
    "longitude": "-61.95167000",
    "wikiDataId": null
  },
  {
    "id": 12899,
    "name": "Machadinho d'Oeste",
    "state_id": 2013,
    "state_code": "RO",
    "country_id": 31,
    "country_code": "BR",
    "latitude": "-9.23953000",
    "longitude": "-62.11241000",
    "wikiDataId": null
  },
  {
    "id": 13128,
    "name": "Ministro Andreazza",
    "state_id": 2013,
    "state_code": "RO",
    "country_id": 31,
    "country_code": "BR",
    "latitude": "-11.16029000",
    "longitude": "-61.56897000",
    "wikiDataId": null
  },
  {
    "id": 13146,
    "name": "Mirante da Serra",
    "state_id": 2013,
    "state_code": "RO",
    "country_id": 31,
    "country_code": "BR",
    "latitude": "-11.13706000",
    "longitude": "-62.86154000",
    "wikiDataId": null
  },
  {
    "id": 13207,
    "name": "Monte Negro",
    "state_id": 2013,
    "state_code": "RO",
    "country_id": 31,
    "country_code": "BR",
    "latitude": "-10.30450000",
    "longitude": "-63.35402000",
    "wikiDataId": null
  },
  {
    "id": 13360,
    "name": "Nova Brasilândia d'Oeste",
    "state_id": 2013,
    "state_code": "RO",
    "country_id": 31,
    "country_code": "BR",
    "latitude": "-11.49111000",
    "longitude": "-62.16495000",
    "wikiDataId": null
  },
  {
    "id": 13401,
    "name": "Nova Mamoré",
    "state_id": 2013,
    "state_code": "RO",
    "country_id": 31,
    "country_code": "BR",
    "latitude": "-10.53837000",
    "longitude": "-64.49429000",
    "wikiDataId": null
  },
  {
    "id": 13442,
    "name": "Nova União",
    "state_id": 2013,
    "state_code": "RO",
    "country_id": 31,
    "country_code": "BR",
    "latitude": "-10.94938000",
    "longitude": "-62.51087000",
    "wikiDataId": null
  },
  {
    "id": 13464,
    "name": "Novo Horizonte do Oeste",
    "state_id": 2013,
    "state_code": "RO",
    "country_id": 31,
    "country_code": "BR",
    "latitude": "-11.70769000",
    "longitude": "-62.07989000",
    "wikiDataId": null
  },
  {
    "id": 13543,
    "name": "Ouro Preto do Oeste",
    "state_id": 2013,
    "state_code": "RO",
    "country_id": 31,
    "country_code": "BR",
    "latitude": "-10.74806000",
    "longitude": "-62.21583000",
    "wikiDataId": null
  },
  {
    "id": 13669,
    "name": "Parecis",
    "state_id": 2013,
    "state_code": "RO",
    "country_id": 31,
    "country_code": "BR",
    "latitude": "-12.28659000",
    "longitude": "-61.31662000",
    "wikiDataId": null
  },
  {
    "id": 13845,
    "name": "Pimenta Bueno",
    "state_id": 2013,
    "state_code": "RO",
    "country_id": 31,
    "country_code": "BR",
    "latitude": "-11.67250000",
    "longitude": "-61.19361000",
    "wikiDataId": null
  },
  {
    "id": 13847,
    "name": "Pimenteiras do Oeste",
    "state_id": 2013,
    "state_code": "RO",
    "country_id": 31,
    "country_code": "BR",
    "latitude": "-13.01273000",
    "longitude": "-61.73762000",
    "wikiDataId": null
  },
  {
    "id": 14019,
    "name": "Porto Velho",
    "state_id": 2013,
    "state_code": "RO",
    "country_id": 31,
    "country_code": "BR",
    "latitude": "-9.20787000",
    "longitude": "-64.31064000",
    "wikiDataId": null
  },
  {
    "id": 14124,
    "name": "Pôsto Fiscal Rolim de Moura",
    "state_id": 2013,
    "state_code": "RO",
    "country_id": 31,
    "country_code": "BR",
    "latitude": "-13.08271000",
    "longitude": "-62.27726000",
    "wikiDataId": null
  },
  {
    "id": 14091,
    "name": "Presidente Médici",
    "state_id": 2013,
    "state_code": "RO",
    "country_id": 31,
    "country_code": "BR",
    "latitude": "-11.18523000",
    "longitude": "-61.94072000",
    "wikiDataId": null
  },
  {
    "id": 14102,
    "name": "Primavera de Rondônia",
    "state_id": 2013,
    "state_code": "RO",
    "country_id": 31,
    "country_code": "BR",
    "latitude": "-11.92939000",
    "longitude": "-61.30611000",
    "wikiDataId": null
  },
  {
    "id": 14271,
    "name": "Rio Crespo",
    "state_id": 2013,
    "state_code": "RO",
    "country_id": 31,
    "country_code": "BR",
    "latitude": "-9.71880000",
    "longitude": "-62.74641000",
    "wikiDataId": null
  },
  {
    "id": 14336,
    "name": "Rolim de Moura",
    "state_id": 2013,
    "state_code": "RO",
    "country_id": 31,
    "country_code": "BR",
    "latitude": "-11.75260000",
    "longitude": "-61.78967000",
    "wikiDataId": null
  },
  {
    "id": 14493,
    "name": "Santa Luzia d'Oeste",
    "state_id": 2013,
    "state_code": "RO",
    "country_id": 31,
    "country_code": "BR",
    "latitude": "-12.10467000",
    "longitude": "-61.79440000",
    "wikiDataId": null
  },
  {
    "id": 14876,
    "name": "São Felipe d'Oeste",
    "state_id": 2013,
    "state_code": "RO",
    "country_id": 31,
    "country_code": "BR",
    "latitude": "-11.89774000",
    "longitude": "-61.47739000",
    "wikiDataId": null
  },
  {
    "id": 14893,
    "name": "São Francisco do Guaporé",
    "state_id": 2013,
    "state_code": "RO",
    "country_id": 31,
    "country_code": "BR",
    "latitude": "-12.38313000",
    "longitude": "-63.12648000",
    "wikiDataId": null
  },
  {
    "id": 15091,
    "name": "São Miguel do Guaporé",
    "state_id": 2013,
    "state_code": "RO",
    "country_id": 31,
    "country_code": "BR",
    "latitude": "-11.70783000",
    "longitude": "-62.93532000",
    "wikiDataId": null
  },
  {
    "id": 14718,
    "name": "Seringueiras",
    "state_id": 2013,
    "state_code": "RO",
    "country_id": 31,
    "country_code": "BR",
    "latitude": "-11.92491000",
    "longitude": "-63.18938000",
    "wikiDataId": null
  },
  {
    "id": 15269,
    "name": "Teixeirópolis",
    "state_id": 2013,
    "state_code": "RO",
    "country_id": 31,
    "country_code": "BR",
    "latitude": "-10.99266000",
    "longitude": "-62.24735000",
    "wikiDataId": null
  },
  {
    "id": 15302,
    "name": "Theobroma",
    "state_id": 2013,
    "state_code": "RO",
    "country_id": 31,
    "country_code": "BR",
    "latitude": "-10.10159000",
    "longitude": "-62.28094000",
    "wikiDataId": null
  },
  {
    "id": 15482,
    "name": "Urupá",
    "state_id": 2013,
    "state_code": "RO",
    "country_id": 31,
    "country_code": "BR",
    "latitude": "-11.07917000",
    "longitude": "-62.38127000",
    "wikiDataId": null
  },
  {
    "id": 15494,
    "name": "Vale do Anari",
    "state_id": 2013,
    "state_code": "RO",
    "country_id": 31,
    "country_code": "BR",
    "latitude": "-9.73244000",
    "longitude": "-61.93919000",
    "wikiDataId": null
  },
  {
    "id": 15495,
    "name": "Vale do Paraíso",
    "state_id": 2013,
    "state_code": "RO",
    "country_id": 31,
    "country_code": "BR",
    "latitude": "-10.20652000",
    "longitude": "-62.06993000",
    "wikiDataId": null
  },
  {
    "id": 15579,
    "name": "Vilhena",
    "state_id": 2013,
    "state_code": "RO",
    "country_id": 31,
    "country_code": "BR",
    "latitude": "-12.02062000",
    "longitude": "-60.27526000",
    "wikiDataId": null
  }
]