[
  {
    "id": 107124,
    "name": "Alaplı",
    "state_id": 2213,
    "state_code": "67",
    "country_id": 225,
    "country_code": "TR",
    "latitude": "41.18140000",
    "longitude": "31.38514000",
    "wikiDataId": null
  },
  {
    "id": 108798,
    "name": "Çaycuma",
    "state_id": 2213,
    "state_code": "67",
    "country_id": 225,
    "country_code": "TR",
    "latitude": "41.42639000",
    "longitude": "32.07556000",
    "wikiDataId": null
  },
  {
    "id": 107486,
    "name": "Devrek",
    "state_id": 2213,
    "state_code": "67",
    "country_id": 225,
    "country_code": "TR",
    "latitude": "41.21917000",
    "longitude": "31.95583000",
    "wikiDataId": null
  },
  {
    "id": 107590,
    "name": "Ereğli",
    "state_id": 2213,
    "state_code": "67",
    "country_id": 225,
    "country_code": "TR",
    "latitude": "41.23807000",
    "longitude": "31.60581000",
    "wikiDataId": null
  },
  {
    "id": 107684,
    "name": "Gökçebey",
    "state_id": 2213,
    "state_code": "67",
    "country_id": 225,
    "country_code": "TR",
    "latitude": "41.31339000",
    "longitude": "32.14981000",
    "wikiDataId": null
  },
  {
    "id": 107996,
    "name": "Kilimli",
    "state_id": 2213,
    "state_code": "67",
    "country_id": 225,
    "country_code": "TR",
    "latitude": "41.49111000",
    "longitude": "31.83861000",
    "wikiDataId": null
  },
  {
    "id": 108034,
    "name": "Kozlu",
    "state_id": 2213,
    "state_code": "67",
    "country_id": 225,
    "country_code": "TR",
    "latitude": "41.43194000",
    "longitude": "31.74583000",
    "wikiDataId": null
  },
  {
    "id": 108755,
    "name": "Merkez",
    "state_id": 2213,
    "state_code": "67",
    "country_id": 225,
    "country_code": "TR",
    "latitude": "41.45139000",
    "longitude": "31.79305000",
    "wikiDataId": null
  }
]