[
  {
    "id": 22015,
    "name": "Aradíppou",
    "state_id": 747,
    "state_code": "03",
    "country_id": 57,
    "country_code": "CY",
    "latitude": "34.95151000",
    "longitude": "33.59199000",
    "wikiDataId": null
  },
  {
    "id": 22019,
    "name": "Athíenou",
    "state_id": 747,
    "state_code": "03",
    "country_id": 57,
    "country_code": "CY",
    "latitude": "35.06180000",
    "longitude": "33.54156000",
    "wikiDataId": null
  },
  {
    "id": 22024,
    "name": "Dhromolaxia",
    "state_id": 747,
    "state_code": "03",
    "country_id": 57,
    "country_code": "CY",
    "latitude": "34.87551000",
    "longitude": "33.58684000",
    "wikiDataId": null
  },
  {
    "id": 22049,
    "name": "Kíti",
    "state_id": 747,
    "state_code": "03",
    "country_id": 57,
    "country_code": "CY",
    "latitude": "34.84696000",
    "longitude": "33.57344000",
    "wikiDataId": null
  },
  {
    "id": 22039,
    "name": "Kofínou",
    "state_id": 747,
    "state_code": "03",
    "country_id": 57,
    "country_code": "CY",
    "latitude": "34.82449000",
    "longitude": "33.39130000",
    "wikiDataId": null
  },
  {
    "id": 22042,
    "name": "Kolossi",
    "state_id": 747,
    "state_code": "03",
    "country_id": 57,
    "country_code": "CY",
    "latitude": "34.66865000",
    "longitude": "32.93375000",
    "wikiDataId": null
  },
  {
    "id": 22050,
    "name": "Kórnos",
    "state_id": 747,
    "state_code": "03",
    "country_id": 57,
    "country_code": "CY",
    "latitude": "34.92396000",
    "longitude": "33.39764000",
    "wikiDataId": null
  },
  {
    "id": 22051,
    "name": "Larnaca",
    "state_id": 747,
    "state_code": "03",
    "country_id": 57,
    "country_code": "CY",
    "latitude": "34.92291000",
    "longitude": "33.62330000",
    "wikiDataId": null
  },
  {
    "id": 22057,
    "name": "Livádia",
    "state_id": 747,
    "state_code": "03",
    "country_id": 57,
    "country_code": "CY",
    "latitude": "34.95118000",
    "longitude": "33.62658000",
    "wikiDataId": null
  },
  {
    "id": 22062,
    "name": "Meneou",
    "state_id": 747,
    "state_code": "03",
    "country_id": 57,
    "country_code": "CY",
    "latitude": "34.86114000",
    "longitude": "33.59516000",
    "wikiDataId": null
  },
  {
    "id": 22064,
    "name": "Mosfilotí",
    "state_id": 747,
    "state_code": "03",
    "country_id": 57,
    "country_code": "CY",
    "latitude": "34.95256000",
    "longitude": "33.42511000",
    "wikiDataId": null
  },
  {
    "id": 22087,
    "name": "Pérgamos",
    "state_id": 747,
    "state_code": "03",
    "country_id": 57,
    "country_code": "CY",
    "latitude": "35.04167000",
    "longitude": "33.70833000",
    "wikiDataId": null
  },
  {
    "id": 22076,
    "name": "Perivólia",
    "state_id": 747,
    "state_code": "03",
    "country_id": 57,
    "country_code": "CY",
    "latitude": "34.83355000",
    "longitude": "33.58196000",
    "wikiDataId": null
  },
  {
    "id": 22079,
    "name": "Psevdás",
    "state_id": 747,
    "state_code": "03",
    "country_id": 57,
    "country_code": "CY",
    "latitude": "34.94653000",
    "longitude": "33.46277000",
    "wikiDataId": null
  },
  {
    "id": 22089,
    "name": "Pýla",
    "state_id": 747,
    "state_code": "03",
    "country_id": 57,
    "country_code": "CY",
    "latitude": "35.01237000",
    "longitude": "33.69188000",
    "wikiDataId": null
  },
  {
    "id": 22093,
    "name": "Tersefánou",
    "state_id": 747,
    "state_code": "03",
    "country_id": 57,
    "country_code": "CY",
    "latitude": "34.85411000",
    "longitude": "33.54746000",
    "wikiDataId": null
  },
  {
    "id": 22094,
    "name": "Troúlloi",
    "state_id": 747,
    "state_code": "03",
    "country_id": 57,
    "country_code": "CY",
    "latitude": "35.03203000",
    "longitude": "33.61501000",
    "wikiDataId": null
  },
  {
    "id": 22099,
    "name": "Voróklini",
    "state_id": 747,
    "state_code": "03",
    "country_id": 57,
    "country_code": "CY",
    "latitude": "34.98600000",
    "longitude": "33.65387000",
    "wikiDataId": null
  },
  {
    "id": 22100,
    "name": "Xylofágou",
    "state_id": 747,
    "state_code": "03",
    "country_id": 57,
    "country_code": "CY",
    "latitude": "34.97743000",
    "longitude": "33.84894000",
    "wikiDataId": null
  },
  {
    "id": 22101,
    "name": "Xylotymbou",
    "state_id": 747,
    "state_code": "03",
    "country_id": 57,
    "country_code": "CY",
    "latitude": "35.01720000",
    "longitude": "33.74245000",
    "wikiDataId": null
  }
]