[
  {
    "id": 48431,
    "name": "Battle",
    "state_id": 2414,
    "state_code": "ESX",
    "country_id": 232,
    "country_code": "GB",
    "latitude": "50.91732000",
    "longitude": "0.48417000",
    "wikiDataId": null
  },
  {
    "id": 48489,
    "name": "Bexhill-on-Sea",
    "state_id": 2414,
    "state_code": "ESX",
    "country_id": 232,
    "country_code": "GB",
    "latitude": "50.85023000",
    "longitude": "0.47095000",
    "wikiDataId": null
  },
  {
    "id": 48582,
    "name": "Bodle Street",
    "state_id": 2414,
    "state_code": "ESX",
    "country_id": 232,
    "country_code": "GB",
    "latitude": "50.91299000",
    "longitude": "0.34332000",
    "wikiDataId": null
  },
  {
    "id": 48796,
    "name": "Burwash",
    "state_id": 2414,
    "state_code": "ESX",
    "country_id": 232,
    "country_code": "GB",
    "latitude": "50.99755000",
    "longitude": "0.38504000",
    "wikiDataId": null
  },
  {
    "id": 48804,
    "name": "Buxted",
    "state_id": 2414,
    "state_code": "ESX",
    "country_id": 232,
    "country_code": "GB",
    "latitude": "50.99003000",
    "longitude": "0.13441000",
    "wikiDataId": null
  },
  {
    "id": 48829,
    "name": "Camber",
    "state_id": 2414,
    "state_code": "ESX",
    "country_id": 232,
    "country_code": "GB",
    "latitude": "50.93473000",
    "longitude": "0.79848000",
    "wikiDataId": null
  },
  {
    "id": 49181,
    "name": "Crowborough",
    "state_id": 2414,
    "state_code": "ESX",
    "country_id": 232,
    "country_code": "GB",
    "latitude": "51.06098000",
    "longitude": "0.16342000",
    "wikiDataId": null
  },
  {
    "id": 49411,
    "name": "East Sussex",
    "state_id": 2414,
    "state_code": "ESX",
    "country_id": 232,
    "country_code": "GB",
    "latitude": "50.91667000",
    "longitude": "0.33333000",
    "wikiDataId": null
  },
  {
    "id": 49416,
    "name": "Eastbourne",
    "state_id": 2414,
    "state_code": "ESX",
    "country_id": 232,
    "country_code": "GB",
    "latitude": "50.76871000",
    "longitude": "0.28453000",
    "wikiDataId": null
  },
  {
    "id": 49519,
    "name": "Fairlight",
    "state_id": 2414,
    "state_code": "ESX",
    "country_id": 232,
    "country_code": "GB",
    "latitude": "50.87802000",
    "longitude": "0.65669000",
    "wikiDataId": null
  },
  {
    "id": 49573,
    "name": "Flimwell",
    "state_id": 2414,
    "state_code": "ESX",
    "country_id": 232,
    "country_code": "GB",
    "latitude": "51.05502000",
    "longitude": "0.44531000",
    "wikiDataId": null
  },
  {
    "id": 49586,
    "name": "Forest Row",
    "state_id": 2414,
    "state_code": "ESX",
    "country_id": 232,
    "country_code": "GB",
    "latitude": "51.09641000",
    "longitude": "0.03262000",
    "wikiDataId": null
  },
  {
    "id": 49611,
    "name": "Friston",
    "state_id": 2414,
    "state_code": "ESX",
    "country_id": 232,
    "country_code": "GB",
    "latitude": "50.76402000",
    "longitude": "0.19930000",
    "wikiDataId": null
  },
  {
    "id": 49691,
    "name": "Goudhurst",
    "state_id": 2414,
    "state_code": "ESX",
    "country_id": 232,
    "country_code": "GB",
    "latitude": "51.11314000",
    "longitude": "0.45615000",
    "wikiDataId": null
  },
  {
    "id": 49757,
    "name": "Groombridge",
    "state_id": 2414,
    "state_code": "ESX",
    "country_id": 232,
    "country_code": "GB",
    "latitude": "51.11543000",
    "longitude": "0.18295000",
    "wikiDataId": null
  },
  {
    "id": 49779,
    "name": "Hailsham",
    "state_id": 2414,
    "state_code": "ESX",
    "country_id": 232,
    "country_code": "GB",
    "latitude": "50.86220000",
    "longitude": "0.25775000",
    "wikiDataId": null
  },
  {
    "id": 49835,
    "name": "Hastings",
    "state_id": 2414,
    "state_code": "ESX",
    "country_id": 232,
    "country_code": "GB",
    "latitude": "50.85519000",
    "longitude": "0.57292000",
    "wikiDataId": null
  },
  {
    "id": 49852,
    "name": "Hawkhurst",
    "state_id": 2414,
    "state_code": "ESX",
    "country_id": 232,
    "country_code": "GB",
    "latitude": "51.04790000",
    "longitude": "0.51095000",
    "wikiDataId": null
  },
  {
    "id": 49877,
    "name": "Heathfield",
    "state_id": 2414,
    "state_code": "ESX",
    "country_id": 232,
    "country_code": "GB",
    "latitude": "50.96718000",
    "longitude": "0.25612000",
    "wikiDataId": null
  },
  {
    "id": 49912,
    "name": "Herstmonceux",
    "state_id": 2414,
    "state_code": "ESX",
    "country_id": 232,
    "country_code": "GB",
    "latitude": "50.88958000",
    "longitude": "0.32290000",
    "wikiDataId": null
  },
  {
    "id": 49987,
    "name": "Horam",
    "state_id": 2414,
    "state_code": "ESX",
    "country_id": 232,
    "country_code": "GB",
    "latitude": "50.93523000",
    "longitude": "0.24436000",
    "wikiDataId": null
  },
  {
    "id": 50228,
    "name": "Lamberhurst",
    "state_id": 2414,
    "state_code": "ESX",
    "country_id": 232,
    "country_code": "GB",
    "latitude": "51.10050000",
    "longitude": "0.38967000",
    "wikiDataId": null
  },
  {
    "id": 50743,
    "name": "Ninfield",
    "state_id": 2414,
    "state_code": "ESX",
    "country_id": 232,
    "country_code": "GB",
    "latitude": "50.88641000",
    "longitude": "0.42529000",
    "wikiDataId": null
  },
  {
    "id": 50776,
    "name": "Northiam",
    "state_id": 2414,
    "state_code": "ESX",
    "country_id": 232,
    "country_code": "GB",
    "latitude": "50.99439000",
    "longitude": "0.60026000",
    "wikiDataId": null
  },
  {
    "id": 50874,
    "name": "Pembury",
    "state_id": 2414,
    "state_code": "ESX",
    "country_id": 232,
    "country_code": "GB",
    "latitude": "51.14296000",
    "longitude": "0.32187000",
    "wikiDataId": null
  },
  {
    "id": 50906,
    "name": "Pevensey",
    "state_id": 2414,
    "state_code": "ESX",
    "country_id": 232,
    "country_code": "GB",
    "latitude": "50.81966000",
    "longitude": "0.33963000",
    "wikiDataId": null
  },
  {
    "id": 50907,
    "name": "Pevensey Bay",
    "state_id": 2414,
    "state_code": "ESX",
    "country_id": 232,
    "country_code": "GB",
    "latitude": "50.81242000",
    "longitude": "0.34864000",
    "wikiDataId": null
  },
  {
    "id": 51092,
    "name": "Robertsbridge",
    "state_id": 2414,
    "state_code": "ESX",
    "country_id": 232,
    "country_code": "GB",
    "latitude": "50.98569000",
    "longitude": "0.47253000",
    "wikiDataId": null
  },
  {
    "id": 51131,
    "name": "Royal Tunbridge Wells",
    "state_id": 2414,
    "state_code": "ESX",
    "country_id": 232,
    "country_code": "GB",
    "latitude": "51.13321000",
    "longitude": "0.26256000",
    "wikiDataId": null
  },
  {
    "id": 51147,
    "name": "Rusthall",
    "state_id": 2414,
    "state_code": "ESX",
    "country_id": 232,
    "country_code": "GB",
    "latitude": "51.13643000",
    "longitude": "0.22931000",
    "wikiDataId": null
  },
  {
    "id": 51153,
    "name": "Rye",
    "state_id": 2414,
    "state_code": "ESX",
    "country_id": 232,
    "country_code": "GB",
    "latitude": "50.95114000",
    "longitude": "0.73370000",
    "wikiDataId": null
  },
  {
    "id": 51172,
    "name": "Saint Leonards-on-Sea",
    "state_id": 2414,
    "state_code": "ESX",
    "country_id": 232,
    "country_code": "GB",
    "latitude": "50.85565000",
    "longitude": "0.54520000",
    "wikiDataId": null
  },
  {
    "id": 51386,
    "name": "Speldhurst",
    "state_id": 2414,
    "state_code": "ESX",
    "country_id": 232,
    "country_code": "GB",
    "latitude": "51.15076000",
    "longitude": "0.21947000",
    "wikiDataId": null
  },
  {
    "id": 51618,
    "name": "Ticehurst",
    "state_id": 2414,
    "state_code": "ESX",
    "country_id": 232,
    "country_code": "GB",
    "latitude": "51.04652000",
    "longitude": "0.40860000",
    "wikiDataId": null
  },
  {
    "id": 51655,
    "name": "Town Row",
    "state_id": 2414,
    "state_code": "ESX",
    "country_id": 232,
    "country_code": "GB",
    "latitude": "51.05302000",
    "longitude": "0.23217000",
    "wikiDataId": null
  },
  {
    "id": 51689,
    "name": "Uckfield",
    "state_id": 2414,
    "state_code": "ESX",
    "country_id": 232,
    "country_code": "GB",
    "latitude": "50.96948000",
    "longitude": "0.09589000",
    "wikiDataId": null
  },
  {
    "id": 51723,
    "name": "Wadhurst",
    "state_id": 2414,
    "state_code": "ESX",
    "country_id": 232,
    "country_code": "GB",
    "latitude": "51.06230000",
    "longitude": "0.33929000",
    "wikiDataId": null
  },
  {
    "id": 51921,
    "name": "Winchelsea Beach",
    "state_id": 2414,
    "state_code": "ESX",
    "country_id": 232,
    "country_code": "GB",
    "latitude": "50.91691000",
    "longitude": "0.72158000",
    "wikiDataId": null
  }
]