[
  {
    "id": 982,
    "name": "Attapeu",
    "country_id": 119,
    "country_code": "LA",
    "state_code": "AT",
    "type": "province",
    "latitude": "14.79073000",
    "longitude": "107.10083180",
    "iso3166_2": "LA-AT",
    "native": "ອັດຕະປື",
    "timezone": "Asia/Vientiane"
  },
  {
    "id": 991,
    "name": "Bokeo",
    "country_id": 119,
    "country_code": "LA",
    "state_code": "BK",
    "type": "province",
    "latitude": "20.31744500",
    "longitude": "100.39581120",
    "iso3166_2": "LA-BK",
    "native": "ບໍ່ແກ້ວ",
    "timezone": "Asia/Vientiane"
  },
  {
    "id": 985,
    "name": "Bolikhamsai",
    "country_id": 119,
    "country_code": "LA",
    "state_code": "BL",
    "type": "province",
    "latitude": "18.58065940",
    "longitude": "104.14915940",
    "iso3166_2": "LA-BL",
    "native": "ບໍລິຄຳໄຊ",
    "timezone": "Asia/Vientiane"
  },
  {
    "id": 996,
    "name": "Champasak",
    "country_id": 119,
    "country_code": "LA",
    "state_code": "CH",
    "type": "province",
    "latitude": "14.88728850",
    "longitude": "105.87658040",
    "iso3166_2": "LA-CH",
    "native": "ຈໍາປາສັກ",
    "timezone": "Asia/Vientiane"
  },
  {
    "id": 989,
    "name": "Houaphanh",
    "country_id": 119,
    "country_code": "LA",
    "state_code": "HO",
    "type": "province",
    "latitude": "20.23547480",
    "longitude": "103.62033870",
    "iso3166_2": "LA-HO",
    "native": "ຫົວພັນ",
    "timezone": "Asia/Vientiane"
  },
  {
    "id": 986,
    "name": "Khammouane",
    "country_id": 119,
    "country_code": "LA",
    "state_code": "KH",
    "type": "province",
    "latitude": "17.58420550",
    "longitude": "105.24713250",
    "iso3166_2": "LA-KH",
    "native": "ຄຳມ່ວນ",
    "timezone": "Asia/Vientiane"
  },
  {
    "id": 992,
    "name": "Luang Namtha",
    "country_id": 119,
    "country_code": "LA",
    "state_code": "LM",
    "type": "province",
    "latitude": "20.93300400",
    "longitude": "101.05867370",
    "iso3166_2": "LA-LM",
    "native": "ຫຼວງນ້ຳທາ",
    "timezone": "Asia/Vientiane"
  },
  {
    "id": 978,
    "name": "Luang Prabang",
    "country_id": 119,
    "country_code": "LA",
    "state_code": "LP",
    "type": "province",
    "latitude": "20.21154150",
    "longitude": "102.61268400",
    "iso3166_2": "LA-LP",
    "native": "ຫຼວງພະບາງ",
    "timezone": "Asia/Vientiane"
  },
  {
    "id": 988,
    "name": "Oudomxay",
    "country_id": 119,
    "country_code": "LA",
    "state_code": "OU",
    "type": "province",
    "latitude": "20.69301340",
    "longitude": "101.98536780",
    "iso3166_2": "LA-OU",
    "native": "ອຸດົມໄຊ",
    "timezone": "Asia/Vientiane"
  },
  {
    "id": 987,
    "name": "Phongsaly",
    "country_id": 119,
    "country_code": "LA",
    "state_code": "PH",
    "type": "province",
    "latitude": "21.67678160",
    "longitude": "102.27731770",
    "iso3166_2": "LA-PH",
    "native": "ຜົ້ງສາລີ",
    "timezone": "Asia/Vientiane"
  },
  {
    "id": 993,
    "name": "Sainyabuli",
    "country_id": 119,
    "country_code": "LA",
    "state_code": "XA",
    "type": "province",
    "latitude": "19.25361390",
    "longitude": "101.61809850",
    "iso3166_2": "LA-XA",
    "native": "ໄຊຍາບູລີ",
    "timezone": "Asia/Vientiane"
  },
  {
    "id": 981,
    "name": "Salavan",
    "country_id": 119,
    "country_code": "LA",
    "state_code": "SL",
    "type": "province",
    "latitude": "15.87128000",
    "longitude": "106.33895650",
    "iso3166_2": "LA-SL",
    "native": "ສາລະວັນ",
    "timezone": "Asia/Vientiane"
  },
  {
    "id": 990,
    "name": "Savannakhet",
    "country_id": 119,
    "country_code": "LA",
    "state_code": "SV",
    "type": "province",
    "latitude": "16.50019580",
    "longitude": "105.71559460",
    "iso3166_2": "LA-SV",
    "native": "ສະຫວັນນະເຂດ",
    "timezone": "Asia/Vientiane"
  },
  {
    "id": 984,
    "name": "Sekong",
    "country_id": 119,
    "country_code": "LA",
    "state_code": "XE",
    "type": "province",
    "latitude": "15.86604190",
    "longitude": "106.96377820",
    "iso3166_2": "LA-XE",
    "native": "ເຊກອງ",
    "timezone": "Asia/Vientiane"
  },
  {
    "id": 980,
    "name": "Vientiane",
    "country_id": 119,
    "country_code": "LA",
    "state_code": "VI",
    "type": "province",
    "latitude": "17.96409880",
    "longitude": "102.61337070",
    "iso3166_2": "LA-VI",
    "native": "ວຽງຈັນ",
    "timezone": "Asia/Vientiane"
  },
  {
    "id": 979,
    "name": "Vientiane",
    "country_id": 119,
    "country_code": "LA",
    "state_code": "VT",
    "type": "prefecture",
    "latitude": "17.96409880",
    "longitude": "102.61337070",
    "iso3166_2": "LA-VT",
    "native": "ວຽງຈັນ",
    "timezone": "Asia/Vientiane"
  },
  {
    "id": 983,
    "name": "Xaisomboun",
    "country_id": 119,
    "country_code": "LA",
    "state_code": "XS",
    "type": "province",
    "latitude": "18.86317250",
    "longitude": "103.03447830",
    "iso3166_2": "LA-XS",
    "native": "ໄຊສົມບູນ",
    "timezone": "Asia/Vientiane"
  },
  {
    "id": 995,
    "name": "Xiangkhouang",
    "country_id": 119,
    "country_code": "LA",
    "state_code": "XI",
    "type": "province",
    "latitude": "19.41304790",
    "longitude": "103.46801260",
    "iso3166_2": "LA-XI",
    "native": "ຊຽງຂວາງ",
    "timezone": "Asia/Vientiane"
  }
]