[
  {
    "id": 20550,
    "name": "Armenia",
    "state_id": 2874,
    "state_code": "QUI",
    "country_id": 48,
    "country_code": "CO",
    "latitude": "4.53307000",
    "longitude": "-75.70438000",
    "wikiDataId": null
  },
  {
    "id": 20607,
    "name": "Buenavista",
    "state_id": 2874,
    "state_code": "QUI",
    "country_id": 48,
    "country_code": "CO",
    "latitude": "4.35969000",
    "longitude": "-75.73888000",
    "wikiDataId": null
  },
  {
    "id": 20629,
    "name": "Calarca",
    "state_id": 2874,
    "state_code": "QUI",
    "country_id": 48,
    "country_code": "CO",
    "latitude": "4.50000000",
    "longitude": "-75.63333000",
    "wikiDataId": null
  },
  {
    "id": 20709,
    "name": "Circasia",
    "state_id": 2874,
    "state_code": "QUI",
    "country_id": 48,
    "country_code": "CO",
    "latitude": "4.59940000",
    "longitude": "-75.68536000",
    "wikiDataId": null
  },
  {
    "id": 20771,
    "name": "Córdoba",
    "state_id": 2874,
    "state_code": "QUI",
    "country_id": 48,
    "country_code": "CO",
    "latitude": "4.38055000",
    "longitude": "-75.66685000",
    "wikiDataId": null
  },
  {
    "id": 20845,
    "name": "Filandia",
    "state_id": 2874,
    "state_code": "QUI",
    "country_id": 48,
    "country_code": "CO",
    "latitude": "4.67525000",
    "longitude": "-75.67142000",
    "wikiDataId": null
  },
  {
    "id": 20930,
    "name": "Génova",
    "state_id": 2874,
    "state_code": "QUI",
    "country_id": 48,
    "country_code": "CO",
    "latitude": "4.22743000",
    "longitude": "-75.75480000",
    "wikiDataId": null
  },
  {
    "id": 21004,
    "name": "La Tebaida",
    "state_id": 2874,
    "state_code": "QUI",
    "country_id": 48,
    "country_code": "CO",
    "latitude": "4.43353000",
    "longitude": "-75.81476000",
    "wikiDataId": null
  },
  {
    "id": 21100,
    "name": "Montenegro",
    "state_id": 2874,
    "state_code": "QUI",
    "country_id": 48,
    "country_code": "CO",
    "latitude": "4.52676000",
    "longitude": "-75.82265000",
    "wikiDataId": null
  },
  {
    "id": 21204,
    "name": "Pijao",
    "state_id": 2874,
    "state_code": "QUI",
    "country_id": 48,
    "country_code": "CO",
    "latitude": "4.33350000",
    "longitude": "-75.70463000",
    "wikiDataId": null
  },
  {
    "id": 21273,
    "name": "Quimbaya",
    "state_id": 2874,
    "state_code": "QUI",
    "country_id": 48,
    "country_code": "CO",
    "latitude": "4.59342000",
    "longitude": "-75.83758000",
    "wikiDataId": null
  },
  {
    "id": 21322,
    "name": "Salento",
    "state_id": 2874,
    "state_code": "QUI",
    "country_id": 48,
    "country_code": "CO",
    "latitude": "4.63643000",
    "longitude": "-75.56740000",
    "wikiDataId": null
  }
]