[
  {
    "id": 48233,
    "name": "Altrincham",
    "state_id": 2293,
    "state_code": "TRF",
    "country_id": 232,
    "country_code": "GB",
    "latitude": "53.38752000",
    "longitude": "-2.34848000",
    "wikiDataId": null
  },
  {
    "id": 48635,
    "name": "Bowdon",
    "state_id": 2293,
    "state_code": "TRF",
    "country_id": 232,
    "country_code": "GB",
    "latitude": "53.37644000",
    "longitude": "-2.36532000",
    "wikiDataId": null
  },
  {
    "id": 49653,
    "name": "Glazebury",
    "state_id": 2293,
    "state_code": "TRF",
    "country_id": 232,
    "country_code": "GB",
    "latitude": "53.47078000",
    "longitude": "-2.49823000",
    "wikiDataId": null
  },
  {
    "id": 49781,
    "name": "Hale",
    "state_id": 2293,
    "state_code": "TRF",
    "country_id": 232,
    "country_code": "GB",
    "latitude": "53.37831000",
    "longitude": "-2.33271000",
    "wikiDataId": null
  },
  {
    "id": 49928,
    "name": "High Legh",
    "state_id": 2293,
    "state_code": "TRF",
    "country_id": 232,
    "country_code": "GB",
    "latitude": "53.35139000",
    "longitude": "-2.45380000",
    "wikiDataId": null
  },
  {
    "id": 50069,
    "name": "Irlam",
    "state_id": 2293,
    "state_code": "TRF",
    "country_id": 232,
    "country_code": "GB",
    "latitude": "53.44253000",
    "longitude": "-2.42323000",
    "wikiDataId": null
  },
  {
    "id": 50223,
    "name": "Knutsford",
    "state_id": 2293,
    "state_code": "TRF",
    "country_id": 232,
    "country_code": "GB",
    "latitude": "53.30289000",
    "longitude": "-2.37482000",
    "wikiDataId": null
  },
  {
    "id": 50608,
    "name": "Mobberley",
    "state_id": 2293,
    "state_code": "TRF",
    "country_id": 232,
    "country_code": "GB",
    "latitude": "53.31667000",
    "longitude": "-2.31667000",
    "wikiDataId": null
  },
  {
    "id": 50856,
    "name": "Partington",
    "state_id": 2293,
    "state_code": "TRF",
    "country_id": 232,
    "country_code": "GB",
    "latitude": "53.41884000",
    "longitude": "-2.42815000",
    "wikiDataId": null
  },
  {
    "id": 51180,
    "name": "Sale",
    "state_id": 2293,
    "state_code": "TRF",
    "country_id": 232,
    "country_code": "GB",
    "latitude": "53.42519000",
    "longitude": "-2.32443000",
    "wikiDataId": null
  },
  {
    "id": 51499,
    "name": "Stretford",
    "state_id": 2293,
    "state_code": "TRF",
    "country_id": 232,
    "country_code": "GB",
    "latitude": "53.45000000",
    "longitude": "-2.31667000",
    "wikiDataId": null
  },
  {
    "id": 51625,
    "name": "Timperley",
    "state_id": 2293,
    "state_code": "TRF",
    "country_id": 232,
    "country_code": "GB",
    "latitude": "53.40000000",
    "longitude": "-2.33333000",
    "wikiDataId": null
  },
  {
    "id": 51657,
    "name": "Trafford",
    "state_id": 2293,
    "state_code": "TRF",
    "country_id": 232,
    "country_code": "GB",
    "latitude": "53.41667000",
    "longitude": "-2.33333000",
    "wikiDataId": null
  },
  {
    "id": 51708,
    "name": "Urmston",
    "state_id": 2293,
    "state_code": "TRF",
    "country_id": 232,
    "country_code": "GB",
    "latitude": "53.44852000",
    "longitude": "-2.35419000",
    "wikiDataId": null
  }
]