[
  {
    "id": 97839,
    "name": "Belaya",
    "state_id": 1855,
    "state_code": "KRS",
    "country_id": 182,
    "country_code": "RU",
    "latitude": "51.05444000",
    "longitude": "35.71611000",
    "wikiDataId": null
  },
  {
    "id": 98147,
    "name": "Cheremisinovo",
    "state_id": 1855,
    "state_code": "KRS",
    "country_id": 182,
    "country_code": "RU",
    "latitude": "51.88550000",
    "longitude": "37.26460000",
    "wikiDataId": null
  },
  {
    "id": 98148,
    "name": "Cheremisinovskiy Rayon",
    "state_id": 1855,
    "state_code": "KRS",
    "country_id": 182,
    "country_code": "RU",
    "latitude": "51.91667000",
    "longitude": "37.16667000",
    "wikiDataId": null
  },
  {
    "id": 98168,
    "name": "Chernitsyno",
    "state_id": 1855,
    "state_code": "KRS",
    "country_id": 182,
    "country_code": "RU",
    "latitude": "51.50739000",
    "longitude": "36.05101000",
    "wikiDataId": null
  },
  {
    "id": 98415,
    "name": "Fatezh",
    "state_id": 1855,
    "state_code": "KRS",
    "country_id": 182,
    "country_code": "RU",
    "latitude": "52.08910000",
    "longitude": "35.86320000",
    "wikiDataId": null
  },
  {
    "id": 98416,
    "name": "Fatezhskiy Rayon",
    "state_id": 1855,
    "state_code": "KRS",
    "country_id": 182,
    "country_code": "RU",
    "latitude": "52.00000000",
    "longitude": "35.75000000",
    "wikiDataId": null
  },
  {
    "id": 98503,
    "name": "Glushkovo",
    "state_id": 1855,
    "state_code": "KRS",
    "country_id": 182,
    "country_code": "RU",
    "latitude": "51.33917000",
    "longitude": "34.63278000",
    "wikiDataId": null
  },
  {
    "id": 98565,
    "name": "Gorshechenskiy Rayon",
    "state_id": 1855,
    "state_code": "KRS",
    "country_id": 182,
    "country_code": "RU",
    "latitude": "51.50000000",
    "longitude": "38.00000000",
    "wikiDataId": null
  },
  {
    "id": 98566,
    "name": "Gorshechnoye",
    "state_id": 1855,
    "state_code": "KRS",
    "country_id": 182,
    "country_code": "RU",
    "latitude": "51.52440000",
    "longitude": "38.03650000",
    "wikiDataId": null
  },
  {
    "id": 98727,
    "name": "Ivanino",
    "state_id": 1855,
    "state_code": "KRS",
    "country_id": 182,
    "country_code": "RU",
    "latitude": "51.64340000",
    "longitude": "35.57690000",
    "wikiDataId": null
  },
  {
    "id": 98903,
    "name": "Kastorenskiy Rayon",
    "state_id": 1855,
    "state_code": "KRS",
    "country_id": 182,
    "country_code": "RU",
    "latitude": "51.75000000",
    "longitude": "38.16667000",
    "wikiDataId": null
  },
  {
    "id": 98904,
    "name": "Kastornoye",
    "state_id": 1855,
    "state_code": "KRS",
    "country_id": 182,
    "country_code": "RU",
    "latitude": "51.83340000",
    "longitude": "38.13020000",
    "wikiDataId": null
  },
  {
    "id": 99001,
    "name": "Khomutovka",
    "state_id": 1855,
    "state_code": "KRS",
    "country_id": 182,
    "country_code": "RU",
    "latitude": "51.92070000",
    "longitude": "34.56190000",
    "wikiDataId": null
  },
  {
    "id": 99068,
    "name": "Kirovskiy",
    "state_id": 1855,
    "state_code": "KRS",
    "country_id": 182,
    "country_code": "RU",
    "latitude": "51.41667000",
    "longitude": "36.66667000",
    "wikiDataId": null
  },
  {
    "id": 99196,
    "name": "Konyshevka",
    "state_id": 1855,
    "state_code": "KRS",
    "country_id": 182,
    "country_code": "RU",
    "latitude": "51.84180000",
    "longitude": "35.29410000",
    "wikiDataId": null
  },
  {
    "id": 99204,
    "name": "Korenëvo",
    "state_id": 1855,
    "state_code": "KRS",
    "country_id": 182,
    "country_code": "RU",
    "latitude": "51.41190000",
    "longitude": "34.90800000",
    "wikiDataId": null
  },
  {
    "id": 99410,
    "name": "Kshenskiy",
    "state_id": 1855,
    "state_code": "KRS",
    "country_id": 182,
    "country_code": "RU",
    "latitude": "51.84083000",
    "longitude": "37.71361000",
    "wikiDataId": null
  },
  {
    "id": 99457,
    "name": "Kurchatov",
    "state_id": 1855,
    "state_code": "KRS",
    "country_id": 182,
    "country_code": "RU",
    "latitude": "51.66010000",
    "longitude": "35.65210000",
    "wikiDataId": null
  },
  {
    "id": 99474,
    "name": "Kursk",
    "state_id": 1855,
    "state_code": "KRS",
    "country_id": 182,
    "country_code": "RU",
    "latitude": "51.73733000",
    "longitude": "36.18735000",
    "wikiDataId": null
  },
  {
    "id": 99476,
    "name": "Kurskiy Rayon",
    "state_id": 1855,
    "state_code": "KRS",
    "country_id": 182,
    "country_code": "RU",
    "latitude": "51.75000000",
    "longitude": "36.16667000",
    "wikiDataId": null
  },
  {
    "id": 99726,
    "name": "L’govskiy",
    "state_id": 1855,
    "state_code": "KRS",
    "country_id": 182,
    "country_code": "RU",
    "latitude": "51.63069000",
    "longitude": "35.27750000",
    "wikiDataId": null
  },
  {
    "id": 99727,
    "name": "L’govskiy Rayon",
    "state_id": 1855,
    "state_code": "KRS",
    "country_id": 182,
    "country_code": "RU",
    "latitude": "51.58333000",
    "longitude": "35.25000000",
    "wikiDataId": null
  },
  {
    "id": 99784,
    "name": "Manturovo",
    "state_id": 1855,
    "state_code": "KRS",
    "country_id": 182,
    "country_code": "RU",
    "latitude": "51.45470000",
    "longitude": "37.12820000",
    "wikiDataId": null
  },
  {
    "id": 99846,
    "name": "Medvenskiy Rayon",
    "state_id": 1855,
    "state_code": "KRS",
    "country_id": 182,
    "country_code": "RU",
    "latitude": "51.41667000",
    "longitude": "36.11667000",
    "wikiDataId": null
  },
  {
    "id": 99896,
    "name": "Mikhaylovka",
    "state_id": 1855,
    "state_code": "KRS",
    "country_id": 182,
    "country_code": "RU",
    "latitude": "52.23170000",
    "longitude": "35.37670000",
    "wikiDataId": null
  },
  {
    "id": 100389,
    "name": "Oboyan’",
    "state_id": 1855,
    "state_code": "KRS",
    "country_id": 182,
    "country_code": "RU",
    "latitude": "51.20981000",
    "longitude": "36.27919000",
    "wikiDataId": null
  },
  {
    "id": 100388,
    "name": "Oboyanskiy Rayon",
    "state_id": 1855,
    "state_code": "KRS",
    "country_id": 182,
    "country_code": "RU",
    "latitude": "51.25000000",
    "longitude": "36.16667000",
    "wikiDataId": null
  },
  {
    "id": 100427,
    "name": "Olym",
    "state_id": 1855,
    "state_code": "KRS",
    "country_id": 182,
    "country_code": "RU",
    "latitude": "51.67980000",
    "longitude": "38.17580000",
    "wikiDataId": null
  },
  {
    "id": 100613,
    "name": "Pervoavgustovskiy",
    "state_id": 1855,
    "state_code": "KRS",
    "country_id": 182,
    "country_code": "RU",
    "latitude": "52.22640000",
    "longitude": "35.05520000",
    "wikiDataId": null
  },
  {
    "id": 100770,
    "name": "Ponyri Vtoryye",
    "state_id": 1855,
    "state_code": "KRS",
    "country_id": 182,
    "country_code": "RU",
    "latitude": "52.27994000",
    "longitude": "36.22461000",
    "wikiDataId": null
  },
  {
    "id": 100841,
    "name": "Pristen’",
    "state_id": 1855,
    "state_code": "KRS",
    "country_id": 182,
    "country_code": "RU",
    "latitude": "51.23551000",
    "longitude": "36.69594000",
    "wikiDataId": null
  },
  {
    "id": 100840,
    "name": "Pristenskiy Rayon",
    "state_id": 1855,
    "state_code": "KRS",
    "country_id": 182,
    "country_code": "RU",
    "latitude": "51.25000000",
    "longitude": "36.75000000",
    "wikiDataId": null
  },
  {
    "id": 100875,
    "name": "Pryamitsyno",
    "state_id": 1855,
    "state_code": "KRS",
    "country_id": 182,
    "country_code": "RU",
    "latitude": "51.65610000",
    "longitude": "35.93140000",
    "wikiDataId": null
  },
  {
    "id": 101055,
    "name": "Ryl’sk",
    "state_id": 1855,
    "state_code": "KRS",
    "country_id": 182,
    "country_code": "RU",
    "latitude": "51.56550000",
    "longitude": "34.68220000",
    "wikiDataId": null
  },
  {
    "id": 101278,
    "name": "Shchigry",
    "state_id": 1855,
    "state_code": "KRS",
    "country_id": 182,
    "country_code": "RU",
    "latitude": "51.87555000",
    "longitude": "36.90432000",
    "wikiDataId": null
  },
  {
    "id": 101461,
    "name": "Solntsevo",
    "state_id": 1855,
    "state_code": "KRS",
    "country_id": 182,
    "country_code": "RU",
    "latitude": "51.41853000",
    "longitude": "36.74990000",
    "wikiDataId": null
  },
  {
    "id": 101462,
    "name": "Solntsevskiy Rayon",
    "state_id": 1855,
    "state_code": "KRS",
    "country_id": 182,
    "country_code": "RU",
    "latitude": "51.50000000",
    "longitude": "36.75000000",
    "wikiDataId": null
  },
  {
    "id": 101515,
    "name": "Sovetskiy Rayon",
    "state_id": 1855,
    "state_code": "KRS",
    "country_id": 182,
    "country_code": "RU",
    "latitude": "51.83333000",
    "longitude": "37.58333000",
    "wikiDataId": null
  },
  {
    "id": 101647,
    "name": "Sudzha",
    "state_id": 1855,
    "state_code": "KRS",
    "country_id": 182,
    "country_code": "RU",
    "latitude": "51.19760000",
    "longitude": "35.27260000",
    "wikiDataId": null
  },
  {
    "id": 101857,
    "name": "Tim",
    "state_id": 1855,
    "state_code": "KRS",
    "country_id": 182,
    "country_code": "RU",
    "latitude": "51.62222000",
    "longitude": "37.12444000",
    "wikiDataId": null
  },
  {
    "id": 102383,
    "name": "Voroshnëvo",
    "state_id": 1855,
    "state_code": "KRS",
    "country_id": 182,
    "country_code": "RU",
    "latitude": "51.65278000",
    "longitude": "36.01722000",
    "wikiDataId": null
  },
  {
    "id": 102720,
    "name": "Zheleznogorsk",
    "state_id": 1855,
    "state_code": "KRS",
    "country_id": 182,
    "country_code": "RU",
    "latitude": "52.33100000",
    "longitude": "35.37110000",
    "wikiDataId": null
  },
  {
    "id": 102765,
    "name": "Zolotukhino",
    "state_id": 1855,
    "state_code": "KRS",
    "country_id": 182,
    "country_code": "RU",
    "latitude": "52.08420000",
    "longitude": "36.37777000",
    "wikiDataId": null
  },
  {
    "id": 102766,
    "name": "Zolotukhinskiy Rayon",
    "state_id": 1855,
    "state_code": "KRS",
    "country_id": 182,
    "country_code": "RU",
    "latitude": "52.08333000",
    "longitude": "36.50000000",
    "wikiDataId": null
  }
]