[
  {
    "id": 4889,
    "name": "Central and Western",
    "country_id": 98,
    "country_code": "HK",
    "state_code": "HCW",
    "type": "district",
    "latitude": "22.28666000",
    "longitude": "114.15497000",
    "iso3166_2": "HK-HCW",
    "native": "Central and Western",
    "timezone": "Asia/Hong_Kong"
  },
  {
    "id": 4891,
    "name": "Eastern",
    "country_id": 98,
    "country_code": "HK",
    "state_code": "HEA",
    "type": "district",
    "latitude": "22.28411000",
    "longitude": "114.22414000",
    "iso3166_2": "HK-HEA",
    "native": "Eastern",
    "timezone": "Asia/Hong_Kong"
  },
  {
    "id": 4888,
    "name": "Islands",
    "country_id": 98,
    "country_code": "HK",
    "state_code": "NIS",
    "type": "district",
    "latitude": "22.26114000",
    "longitude": "113.94608000",
    "iso3166_2": "HK-NIS",
    "native": "Islands",
    "timezone": "Asia/Hong_Kong"
  },
  {
    "id": 4895,
    "name": "Kowloon City",
    "country_id": 98,
    "country_code": "HK",
    "state_code": "KKC",
    "type": "district",
    "latitude": "22.32820000",
    "longitude": "114.19155000",
    "iso3166_2": "HK-KKC",
    "native": "Kowloon City",
    "timezone": "Asia/Hong_Kong"
  },
  {
    "id": 4898,
    "name": "Kwai Tsing",
    "country_id": 98,
    "country_code": "HK",
    "state_code": "NKT",
    "type": "district",
    "latitude": "22.36343030",
    "longitude": "114.12298250",
    "iso3166_2": "HK-NKT",
    "native": "Kwai Tsing",
    "timezone": "Asia/Hong_Kong"
  },
  {
    "id": 4897,
    "name": "Kwun Tong",
    "country_id": 98,
    "country_code": "HK",
    "state_code": "KKT",
    "type": "district",
    "latitude": "22.31326000",
    "longitude": "114.22581000",
    "iso3166_2": "HK-KKT",
    "native": "Kwun Tong",
    "timezone": "Asia/Hong_Kong"
  },
  {
    "id": 4900,
    "name": "North",
    "country_id": 98,
    "country_code": "HK",
    "state_code": "NNO",
    "type": "district",
    "latitude": "22.49471000",
    "longitude": "114.13812000",
    "iso3166_2": "HK-NNO",
    "native": "North",
    "timezone": "Asia/Hong_Kong"
  },
  {
    "id": 4887,
    "name": "Sai Kung",
    "country_id": 98,
    "country_code": "HK",
    "state_code": "NSK",
    "type": "district",
    "latitude": "21.67305190",
    "longitude": "108.39543130",
    "iso3166_2": "HK-NSK",
    "native": "Sai Kung",
    "timezone": "Asia/Hong_Kong"
  },
  {
    "id": 4901,
    "name": "Sha Tin",
    "country_id": 98,
    "country_code": "HK",
    "state_code": "NST",
    "type": "district",
    "latitude": "22.38715000",
    "longitude": "114.19534000",
    "iso3166_2": "HK-NST",
    "native": "Sha Tin",
    "timezone": "Asia/Hong_Kong"
  },
  {
    "id": 4894,
    "name": "Sham Shui Po",
    "country_id": 98,
    "country_code": "HK",
    "state_code": "KSS",
    "type": "district",
    "latitude": "22.23573830",
    "longitude": "114.16981620",
    "iso3166_2": "HK-KSS",
    "native": "Sham Shui Po",
    "timezone": "Asia/Hong_Kong"
  },
  {
    "id": 4892,
    "name": "Southern",
    "country_id": 98,
    "country_code": "HK",
    "state_code": "HSO",
    "type": "district",
    "latitude": "22.24725000",
    "longitude": "114.15884000",
    "iso3166_2": "HK-HSO",
    "native": "Southern",
    "timezone": "Asia/Hong_Kong"
  },
  {
    "id": 4885,
    "name": "Tai Po",
    "country_id": 98,
    "country_code": "HK",
    "state_code": "NTP",
    "type": "district",
    "latitude": "22.45085000",
    "longitude": "114.16422000",
    "iso3166_2": "HK-NTP",
    "native": "Tai Po",
    "timezone": "Asia/Hong_Kong"
  },
  {
    "id": 4884,
    "name": "Tsuen Wan",
    "country_id": 98,
    "country_code": "HK",
    "state_code": "NTW",
    "type": "district",
    "latitude": "22.36281000",
    "longitude": "114.12907000",
    "iso3166_2": "HK-NTW",
    "native": "Tsuen Wan",
    "timezone": "Asia/Hong_Kong"
  },
  {
    "id": 4899,
    "name": "Tuen Mun",
    "country_id": 98,
    "country_code": "HK",
    "state_code": "NTM",
    "type": "district",
    "latitude": "22.39163000",
    "longitude": "113.97708850",
    "iso3166_2": "HK-NTM",
    "native": "Tuen Mun",
    "timezone": "Asia/Hong_Kong"
  },
  {
    "id": 4890,
    "name": "Wan Chai",
    "country_id": 98,
    "country_code": "HK",
    "state_code": "HWC",
    "type": "district",
    "latitude": "22.26449900",
    "longitude": "114.18982160",
    "iso3166_2": "HK-HWC",
    "native": "Wan Chai",
    "timezone": "Asia/Hong_Kong"
  },
  {
    "id": 4896,
    "name": "Wong Tai Sin",
    "country_id": 98,
    "country_code": "HK",
    "state_code": "KWT",
    "type": "district",
    "latitude": "22.33353000",
    "longitude": "114.19686000",
    "iso3166_2": "HK-KWT",
    "native": "Wong Tai Sin",
    "timezone": "Asia/Hong_Kong"
  },
  {
    "id": 4893,
    "name": "Yau Tsim Mong",
    "country_id": 98,
    "country_code": "HK",
    "state_code": "KYT",
    "type": "district",
    "latitude": "22.32138000",
    "longitude": "114.17260000",
    "iso3166_2": "HK-KYT",
    "native": "Yau Tsim Mong",
    "timezone": "Asia/Hong_Kong"
  },
  {
    "id": 4883,
    "name": "Yuen Long",
    "country_id": 98,
    "country_code": "HK",
    "state_code": "NYL",
    "type": "district",
    "latitude": "22.44870510",
    "longitude": "114.09587040",
    "iso3166_2": "HK-NYL",
    "native": "Yuen Long",
    "timezone": "Asia/Hong_Kong"
  }
]