[
  {
    "id": 31021,
    "name": "Amina",
    "state_id": 4104,
    "state_code": "27",
    "country_id": 62,
    "country_code": "DO",
    "latitude": "19.54813000",
    "longitude": "-70.99599000",
    "wikiDataId": null
  },
  {
    "id": 31069,
    "name": "Esperanza",
    "state_id": 4104,
    "state_code": "27",
    "country_id": 62,
    "country_code": "DO",
    "latitude": "19.62379000",
    "longitude": "-70.97141000",
    "wikiDataId": null
  },
  {
    "id": 31078,
    "name": "Guatapanal",
    "state_id": 4104,
    "state_code": "27",
    "country_id": 62,
    "country_code": "DO",
    "latitude": "19.50705000",
    "longitude": "-70.91713000",
    "wikiDataId": null
  },
  {
    "id": 31088,
    "name": "Jaibón",
    "state_id": 4104,
    "state_code": "27",
    "country_id": 62,
    "country_code": "DO",
    "latitude": "19.61169000",
    "longitude": "-71.14847000",
    "wikiDataId": null
  },
  {
    "id": 31092,
    "name": "Jicomé",
    "state_id": 4104,
    "state_code": "27",
    "country_id": 62,
    "country_code": "DO",
    "latitude": "19.64955000",
    "longitude": "-70.94927000",
    "wikiDataId": null
  },
  {
    "id": 31103,
    "name": "La Caya",
    "state_id": 4104,
    "state_code": "27",
    "country_id": 62,
    "country_code": "DO",
    "latitude": "19.69981000",
    "longitude": "-71.12084000",
    "wikiDataId": null
  },
  {
    "id": 31110,
    "name": "Laguna Salada",
    "state_id": 4104,
    "state_code": "27",
    "country_id": 62,
    "country_code": "DO",
    "latitude": "19.70000000",
    "longitude": "-71.13333000",
    "wikiDataId": null
  },
  {
    "id": 31125,
    "name": "Maizal",
    "state_id": 4104,
    "state_code": "27",
    "country_id": 62,
    "country_code": "DO",
    "latitude": "19.63655000",
    "longitude": "-71.02734000",
    "wikiDataId": null
  },
  {
    "id": 31127,
    "name": "Mao",
    "state_id": 4104,
    "state_code": "27",
    "country_id": 62,
    "country_code": "DO",
    "latitude": "19.55186000",
    "longitude": "-71.07813000",
    "wikiDataId": null
  }
]