[
  {
    "id": 66738,
    "name": "Betzdorf",
    "state_id": 1520,
    "state_code": "G",
    "country_id": 127,
    "country_code": "LU",
    "latitude": "49.68333000",
    "longitude": "6.35000000",
    "wikiDataId": null
  },
  {
    "id": 66740,
    "name": "Biwer",
    "state_id": 1520,
    "state_code": "G",
    "country_id": 127,
    "country_code": "LU",
    "latitude": "49.70605000",
    "longitude": "6.37201000",
    "wikiDataId": null
  },
  {
    "id": 66771,
    "name": "Flaxweiler",
    "state_id": 1520,
    "state_code": "G",
    "country_id": 127,
    "country_code": "LU",
    "latitude": "49.66602000",
    "longitude": "6.34321000",
    "wikiDataId": null
  },
  {
    "id": 66775,
    "name": "Gonderange",
    "state_id": 1520,
    "state_code": "G",
    "country_id": 127,
    "country_code": "LU",
    "latitude": "49.69537000",
    "longitude": "6.24577000",
    "wikiDataId": null
  },
  {
    "id": 66776,
    "name": "Grevenmacher",
    "state_id": 1520,
    "state_code": "G",
    "country_id": 127,
    "country_code": "LU",
    "latitude": "49.67751000",
    "longitude": "6.44022000",
    "wikiDataId": null
  },
  {
    "id": 66786,
    "name": "Junglinster",
    "state_id": 1520,
    "state_code": "G",
    "country_id": 127,
    "country_code": "LU",
    "latitude": "49.70722000",
    "longitude": "6.25306000",
    "wikiDataId": null
  },
  {
    "id": 66803,
    "name": "Manternach",
    "state_id": 1520,
    "state_code": "G",
    "country_id": 127,
    "country_code": "LU",
    "latitude": "49.70278000",
    "longitude": "6.42639000",
    "wikiDataId": null
  },
  {
    "id": 66806,
    "name": "Mertert",
    "state_id": 1520,
    "state_code": "G",
    "country_id": 127,
    "country_code": "LU",
    "latitude": "49.70261000",
    "longitude": "6.47966000",
    "wikiDataId": null
  },
  {
    "id": 66860,
    "name": "Wasserbillig",
    "state_id": 1520,
    "state_code": "G",
    "country_id": 127,
    "country_code": "LU",
    "latitude": "49.71534000",
    "longitude": "6.49861000",
    "wikiDataId": null
  },
  {
    "id": 66867,
    "name": "Wormeldange",
    "state_id": 1520,
    "state_code": "G",
    "country_id": 127,
    "country_code": "LU",
    "latitude": "49.61114000",
    "longitude": "6.40546000",
    "wikiDataId": null
  }
]