[
  {
    "id": 154902,
    "name": "Arue",
    "state_id": 5373,
    "state_code": "05",
    "country_id": 77,
    "country_code": "PF",
    "latitude": "-17.27738940",
    "longitude": "-149.87199430",
    "wikiDataId": null
  },
  {
    "id": 154903,
    "name": "Faaa",
    "state_id": 5373,
    "state_code": "05",
    "country_id": 77,
    "country_code": "PF",
    "latitude": "-17.58391940",
    "longitude": "-149.64609260",
    "wikiDataId": null
  },
  {
    "id": 154904,
    "name": "Hitiaa O Te Ra",
    "state_id": 5373,
    "state_code": "05",
    "country_id": 77,
    "country_code": "PF",
    "latitude": "-17.59142580",
    "longitude": "-149.47324810",
    "wikiDataId": null
  },
  {
    "id": 154905,
    "name": "Mahina",
    "state_id": 5373,
    "state_code": "05",
    "country_id": 77,
    "country_code": "PF",
    "latitude": "-17.55747420",
    "longitude": "-149.51647820",
    "wikiDataId": null
  },
  {
    "id": 154906,
    "name": "Moorea-Maiao",
    "state_id": 5373,
    "state_code": "05",
    "country_id": 77,
    "country_code": "PF",
    "latitude": "-17.57566530",
    "longitude": "-150.86188770",
    "wikiDataId": null
  },
  {
    "id": 154907,
    "name": "Paea",
    "state_id": 5373,
    "state_code": "05",
    "country_id": 77,
    "country_code": "PF",
    "latitude": "-17.69616980",
    "longitude": "-149.58969660",
    "wikiDataId": null
  },
  {
    "id": 154908,
    "name": "Papara",
    "state_id": 5373,
    "state_code": "05",
    "country_id": 77,
    "country_code": "PF",
    "latitude": "-17.71187630",
    "longitude": "-149.59042950",
    "wikiDataId": null
  },
  {
    "id": 154909,
    "name": "Papeete",
    "state_id": 5373,
    "state_code": "05",
    "country_id": 77,
    "country_code": "PF",
    "latitude": "-17.55713870",
    "longitude": "-149.59660090",
    "wikiDataId": null
  },
  {
    "id": 154910,
    "name": "Pirae",
    "state_id": 5373,
    "state_code": "05",
    "country_id": 77,
    "country_code": "PF",
    "latitude": "-17.56986380",
    "longitude": "-149.56352800",
    "wikiDataId": null
  },
  {
    "id": 154911,
    "name": "Punaauia",
    "state_id": 5373,
    "state_code": "05",
    "country_id": 77,
    "country_code": "PF",
    "latitude": "-17.61796960",
    "longitude": "-149.63102240",
    "wikiDataId": null
  },
  {
    "id": 154912,
    "name": "Taiarapu-Est",
    "state_id": 5373,
    "state_code": "05",
    "country_id": 77,
    "country_code": "PF",
    "latitude": "-17.75551280",
    "longitude": "-149.39533960",
    "wikiDataId": null
  },
  {
    "id": 154913,
    "name": "Taiarapu-Ouest",
    "state_id": 5373,
    "state_code": "05",
    "country_id": 77,
    "country_code": "PF",
    "latitude": "-17.81004520",
    "longitude": "-149.32700520",
    "wikiDataId": null
  },
  {
    "id": 154914,
    "name": "Teva I Uta",
    "state_id": 5373,
    "state_code": "05",
    "country_id": 77,
    "country_code": "PF",
    "latitude": "-17.72250080",
    "longitude": "-149.48196150",
    "wikiDataId": null
  }
]