[
  {
    "id": 89874,
    "name": "Abrud",
    "state_id": 4724,
    "state_code": "AB",
    "country_id": 181,
    "country_code": "RO",
    "latitude": "46.27406000",
    "longitude": "23.06339000",
    "wikiDataId": null
  },
  {
    "id": 89875,
    "name": "Abrud-Sat",
    "state_id": 4724,
    "state_code": "AB",
    "country_id": 181,
    "country_code": "RO",
    "latitude": "46.28166000",
    "longitude": "23.06098000",
    "wikiDataId": null
  },
  {
    "id": 89907,
    "name": "Aiud",
    "state_id": 4724,
    "state_code": "AB",
    "country_id": 181,
    "country_code": "RO",
    "latitude": "46.31006000",
    "longitude": "23.72128000",
    "wikiDataId": null
  },
  {
    "id": 89908,
    "name": "Aiudul de Sus",
    "state_id": 4724,
    "state_code": "AB",
    "country_id": 181,
    "country_code": "RO",
    "latitude": "46.31653000",
    "longitude": "23.69053000",
    "wikiDataId": null
  },
  {
    "id": 89910,
    "name": "Alba Iulia",
    "state_id": 4724,
    "state_code": "AB",
    "country_id": 181,
    "country_code": "RO",
    "latitude": "46.06667000",
    "longitude": "23.58333000",
    "wikiDataId": null
  },
  {
    "id": 89911,
    "name": "Albac",
    "state_id": 4724,
    "state_code": "AB",
    "country_id": 181,
    "country_code": "RO",
    "latitude": "46.45246000",
    "longitude": "22.95164000",
    "wikiDataId": null
  },
  {
    "id": 89937,
    "name": "Almaşu Mare",
    "state_id": 4724,
    "state_code": "AB",
    "country_id": 181,
    "country_code": "RO",
    "latitude": "46.11014000",
    "longitude": "23.11721000",
    "wikiDataId": null
  },
  {
    "id": 89992,
    "name": "Arieşeni",
    "state_id": 4724,
    "state_code": "AB",
    "country_id": 181,
    "country_code": "RO",
    "latitude": "46.47641000",
    "longitude": "22.75741000",
    "wikiDataId": null
  },
  {
    "id": 90006,
    "name": "Avram Iancu",
    "state_id": 4724,
    "state_code": "AB",
    "country_id": 181,
    "country_code": "RO",
    "latitude": "46.35816430",
    "longitude": "22.82572250",
    "wikiDataId": null
  },
  {
    "id": 90032,
    "name": "Baia de Arieş",
    "state_id": 4724,
    "state_code": "AB",
    "country_id": 181,
    "country_code": "RO",
    "latitude": "46.38045000",
    "longitude": "23.28115000",
    "wikiDataId": null
  },
  {
    "id": 90504,
    "name": "Bălcaciu",
    "state_id": 4724,
    "state_code": "AB",
    "country_id": 181,
    "country_code": "RO",
    "latitude": "46.19122000",
    "longitude": "24.06139000",
    "wikiDataId": null
  },
  {
    "id": 90545,
    "name": "Bărăbanț",
    "state_id": 4724,
    "state_code": "AB",
    "country_id": 181,
    "country_code": "RO",
    "latitude": "46.09930000",
    "longitude": "23.58487000",
    "wikiDataId": null
  },
  {
    "id": 90109,
    "name": "Berghin",
    "state_id": 4724,
    "state_code": "AB",
    "country_id": 181,
    "country_code": "RO",
    "latitude": "46.07782000",
    "longitude": "23.73742000",
    "wikiDataId": null
  },
  {
    "id": 90132,
    "name": "Biia",
    "state_id": 4724,
    "state_code": "AB",
    "country_id": 181,
    "country_code": "RO",
    "latitude": "46.23097000",
    "longitude": "24.00461000",
    "wikiDataId": null
  },
  {
    "id": 90143,
    "name": "Bistra",
    "state_id": 4724,
    "state_code": "AB",
    "country_id": 181,
    "country_code": "RO",
    "latitude": "46.37820000",
    "longitude": "23.10081000",
    "wikiDataId": null
  },
  {
    "id": 90156,
    "name": "Blaj",
    "state_id": 4724,
    "state_code": "AB",
    "country_id": 181,
    "country_code": "RO",
    "latitude": "46.17508000",
    "longitude": "23.91578000",
    "wikiDataId": null
  },
  {
    "id": 90161,
    "name": "Blândiana",
    "state_id": 4724,
    "state_code": "AB",
    "country_id": 181,
    "country_code": "RO",
    "latitude": "45.97943000",
    "longitude": "23.38543000",
    "wikiDataId": null
  },
  {
    "id": 90159,
    "name": "Blideşti",
    "state_id": 4724,
    "state_code": "AB",
    "country_id": 181,
    "country_code": "RO",
    "latitude": "46.30000000",
    "longitude": "23.13333000",
    "wikiDataId": null
  },
  {
    "id": 90344,
    "name": "Bucerdea-Grânoasă",
    "state_id": 4724,
    "state_code": "AB",
    "country_id": 181,
    "country_code": "RO",
    "latitude": "46.20000000",
    "longitude": "23.83333000",
    "wikiDataId": null
  },
  {
    "id": 90350,
    "name": "Bucium",
    "state_id": 4724,
    "state_code": "AB",
    "country_id": 181,
    "country_code": "RO",
    "latitude": "46.26402000",
    "longitude": "23.17910000",
    "wikiDataId": null
  },
  {
    "id": 93791,
    "name": "Câlnic",
    "state_id": 4724,
    "state_code": "AB",
    "country_id": 181,
    "country_code": "RO",
    "latitude": "45.88333000",
    "longitude": "23.66667000",
    "wikiDataId": null
  },
  {
    "id": 93796,
    "name": "Câmpeni",
    "state_id": 4724,
    "state_code": "AB",
    "country_id": 181,
    "country_code": "RO",
    "latitude": "46.36667000",
    "longitude": "23.05000000",
    "wikiDataId": null
  },
  {
    "id": 90614,
    "name": "Cenade",
    "state_id": 4724,
    "state_code": "AB",
    "country_id": 181,
    "country_code": "RO",
    "latitude": "46.05000000",
    "longitude": "24.01667000",
    "wikiDataId": null
  },
  {
    "id": 90625,
    "name": "Cergău Mare",
    "state_id": 4724,
    "state_code": "AB",
    "country_id": 181,
    "country_code": "RO",
    "latitude": "46.09869000",
    "longitude": "23.92284000",
    "wikiDataId": null
  },
  {
    "id": 90626,
    "name": "Cergău Mic",
    "state_id": 4724,
    "state_code": "AB",
    "country_id": 181,
    "country_code": "RO",
    "latitude": "46.08333000",
    "longitude": "23.93333000",
    "wikiDataId": null
  },
  {
    "id": 90642,
    "name": "Ceru-Băcăinţi",
    "state_id": 4724,
    "state_code": "AB",
    "country_id": 181,
    "country_code": "RO",
    "latitude": "45.98333000",
    "longitude": "23.25000000",
    "wikiDataId": null
  },
  {
    "id": 90649,
    "name": "Cetatea de Baltă",
    "state_id": 4724,
    "state_code": "AB",
    "country_id": 181,
    "country_code": "RO",
    "latitude": "46.24794000",
    "longitude": "24.17244000",
    "wikiDataId": null
  },
  {
    "id": 90746,
    "name": "Ciugud",
    "state_id": 4724,
    "state_code": "AB",
    "country_id": 181,
    "country_code": "RO",
    "latitude": "46.05000000",
    "longitude": "23.61667000",
    "wikiDataId": null
  },
  {
    "id": 90750,
    "name": "Ciumbrud",
    "state_id": 4724,
    "state_code": "AB",
    "country_id": 181,
    "country_code": "RO",
    "latitude": "46.30810000",
    "longitude": "23.76222000",
    "wikiDataId": null
  },
  {
    "id": 90759,
    "name": "Ciuruleasa",
    "state_id": 4724,
    "state_code": "AB",
    "country_id": 181,
    "country_code": "RO",
    "latitude": "46.25000000",
    "longitude": "23.03333000",
    "wikiDataId": null
  },
  {
    "id": 90837,
    "name": "Comuna Albac",
    "state_id": 4724,
    "state_code": "AB",
    "country_id": 181,
    "country_code": "RO",
    "latitude": "46.45246000",
    "longitude": "22.95027000",
    "wikiDataId": null
  },
  {
    "id": 90857,
    "name": "Comuna Almaşu Mare",
    "state_id": 4724,
    "state_code": "AB",
    "country_id": 181,
    "country_code": "RO",
    "latitude": "46.10877000",
    "longitude": "23.12038000",
    "wikiDataId": null
  },
  {
    "id": 90892,
    "name": "Comuna Arieşeni",
    "state_id": 4724,
    "state_code": "AB",
    "country_id": 181,
    "country_code": "RO",
    "latitude": "46.47659000",
    "longitude": "22.75535000",
    "wikiDataId": null
  },
  {
    "id": 90968,
    "name": "Comuna Berghin",
    "state_id": 4724,
    "state_code": "AB",
    "country_id": 181,
    "country_code": "RO",
    "latitude": "46.07484000",
    "longitude": "23.73768000",
    "wikiDataId": null
  },
  {
    "id": 90995,
    "name": "Comuna Bistra",
    "state_id": 4724,
    "state_code": "AB",
    "country_id": 181,
    "country_code": "RO",
    "latitude": "46.37856000",
    "longitude": "23.10150000",
    "wikiDataId": null
  },
  {
    "id": 91005,
    "name": "Comuna Blândiana",
    "state_id": 4724,
    "state_code": "AB",
    "country_id": 181,
    "country_code": "RO",
    "latitude": "45.98146000",
    "longitude": "23.38543000",
    "wikiDataId": null
  },
  {
    "id": 91125,
    "name": "Comuna Bucerdea-Grânoasă",
    "state_id": 4724,
    "state_code": "AB",
    "country_id": 181,
    "country_code": "RO",
    "latitude": "46.20878000",
    "longitude": "23.85614000",
    "wikiDataId": null
  },
  {
    "id": 91129,
    "name": "Comuna Bucium",
    "state_id": 4724,
    "state_code": "AB",
    "country_id": 181,
    "country_code": "RO",
    "latitude": "46.26131000",
    "longitude": "23.15742000",
    "wikiDataId": null
  },
  {
    "id": 91540,
    "name": "Comuna Câlnic",
    "state_id": 4724,
    "state_code": "AB",
    "country_id": 181,
    "country_code": "RO",
    "latitude": "45.87305000",
    "longitude": "23.64329000",
    "wikiDataId": null
  },
  {
    "id": 91281,
    "name": "Comuna Cenade",
    "state_id": 4724,
    "state_code": "AB",
    "country_id": 181,
    "country_code": "RO",
    "latitude": "46.08045000",
    "longitude": "24.01382000",
    "wikiDataId": null
  },
  {
    "id": 91289,
    "name": "Comuna Cergău",
    "state_id": 4724,
    "state_code": "AB",
    "country_id": 181,
    "country_code": "RO",
    "latitude": "46.09314000",
    "longitude": "23.94597000",
    "wikiDataId": null
  },
  {
    "id": 91299,
    "name": "Comuna Ceru-Băcăinţi",
    "state_id": 4724,
    "state_code": "AB",
    "country_id": 181,
    "country_code": "RO",
    "latitude": "46.00117000",
    "longitude": "23.26983000",
    "wikiDataId": null
  },
  {
    "id": 91305,
    "name": "Comuna Cetatea de Baltă",
    "state_id": 4724,
    "state_code": "AB",
    "country_id": 181,
    "country_code": "RO",
    "latitude": "46.21619000",
    "longitude": "24.16716000",
    "wikiDataId": null
  },
  {
    "id": 91367,
    "name": "Comuna Ciugud",
    "state_id": 4724,
    "state_code": "AB",
    "country_id": 181,
    "country_code": "RO",
    "latitude": "46.06526000",
    "longitude": "23.62794000",
    "wikiDataId": null
  },
  {
    "id": 91377,
    "name": "Comuna Ciuruleasa",
    "state_id": 4724,
    "state_code": "AB",
    "country_id": 181,
    "country_code": "RO",
    "latitude": "46.24481000",
    "longitude": "23.01644000",
    "wikiDataId": null
  },
  {
    "id": 91516,
    "name": "Comuna Crăciunelu de Jos",
    "state_id": 4724,
    "state_code": "AB",
    "country_id": 181,
    "country_code": "RO",
    "latitude": "46.17285000",
    "longitude": "23.83585000",
    "wikiDataId": null
  },
  {
    "id": 91495,
    "name": "Comuna Cricău",
    "state_id": 4724,
    "state_code": "AB",
    "country_id": 181,
    "country_code": "RO",
    "latitude": "46.18689000",
    "longitude": "23.55309000",
    "wikiDataId": null
  },
  {
    "id": 91601,
    "name": "Comuna Daia Română",
    "state_id": 4724,
    "state_code": "AB",
    "country_id": 181,
    "country_code": "RO",
    "latitude": "46.00709000",
    "longitude": "23.66816000",
    "wikiDataId": null
  },
  {
    "id": 91668,
    "name": "Comuna Doştat",
    "state_id": 4724,
    "state_code": "AB",
    "country_id": 181,
    "country_code": "RO",
    "latitude": "45.96143000",
    "longitude": "23.83313000",
    "wikiDataId": null
  },
  {
    "id": 91825,
    "name": "Comuna Fărău",
    "state_id": 4724,
    "state_code": "AB",
    "country_id": 181,
    "country_code": "RO",
    "latitude": "46.32999000",
    "longitude": "24.04335000",
    "wikiDataId": null
  },
  {
    "id": 91829,
    "name": "Comuna Galda de Jos",
    "state_id": 4724,
    "state_code": "AB",
    "country_id": 181,
    "country_code": "RO",
    "latitude": "46.21776000",
    "longitude": "23.56918000",
    "wikiDataId": null
  },
  {
    "id": 91965,
    "name": "Comuna Gârbova",
    "state_id": 4724,
    "state_code": "AB",
    "country_id": 181,
    "country_code": "RO",
    "latitude": "45.85277000",
    "longitude": "23.68693000",
    "wikiDataId": null
  },
  {
    "id": 91971,
    "name": "Comuna Gârda de Sus",
    "state_id": 4724,
    "state_code": "AB",
    "country_id": 181,
    "country_code": "RO",
    "latitude": "46.46719000",
    "longitude": "22.81519000",
    "wikiDataId": null
  },
  {
    "id": 92014,
    "name": "Comuna Hopârta",
    "state_id": 4724,
    "state_code": "AB",
    "country_id": 181,
    "country_code": "RO",
    "latitude": "46.33134000",
    "longitude": "23.90340000",
    "wikiDataId": null
  },
  {
    "id": 92015,
    "name": "Comuna Horea",
    "state_id": 4724,
    "state_code": "AB",
    "country_id": 181,
    "country_code": "RO",
    "latitude": "46.50058000",
    "longitude": "22.94915000",
    "wikiDataId": null
  },
  {
    "id": 92066,
    "name": "Comuna Ighiu",
    "state_id": 4724,
    "state_code": "AB",
    "country_id": 181,
    "country_code": "RO",
    "latitude": "46.14854000",
    "longitude": "23.51232000",
    "wikiDataId": null
  },
  {
    "id": 93494,
    "name": "Comuna Întregalde",
    "state_id": 4724,
    "state_code": "AB",
    "country_id": 181,
    "country_code": "RO",
    "latitude": "46.24908000",
    "longitude": "23.39213000",
    "wikiDataId": null
  },
  {
    "id": 92121,
    "name": "Comuna Jidvei",
    "state_id": 4724,
    "state_code": "AB",
    "country_id": 181,
    "country_code": "RO",
    "latitude": "46.23083000",
    "longitude": "24.11475000",
    "wikiDataId": null
  },
  {
    "id": 92176,
    "name": "Comuna Livezile",
    "state_id": 4724,
    "state_code": "AB",
    "country_id": 181,
    "country_code": "RO",
    "latitude": "46.37559000",
    "longitude": "23.58563000",
    "wikiDataId": null
  },
  {
    "id": 92183,
    "name": "Comuna Lopadea Nouă",
    "state_id": 4724,
    "state_code": "AB",
    "country_id": 181,
    "country_code": "RO",
    "latitude": "46.27782000",
    "longitude": "23.84975000",
    "wikiDataId": null
  },
  {
    "id": 92205,
    "name": "Comuna Lunca Mureşului",
    "state_id": 4724,
    "state_code": "AB",
    "country_id": 181,
    "country_code": "RO",
    "latitude": "46.42943000",
    "longitude": "23.93272000",
    "wikiDataId": null
  },
  {
    "id": 92216,
    "name": "Comuna Lupşa",
    "state_id": 4724,
    "state_code": "AB",
    "country_id": 181,
    "country_code": "RO",
    "latitude": "46.34891000",
    "longitude": "23.20455000",
    "wikiDataId": null
  },
  {
    "id": 92262,
    "name": "Comuna Meteş",
    "state_id": 4724,
    "state_code": "AB",
    "country_id": 181,
    "country_code": "RO",
    "latitude": "46.10543000",
    "longitude": "23.41707000",
    "wikiDataId": null
  },
  {
    "id": 92278,
    "name": "Comuna Mihalţ",
    "state_id": 4724,
    "state_code": "AB",
    "country_id": 181,
    "country_code": "RO",
    "latitude": "46.17641000",
    "longitude": "23.73841000",
    "wikiDataId": null
  },
  {
    "id": 92303,
    "name": "Comuna Mirăslău",
    "state_id": 4724,
    "state_code": "AB",
    "country_id": 181,
    "country_code": "RO",
    "latitude": "46.38660000",
    "longitude": "23.69329000",
    "wikiDataId": null
  },
  {
    "id": 92317,
    "name": "Comuna Mogoş",
    "state_id": 4724,
    "state_code": "AB",
    "country_id": 181,
    "country_code": "RO",
    "latitude": "46.28356000",
    "longitude": "23.31873000",
    "wikiDataId": null
  },
  {
    "id": 92453,
    "name": "Comuna Noşlac",
    "state_id": 4724,
    "state_code": "AB",
    "country_id": 181,
    "country_code": "RO",
    "latitude": "46.41300000",
    "longitude": "23.97668000",
    "wikiDataId": null
  },
  {
    "id": 92480,
    "name": "Comuna Ocoliş",
    "state_id": 4724,
    "state_code": "AB",
    "country_id": 181,
    "country_code": "RO",
    "latitude": "46.49636000",
    "longitude": "23.46581000",
    "wikiDataId": null
  },
  {
    "id": 92487,
    "name": "Comuna Ohaba",
    "state_id": 4724,
    "state_code": "AB",
    "country_id": 181,
    "country_code": "RO",
    "latitude": "46.08263000",
    "longitude": "23.80106000",
    "wikiDataId": null
  },
  {
    "id": 92572,
    "name": "Comuna Pianu",
    "state_id": 4724,
    "state_code": "AB",
    "country_id": 181,
    "country_code": "RO",
    "latitude": "45.87127000",
    "longitude": "23.49549000",
    "wikiDataId": null
  },
  {
    "id": 92634,
    "name": "Comuna Poiana Vadului",
    "state_id": 4724,
    "state_code": "AB",
    "country_id": 181,
    "country_code": "RO",
    "latitude": "46.40457000",
    "longitude": "22.87080000",
    "wikiDataId": null
  },
  {
    "id": 92651,
    "name": "Comuna Ponor",
    "state_id": 4724,
    "state_code": "AB",
    "country_id": 181,
    "country_code": "RO",
    "latitude": "46.32065000",
    "longitude": "23.40376000",
    "wikiDataId": null
  },
  {
    "id": 92666,
    "name": "Comuna Poşaga",
    "state_id": 4724,
    "state_code": "AB",
    "country_id": 181,
    "country_code": "RO",
    "latitude": "46.45354000",
    "longitude": "23.36115000",
    "wikiDataId": null
  },
  {
    "id": 92842,
    "name": "Comuna Rădeşti",
    "state_id": 4724,
    "state_code": "AB",
    "country_id": 181,
    "country_code": "RO",
    "latitude": "46.24931000",
    "longitude": "23.74444000",
    "wikiDataId": null
  },
  {
    "id": 92822,
    "name": "Comuna Râmeţ",
    "state_id": 4724,
    "state_code": "AB",
    "country_id": 181,
    "country_code": "RO",
    "latitude": "46.31564000",
    "longitude": "23.52602000",
    "wikiDataId": null
  },
  {
    "id": 92821,
    "name": "Comuna Râmetea",
    "state_id": 4724,
    "state_code": "AB",
    "country_id": 181,
    "country_code": "RO",
    "latitude": "46.43815000",
    "longitude": "23.56579000",
    "wikiDataId": null
  },
  {
    "id": 92799,
    "name": "Comuna Roşia de Secaş",
    "state_id": 4724,
    "state_code": "AB",
    "country_id": 181,
    "country_code": "RO",
    "latitude": "46.04807000",
    "longitude": "23.85329000",
    "wikiDataId": null
  },
  {
    "id": 92798,
    "name": "Comuna Roşia Montană",
    "state_id": 4724,
    "state_code": "AB",
    "country_id": 181,
    "country_code": "RO",
    "latitude": "46.30991000",
    "longitude": "23.08697000",
    "wikiDataId": null
  },
  {
    "id": 93096,
    "name": "Comuna Sălciua",
    "state_id": 4724,
    "state_code": "AB",
    "country_id": 181,
    "country_code": "RO",
    "latitude": "46.38261000",
    "longitude": "23.41526000",
    "wikiDataId": null
  },
  {
    "id": 93076,
    "name": "Comuna Sãliştea",
    "state_id": 4724,
    "state_code": "AB",
    "country_id": 181,
    "country_code": "RO",
    "latitude": "45.91425000",
    "longitude": "23.41294000",
    "wikiDataId": null
  },
  {
    "id": 93049,
    "name": "Comuna Sâncel",
    "state_id": 4724,
    "state_code": "AB",
    "country_id": 181,
    "country_code": "RO",
    "latitude": "46.21176000",
    "longitude": "23.94791000",
    "wikiDataId": null
  },
  {
    "id": 93067,
    "name": "Comuna Sântimbru",
    "state_id": 4724,
    "state_code": "AB",
    "country_id": 181,
    "country_code": "RO",
    "latitude": "46.12974000",
    "longitude": "23.66899000",
    "wikiDataId": null
  },
  {
    "id": 93112,
    "name": "Comuna Săsciori",
    "state_id": 4724,
    "state_code": "AB",
    "country_id": 181,
    "country_code": "RO",
    "latitude": "45.85629000",
    "longitude": "23.56898000",
    "wikiDataId": null
  },
  {
    "id": 92905,
    "name": "Comuna Scărişoara",
    "state_id": 4724,
    "state_code": "AB",
    "country_id": 181,
    "country_code": "RO",
    "latitude": "46.46072000",
    "longitude": "22.88166000",
    "wikiDataId": null
  },
  {
    "id": 93512,
    "name": "Comuna Şibot",
    "state_id": 4724,
    "state_code": "AB",
    "country_id": 181,
    "country_code": "RO",
    "latitude": "45.94093000",
    "longitude": "23.32226000",
    "wikiDataId": null
  },
  {
    "id": 92972,
    "name": "Comuna Sohodol",
    "state_id": 4724,
    "state_code": "AB",
    "country_id": 181,
    "country_code": "RO",
    "latitude": "46.32748000",
    "longitude": "22.99414000",
    "wikiDataId": null
  },
  {
    "id": 93540,
    "name": "Comuna Şona",
    "state_id": 4724,
    "state_code": "AB",
    "country_id": 181,
    "country_code": "RO",
    "latitude": "46.25089000",
    "longitude": "24.00259000",
    "wikiDataId": null
  },
  {
    "id": 93545,
    "name": "Comuna Şpring",
    "state_id": 4724,
    "state_code": "AB",
    "country_id": 181,
    "country_code": "RO",
    "latitude": "45.96833000",
    "longitude": "23.73449000",
    "wikiDataId": null
  },
  {
    "id": 93003,
    "name": "Comuna Stremţ",
    "state_id": 4724,
    "state_code": "AB",
    "country_id": 181,
    "country_code": "RO",
    "latitude": "46.25606000",
    "longitude": "23.59340000",
    "wikiDataId": null
  },
  {
    "id": 93558,
    "name": "Comuna Şugag",
    "state_id": 4724,
    "state_code": "AB",
    "country_id": 181,
    "country_code": "RO",
    "latitude": "45.74780000",
    "longitude": "23.59957000",
    "wikiDataId": null
  },
  {
    "id": 93274,
    "name": "Comuna Unirea",
    "state_id": 4724,
    "state_code": "AB",
    "country_id": 181,
    "country_code": "RO",
    "latitude": "46.41948000",
    "longitude": "23.76260000",
    "wikiDataId": null
  },
  {
    "id": 93293,
    "name": "Comuna Vadu Moţilor",
    "state_id": 4724,
    "state_code": "AB",
    "country_id": 181,
    "country_code": "RO",
    "latitude": "46.40910000",
    "longitude": "22.95532000",
    "wikiDataId": null
  },
  {
    "id": 93308,
    "name": "Comuna Valea Lungă",
    "state_id": 4724,
    "state_code": "AB",
    "country_id": 181,
    "country_code": "RO",
    "latitude": "46.13355000",
    "longitude": "24.08280000",
    "wikiDataId": null
  },
  {
    "id": 93354,
    "name": "Comuna Vidra",
    "state_id": 4724,
    "state_code": "AB",
    "country_id": 181,
    "country_code": "RO",
    "latitude": "46.37067000",
    "longitude": "22.92726000",
    "wikiDataId": null
  },
  {
    "id": 93368,
    "name": "Comuna Vinţu de Jos",
    "state_id": 4724,
    "state_code": "AB",
    "country_id": 181,
    "country_code": "RO",
    "latitude": "46.02229000",
    "longitude": "23.45647000",
    "wikiDataId": null
  },
  {
    "id": 93751,
    "name": "Crăciunelu de Jos",
    "state_id": 4724,
    "state_code": "AB",
    "country_id": 181,
    "country_code": "RO",
    "latitude": "46.18333000",
    "longitude": "23.83333000",
    "wikiDataId": null
  },
  {
    "id": 93717,
    "name": "Cricău",
    "state_id": 4724,
    "state_code": "AB",
    "country_id": 181,
    "country_code": "RO",
    "latitude": "46.18333000",
    "longitude": "23.56667000",
    "wikiDataId": null
  },
  {
    "id": 93765,
    "name": "Cugir",
    "state_id": 4724,
    "state_code": "AB",
    "country_id": 181,
    "country_code": "RO",
    "latitude": "45.83651000",
    "longitude": "23.36998000",
    "wikiDataId": null
  },
  {
    "id": 93780,
    "name": "Cut",
    "state_id": 4724,
    "state_code": "AB",
    "country_id": 181,
    "country_code": "RO",
    "latitude": "45.93972450",
    "longitude": "23.66719340",
    "wikiDataId": null
  },
  {
    "id": 93889,
    "name": "Daia Română",
    "state_id": 4724,
    "state_code": "AB",
    "country_id": 181,
    "country_code": "RO",
    "latitude": "46.01667000",
    "longitude": "23.66667000",
    "wikiDataId": null
  },
  {
    "id": 93947,
    "name": "Dobra",
    "state_id": 4724,
    "state_code": "AB",
    "country_id": 181,
    "country_code": "RO",
    "latitude": "45.76913000",
    "longitude": "23.64218000",
    "wikiDataId": null
  },
  {
    "id": 94008,
    "name": "Doştat",
    "state_id": 4724,
    "state_code": "AB",
    "country_id": 181,
    "country_code": "RO",
    "latitude": "45.96667000",
    "longitude": "23.85000000",
    "wikiDataId": null
  },
  {
    "id": 94268,
    "name": "Fărău",
    "state_id": 4724,
    "state_code": "AB",
    "country_id": 181,
    "country_code": "RO",
    "latitude": "46.33333000",
    "longitude": "24.01667000",
    "wikiDataId": null
  },
  {
    "id": 94151,
    "name": "Feisa",
    "state_id": 4724,
    "state_code": "AB",
    "country_id": 181,
    "country_code": "RO",
    "latitude": "46.22608000",
    "longitude": "24.14492000",
    "wikiDataId": null
  },
  {
    "id": 94157,
    "name": "Feneș",
    "state_id": 4724,
    "state_code": "AB",
    "country_id": 181,
    "country_code": "RO",
    "latitude": "46.10431000",
    "longitude": "23.29511000",
    "wikiDataId": null
  },
  {
    "id": 94276,
    "name": "Galda de Jos",
    "state_id": 4724,
    "state_code": "AB",
    "country_id": 181,
    "country_code": "RO",
    "latitude": "46.18333000",
    "longitude": "23.61667000",
    "wikiDataId": null
  },
  {
    "id": 94483,
    "name": "Gârbova",
    "state_id": 4724,
    "state_code": "AB",
    "country_id": 181,
    "country_code": "RO",
    "latitude": "45.86667000",
    "longitude": "23.73333000",
    "wikiDataId": null
  },
  {
    "id": 94489,
    "name": "Gârda de Sus",
    "state_id": 4724,
    "state_code": "AB",
    "country_id": 181,
    "country_code": "RO",
    "latitude": "46.45000000",
    "longitude": "22.81667000",
    "wikiDataId": null
  },
  {
    "id": 94556,
    "name": "Hopârta",
    "state_id": 4724,
    "state_code": "AB",
    "country_id": 181,
    "country_code": "RO",
    "latitude": "46.32134000",
    "longitude": "23.87244000",
    "wikiDataId": null
  },
  {
    "id": 94557,
    "name": "Horea",
    "state_id": 4724,
    "state_code": "AB",
    "country_id": 181,
    "country_code": "RO",
    "latitude": "46.50246000",
    "longitude": "22.95034000",
    "wikiDataId": null
  },
  {
    "id": 94647,
    "name": "Ighiel",
    "state_id": 4724,
    "state_code": "AB",
    "country_id": 181,
    "country_code": "RO",
    "latitude": "46.14680000",
    "longitude": "23.47968000",
    "wikiDataId": null
  },
  {
    "id": 94648,
    "name": "Ighiu",
    "state_id": 4724,
    "state_code": "AB",
    "country_id": 181,
    "country_code": "RO",
    "latitude": "46.15000000",
    "longitude": "23.51667000",
    "wikiDataId": null
  },
  {
    "id": 94671,
    "name": "Intregalde",
    "state_id": 4724,
    "state_code": "AB",
    "country_id": 181,
    "country_code": "RO",
    "latitude": "46.25000000",
    "longitude": "23.41667000",
    "wikiDataId": null
  },
  {
    "id": 94710,
    "name": "Izvoarele",
    "state_id": 4724,
    "state_code": "AB",
    "country_id": 181,
    "country_code": "RO",
    "latitude": "46.17011000",
    "longitude": "23.90377000",
    "wikiDataId": null
  },
  {
    "id": 94733,
    "name": "Jidvei",
    "state_id": 4724,
    "state_code": "AB",
    "country_id": 181,
    "country_code": "RO",
    "latitude": "46.21667000",
    "longitude": "24.10000000",
    "wikiDataId": null
  },
  {
    "id": 94758,
    "name": "Lancrăm",
    "state_id": 4724,
    "state_code": "AB",
    "country_id": 181,
    "country_code": "RO",
    "latitude": "45.98708000",
    "longitude": "23.55665000",
    "wikiDataId": null
  },
  {
    "id": 94823,
    "name": "Livezile",
    "state_id": 4724,
    "state_code": "AB",
    "country_id": 181,
    "country_code": "RO",
    "latitude": "46.35000000",
    "longitude": "23.63333000",
    "wikiDataId": null
  },
  {
    "id": 94832,
    "name": "Lopadea Nouă",
    "state_id": 4724,
    "state_code": "AB",
    "country_id": 181,
    "country_code": "RO",
    "latitude": "46.29090000",
    "longitude": "23.81901000",
    "wikiDataId": null
  },
  {
    "id": 94868,
    "name": "Lunca Mureşului",
    "state_id": 4724,
    "state_code": "AB",
    "country_id": 181,
    "country_code": "RO",
    "latitude": "46.43333000",
    "longitude": "23.90000000",
    "wikiDataId": null
  },
  {
    "id": 94886,
    "name": "Lupşa",
    "state_id": 4724,
    "state_code": "AB",
    "country_id": 181,
    "country_code": "RO",
    "latitude": "46.36667000",
    "longitude": "23.20000000",
    "wikiDataId": null
  },
  {
    "id": 94962,
    "name": "Meteş",
    "state_id": 4724,
    "state_code": "AB",
    "country_id": 181,
    "country_code": "RO",
    "latitude": "46.10000000",
    "longitude": "23.41667000",
    "wikiDataId": null
  },
  {
    "id": 94967,
    "name": "Micești",
    "state_id": 4724,
    "state_code": "AB",
    "country_id": 181,
    "country_code": "RO",
    "latitude": "46.10141000",
    "longitude": "23.55573000",
    "wikiDataId": null
  },
  {
    "id": 94985,
    "name": "Mihalţ",
    "state_id": 4724,
    "state_code": "AB",
    "country_id": 181,
    "country_code": "RO",
    "latitude": "46.15000000",
    "longitude": "23.73333000",
    "wikiDataId": null
  },
  {
    "id": 95025,
    "name": "Mirăslău",
    "state_id": 4724,
    "state_code": "AB",
    "country_id": 181,
    "country_code": "RO",
    "latitude": "46.36667000",
    "longitude": "23.71667000",
    "wikiDataId": null
  },
  {
    "id": 95056,
    "name": "Mogoș",
    "state_id": 4724,
    "state_code": "AB",
    "country_id": 181,
    "country_code": "RO",
    "latitude": "46.27554000",
    "longitude": "23.28038000",
    "wikiDataId": null
  },
  {
    "id": 95106,
    "name": "Municipiul Aiud",
    "state_id": 4724,
    "state_code": "AB",
    "country_id": 181,
    "country_code": "RO",
    "latitude": "46.30440000",
    "longitude": "23.69751000",
    "wikiDataId": null
  },
  {
    "id": 95107,
    "name": "Municipiul Alba Iulia",
    "state_id": 4724,
    "state_code": "AB",
    "country_id": 181,
    "country_code": "RO",
    "latitude": "46.06346000",
    "longitude": "23.57494000",
    "wikiDataId": null
  },
  {
    "id": 95114,
    "name": "Municipiul Blaj",
    "state_id": 4724,
    "state_code": "AB",
    "country_id": 181,
    "country_code": "RO",
    "latitude": "46.15084000",
    "longitude": "23.91041000",
    "wikiDataId": null
  },
  {
    "id": 95179,
    "name": "Municipiul Sebeş",
    "state_id": 4724,
    "state_code": "AB",
    "country_id": 181,
    "country_code": "RO",
    "latitude": "45.94237000",
    "longitude": "23.57681000",
    "wikiDataId": null
  },
  {
    "id": 95358,
    "name": "Noşlac",
    "state_id": 4724,
    "state_code": "AB",
    "country_id": 181,
    "country_code": "RO",
    "latitude": "46.40000000",
    "longitude": "23.93333000",
    "wikiDataId": null
  },
  {
    "id": 95382,
    "name": "Oarda",
    "state_id": 4724,
    "state_code": "AB",
    "country_id": 181,
    "country_code": "RO",
    "latitude": "46.03333000",
    "longitude": "23.56667000",
    "wikiDataId": null
  },
  {
    "id": 95395,
    "name": "Ocna Mureş",
    "state_id": 4724,
    "state_code": "AB",
    "country_id": 181,
    "country_code": "RO",
    "latitude": "46.38333000",
    "longitude": "23.85000000",
    "wikiDataId": null
  },
  {
    "id": 95402,
    "name": "Ocoliş",
    "state_id": 4724,
    "state_code": "AB",
    "country_id": 181,
    "country_code": "RO",
    "latitude": "46.48333000",
    "longitude": "23.46667000",
    "wikiDataId": null
  },
  {
    "id": 95417,
    "name": "Ohaba",
    "state_id": 4724,
    "state_code": "AB",
    "country_id": 181,
    "country_code": "RO",
    "latitude": "46.06667000",
    "longitude": "23.78333000",
    "wikiDataId": null
  },
  {
    "id": 95626,
    "name": "Oraş abrud",
    "state_id": 4724,
    "state_code": "AB",
    "country_id": 181,
    "country_code": "RO",
    "latitude": "46.27409000",
    "longitude": "23.06129000",
    "wikiDataId": null
  },
  {
    "id": 95456,
    "name": "Oraş Baia de Arieş",
    "state_id": 4724,
    "state_code": "AB",
    "country_id": 181,
    "country_code": "RO",
    "latitude": "46.37933000",
    "longitude": "23.29903000",
    "wikiDataId": null
  },
  {
    "id": 95503,
    "name": "Oraş Câmpeni",
    "state_id": 4724,
    "state_code": "AB",
    "country_id": 181,
    "country_code": "RO",
    "latitude": "46.38493000",
    "longitude": "23.04553000",
    "wikiDataId": null
  },
  {
    "id": 95501,
    "name": "Oraş Cugir",
    "state_id": 4724,
    "state_code": "AB",
    "country_id": 181,
    "country_code": "RO",
    "latitude": "45.81371000",
    "longitude": "23.40740000",
    "wikiDataId": null
  },
  {
    "id": 95556,
    "name": "Oraş Ocna Mureş",
    "state_id": 4724,
    "state_code": "AB",
    "country_id": 181,
    "country_code": "RO",
    "latitude": "46.38475000",
    "longitude": "23.84070000",
    "wikiDataId": null
  },
  {
    "id": 95602,
    "name": "Oraş Teiuş",
    "state_id": 4724,
    "state_code": "AB",
    "country_id": 181,
    "country_code": "RO",
    "latitude": "46.20959000",
    "longitude": "23.70812000",
    "wikiDataId": null
  },
  {
    "id": 95624,
    "name": "Oraş Zlatna",
    "state_id": 4724,
    "state_code": "AB",
    "country_id": 181,
    "country_code": "RO",
    "latitude": "46.13753000",
    "longitude": "23.20215000",
    "wikiDataId": null
  },
  {
    "id": 95750,
    "name": "Petrești",
    "state_id": 4724,
    "state_code": "AB",
    "country_id": 181,
    "country_code": "RO",
    "latitude": "45.92102000",
    "longitude": "23.56083000",
    "wikiDataId": null
  },
  {
    "id": 95766,
    "name": "Pianu de Jos",
    "state_id": 4724,
    "state_code": "AB",
    "country_id": 181,
    "country_code": "RO",
    "latitude": "45.93528000",
    "longitude": "23.48912000",
    "wikiDataId": null
  },
  {
    "id": 95767,
    "name": "Pianu de Sus",
    "state_id": 4724,
    "state_code": "AB",
    "country_id": 181,
    "country_code": "RO",
    "latitude": "45.90000000",
    "longitude": "23.48333000",
    "wikiDataId": null
  },
  {
    "id": 95883,
    "name": "Poiana Vadului",
    "state_id": 4724,
    "state_code": "AB",
    "country_id": 181,
    "country_code": "RO",
    "latitude": "46.40000000",
    "longitude": "22.88333000",
    "wikiDataId": null
  },
  {
    "id": 95896,
    "name": "Poienile-Mogoş",
    "state_id": 4724,
    "state_code": "AB",
    "country_id": 181,
    "country_code": "RO",
    "latitude": "46.28333000",
    "longitude": "23.28333000",
    "wikiDataId": null
  },
  {
    "id": 95906,
    "name": "Ponor",
    "state_id": 4724,
    "state_code": "AB",
    "country_id": 181,
    "country_code": "RO",
    "latitude": "46.33333000",
    "longitude": "23.41667000",
    "wikiDataId": null
  },
  {
    "id": 95936,
    "name": "Poşaga de Sus",
    "state_id": 4724,
    "state_code": "AB",
    "country_id": 181,
    "country_code": "RO",
    "latitude": "46.46667000",
    "longitude": "23.38333000",
    "wikiDataId": null
  },
  {
    "id": 96195,
    "name": "Rădeşti",
    "state_id": 4724,
    "state_code": "AB",
    "country_id": 181,
    "country_code": "RO",
    "latitude": "46.26667000",
    "longitude": "23.71667000",
    "wikiDataId": null
  },
  {
    "id": 96214,
    "name": "Războieni-Cetate",
    "state_id": 4724,
    "state_code": "AB",
    "country_id": 181,
    "country_code": "RO",
    "latitude": "46.41335000",
    "longitude": "23.87158000",
    "wikiDataId": null
  },
  {
    "id": 96094,
    "name": "Rimetea",
    "state_id": 4724,
    "state_code": "AB",
    "country_id": 181,
    "country_code": "RO",
    "latitude": "46.45000000",
    "longitude": "23.56667000",
    "wikiDataId": null
  },
  {
    "id": 96129,
    "name": "Roşia de Secaş",
    "state_id": 4724,
    "state_code": "AB",
    "country_id": 181,
    "country_code": "RO",
    "latitude": "46.05000000",
    "longitude": "23.88333000",
    "wikiDataId": null
  },
  {
    "id": 96136,
    "name": "Roșia Montană",
    "state_id": 4724,
    "state_code": "AB",
    "country_id": 181,
    "country_code": "RO",
    "latitude": "46.30669000",
    "longitude": "23.13373000",
    "wikiDataId": null
  },
  {
    "id": 106013,
    "name": "Sălciua de Sus",
    "state_id": 4724,
    "state_code": "AB",
    "country_id": 181,
    "country_code": "RO",
    "latitude": "46.40000000",
    "longitude": "23.41667000",
    "wikiDataId": null
  },
  {
    "id": 106020,
    "name": "Săliștea",
    "state_id": 4724,
    "state_code": "AB",
    "country_id": 181,
    "country_code": "RO",
    "latitude": "45.90744000",
    "longitude": "23.39789000",
    "wikiDataId": null
  },
  {
    "id": 106019,
    "name": "Săliştea-Deal",
    "state_id": 4724,
    "state_code": "AB",
    "country_id": 181,
    "country_code": "RO",
    "latitude": "45.90000000",
    "longitude": "23.40000000",
    "wikiDataId": null
  },
  {
    "id": 96523,
    "name": "Sâncel",
    "state_id": 4724,
    "state_code": "AB",
    "country_id": 181,
    "country_code": "RO",
    "latitude": "46.20000000",
    "longitude": "23.95000000",
    "wikiDataId": null
  },
  {
    "id": 96525,
    "name": "Sâncrai",
    "state_id": 4724,
    "state_code": "AB",
    "country_id": 181,
    "country_code": "RO",
    "latitude": "46.29394000",
    "longitude": "23.75209000",
    "wikiDataId": null
  },
  {
    "id": 105979,
    "name": "Sântimbru",
    "state_id": 4724,
    "state_code": "AB",
    "country_id": 181,
    "country_code": "RO",
    "latitude": "46.13333000",
    "longitude": "23.65000000",
    "wikiDataId": null
  },
  {
    "id": 97114,
    "name": "Șard",
    "state_id": 4724,
    "state_code": "AB",
    "country_id": 181,
    "country_code": "RO",
    "latitude": "46.12814000",
    "longitude": "23.53520000",
    "wikiDataId": null
  },
  {
    "id": 106039,
    "name": "Săsciori",
    "state_id": 4724,
    "state_code": "AB",
    "country_id": 181,
    "country_code": "RO",
    "latitude": "45.86667000",
    "longitude": "23.58333000",
    "wikiDataId": null
  },
  {
    "id": 96296,
    "name": "Scărişoara",
    "state_id": 4724,
    "state_code": "AB",
    "country_id": 181,
    "country_code": "RO",
    "latitude": "46.46667000",
    "longitude": "22.85000000",
    "wikiDataId": null
  },
  {
    "id": 96302,
    "name": "Sebeş",
    "state_id": 4724,
    "state_code": "AB",
    "country_id": 181,
    "country_code": "RO",
    "latitude": "45.95646000",
    "longitude": "23.57100000",
    "wikiDataId": null
  },
  {
    "id": 96303,
    "name": "Sebeșel",
    "state_id": 4724,
    "state_code": "AB",
    "country_id": 181,
    "country_code": "RO",
    "latitude": "45.88771000",
    "longitude": "23.56606000",
    "wikiDataId": null
  },
  {
    "id": 97042,
    "name": "Şibot",
    "state_id": 4724,
    "state_code": "AB",
    "country_id": 181,
    "country_code": "RO",
    "latitude": "45.95000000",
    "longitude": "23.33333000",
    "wikiDataId": null
  },
  {
    "id": 96403,
    "name": "Sohodol",
    "state_id": 4724,
    "state_code": "AB",
    "country_id": 181,
    "country_code": "RO",
    "latitude": "46.35581000",
    "longitude": "23.02923000",
    "wikiDataId": null
  },
  {
    "id": 97070,
    "name": "Şona",
    "state_id": 4724,
    "state_code": "AB",
    "country_id": 181,
    "country_code": "RO",
    "latitude": "46.21667000",
    "longitude": "24.01667000",
    "wikiDataId": null
  },
  {
    "id": 97076,
    "name": "Şpring",
    "state_id": 4724,
    "state_code": "AB",
    "country_id": 181,
    "country_code": "RO",
    "latitude": "45.96667000",
    "longitude": "23.78333000",
    "wikiDataId": null
  },
  {
    "id": 96453,
    "name": "Stremţ",
    "state_id": 4724,
    "state_code": "AB",
    "country_id": 181,
    "country_code": "RO",
    "latitude": "46.21667000",
    "longitude": "23.63333000",
    "wikiDataId": null
  },
  {
    "id": 97090,
    "name": "Şugag",
    "state_id": 4724,
    "state_code": "AB",
    "country_id": 181,
    "country_code": "RO",
    "latitude": "45.76667000",
    "longitude": "23.63333000",
    "wikiDataId": null
  },
  {
    "id": 106072,
    "name": "Teiuş",
    "state_id": 4724,
    "state_code": "AB",
    "country_id": 181,
    "country_code": "RO",
    "latitude": "46.20000000",
    "longitude": "23.68333000",
    "wikiDataId": null
  },
  {
    "id": 97137,
    "name": "Țelna",
    "state_id": 4724,
    "state_code": "AB",
    "country_id": 181,
    "country_code": "RO",
    "latitude": "46.15902000",
    "longitude": "23.50099000",
    "wikiDataId": null
  },
  {
    "id": 106111,
    "name": "Tiur",
    "state_id": 4724,
    "state_code": "AB",
    "country_id": 181,
    "country_code": "RO",
    "latitude": "46.16009000",
    "longitude": "23.88927000",
    "wikiDataId": null
  },
  {
    "id": 96641,
    "name": "Uioara de Jos",
    "state_id": 4724,
    "state_code": "AB",
    "country_id": 181,
    "country_code": "RO",
    "latitude": "46.37087000",
    "longitude": "23.83863000",
    "wikiDataId": null
  },
  {
    "id": 96668,
    "name": "Unirea",
    "state_id": 4724,
    "state_code": "AB",
    "country_id": 181,
    "country_code": "RO",
    "latitude": "46.40387000",
    "longitude": "23.81314000",
    "wikiDataId": null
  },
  {
    "id": 96698,
    "name": "Vadu Moţilor",
    "state_id": 4724,
    "state_code": "AB",
    "country_id": 181,
    "country_code": "RO",
    "latitude": "46.40000000",
    "longitude": "22.96667000",
    "wikiDataId": null
  },
  {
    "id": 96729,
    "name": "Valea Lungă Alba Romania",
    "state_id": 4724,
    "state_code": "AB",
    "country_id": 181,
    "country_code": "RO",
    "latitude": "46.12592000",
    "longitude": "24.04541000",
    "wikiDataId": null
  },
  {
    "id": 96794,
    "name": "Veseuș",
    "state_id": 4724,
    "state_code": "AB",
    "country_id": 181,
    "country_code": "RO",
    "latitude": "46.27456000",
    "longitude": "24.14276000",
    "wikiDataId": null
  },
  {
    "id": 96797,
    "name": "Veza",
    "state_id": 4724,
    "state_code": "AB",
    "country_id": 181,
    "country_code": "RO",
    "latitude": "46.16747000",
    "longitude": "23.92470000",
    "wikiDataId": null
  },
  {
    "id": 96808,
    "name": "Vidra",
    "state_id": 4724,
    "state_code": "AB",
    "country_id": 181,
    "country_code": "RO",
    "latitude": "46.36758000",
    "longitude": "22.88811000",
    "wikiDataId": null
  },
  {
    "id": 96831,
    "name": "Vinerea",
    "state_id": 4724,
    "state_code": "AB",
    "country_id": 181,
    "country_code": "RO",
    "latitude": "45.88632000",
    "longitude": "23.35289000",
    "wikiDataId": null
  },
  {
    "id": 96837,
    "name": "Vințu de Jos",
    "state_id": 4724,
    "state_code": "AB",
    "country_id": 181,
    "country_code": "RO",
    "latitude": "45.99462000",
    "longitude": "23.48612000",
    "wikiDataId": null
  },
  {
    "id": 96915,
    "name": "Vurpăr",
    "state_id": 4724,
    "state_code": "AB",
    "country_id": 181,
    "country_code": "RO",
    "latitude": "46.00000000",
    "longitude": "23.46667000",
    "wikiDataId": null
  },
  {
    "id": 96998,
    "name": "Zlatna",
    "state_id": 4724,
    "state_code": "AB",
    "country_id": 181,
    "country_code": "RO",
    "latitude": "46.10633000",
    "longitude": "23.23162000",
    "wikiDataId": null
  }
]