[
  {
    "id": 30582,
    "name": "Asnæs",
    "state_id": 1528,
    "state_code": "85",
    "country_id": 59,
    "country_code": "DK",
    "latitude": "55.81229000",
    "longitude": "11.50129000",
    "wikiDataId": null
  },
  {
    "id": 30597,
    "name": "Bjæverskov",
    "state_id": 1528,
    "state_code": "85",
    "country_id": 59,
    "country_code": "DK",
    "latitude": "55.45756000",
    "longitude": "12.03651000",
    "wikiDataId": null
  },
  {
    "id": 30602,
    "name": "Borup",
    "state_id": 1528,
    "state_code": "85",
    "country_id": 59,
    "country_code": "DK",
    "latitude": "55.49472000",
    "longitude": "11.97584000",
    "wikiDataId": null
  },
  {
    "id": 30621,
    "name": "Dianalund",
    "state_id": 1528,
    "state_code": "85",
    "country_id": 59,
    "country_code": "DK",
    "latitude": "55.53133000",
    "longitude": "11.49250000",
    "wikiDataId": null
  },
  {
    "id": 30630,
    "name": "Ejby",
    "state_id": 1528,
    "state_code": "85",
    "country_id": 59,
    "country_code": "DK",
    "latitude": "55.48580000",
    "longitude": "12.08171000",
    "wikiDataId": null
  },
  {
    "id": 30640,
    "name": "Faxe",
    "state_id": 1528,
    "state_code": "85",
    "country_id": 59,
    "country_code": "DK",
    "latitude": "55.25561000",
    "longitude": "12.11926000",
    "wikiDataId": null
  },
  {
    "id": 30641,
    "name": "Faxe Kommune",
    "state_id": 1528,
    "state_code": "85",
    "country_id": 59,
    "country_code": "DK",
    "latitude": "55.29444000",
    "longitude": "12.06111000",
    "wikiDataId": null
  },
  {
    "id": 30642,
    "name": "Faxe Ladeplads",
    "state_id": 1528,
    "state_code": "85",
    "country_id": 59,
    "country_code": "DK",
    "latitude": "55.21981000",
    "longitude": "12.17013000",
    "wikiDataId": null
  },
  {
    "id": 30643,
    "name": "Fensmark",
    "state_id": 1528,
    "state_code": "85",
    "country_id": 59,
    "country_code": "DK",
    "latitude": "55.27919000",
    "longitude": "11.80382000",
    "wikiDataId": null
  },
  {
    "id": 30646,
    "name": "Forlev",
    "state_id": 1528,
    "state_code": "85",
    "country_id": 59,
    "country_code": "DK",
    "latitude": "55.37445000",
    "longitude": "11.25966000",
    "wikiDataId": null
  },
  {
    "id": 30653,
    "name": "Frederiksberg",
    "state_id": 1528,
    "state_code": "85",
    "country_id": 59,
    "country_code": "DK",
    "latitude": "55.41618000",
    "longitude": "11.56934000",
    "wikiDataId": null
  },
  {
    "id": 30661,
    "name": "Fuglebjerg",
    "state_id": 1528,
    "state_code": "85",
    "country_id": 59,
    "country_code": "DK",
    "latitude": "55.30604000",
    "longitude": "11.54766000",
    "wikiDataId": null
  },
  {
    "id": 30685,
    "name": "Gørlev",
    "state_id": 1528,
    "state_code": "85",
    "country_id": 59,
    "country_code": "DK",
    "latitude": "55.53926000",
    "longitude": "11.22708000",
    "wikiDataId": null
  },
  {
    "id": 30676,
    "name": "Greve",
    "state_id": 1528,
    "state_code": "85",
    "country_id": 59,
    "country_code": "DK",
    "latitude": "55.58333000",
    "longitude": "12.30000000",
    "wikiDataId": null
  },
  {
    "id": 30677,
    "name": "Greve Kommune",
    "state_id": 1528,
    "state_code": "85",
    "country_id": 59,
    "country_code": "DK",
    "latitude": "55.58770000",
    "longitude": "12.25060000",
    "wikiDataId": null
  },
  {
    "id": 30683,
    "name": "Guldborgsund Kommune",
    "state_id": 1528,
    "state_code": "85",
    "country_id": 59,
    "country_code": "DK",
    "latitude": "54.76944000",
    "longitude": "11.83611000",
    "wikiDataId": null
  },
  {
    "id": 30684,
    "name": "Gundsømagle",
    "state_id": 1528,
    "state_code": "85",
    "country_id": 59,
    "country_code": "DK",
    "latitude": "55.73565000",
    "longitude": "12.15158000",
    "wikiDataId": null
  },
  {
    "id": 30734,
    "name": "Hårlev",
    "state_id": 1528,
    "state_code": "85",
    "country_id": 59,
    "country_code": "DK",
    "latitude": "55.34936000",
    "longitude": "12.23382000",
    "wikiDataId": null
  },
  {
    "id": 30696,
    "name": "Haslev",
    "state_id": 1528,
    "state_code": "85",
    "country_id": 59,
    "country_code": "DK",
    "latitude": "55.32346000",
    "longitude": "11.96389000",
    "wikiDataId": null
  },
  {
    "id": 30697,
    "name": "Havdrup",
    "state_id": 1528,
    "state_code": "85",
    "country_id": 59,
    "country_code": "DK",
    "latitude": "55.54481000",
    "longitude": "12.12392000",
    "wikiDataId": null
  },
  {
    "id": 30716,
    "name": "Holbæk",
    "state_id": 1528,
    "state_code": "85",
    "country_id": 59,
    "country_code": "DK",
    "latitude": "55.71750000",
    "longitude": "11.71279000",
    "wikiDataId": null
  },
  {
    "id": 30717,
    "name": "Holbæk Kommune",
    "state_id": 1528,
    "state_code": "85",
    "country_id": 59,
    "country_code": "DK",
    "latitude": "55.65919000",
    "longitude": "11.62049000",
    "wikiDataId": null
  },
  {
    "id": 30718,
    "name": "Holeby",
    "state_id": 1528,
    "state_code": "85",
    "country_id": 59,
    "country_code": "DK",
    "latitude": "54.71148000",
    "longitude": "11.46416000",
    "wikiDataId": null
  },
  {
    "id": 30737,
    "name": "Høng",
    "state_id": 1528,
    "state_code": "85",
    "country_id": 59,
    "country_code": "DK",
    "latitude": "55.50736000",
    "longitude": "11.28873000",
    "wikiDataId": null
  },
  {
    "id": 30742,
    "name": "Hørve",
    "state_id": 1528,
    "state_code": "85",
    "country_id": 59,
    "country_code": "DK",
    "latitude": "55.75292000",
    "longitude": "11.45298000",
    "wikiDataId": null
  },
  {
    "id": 30750,
    "name": "Jyderup",
    "state_id": 1528,
    "state_code": "85",
    "country_id": 59,
    "country_code": "DK",
    "latitude": "55.66399000",
    "longitude": "11.42029000",
    "wikiDataId": null
  },
  {
    "id": 30751,
    "name": "Jyllinge",
    "state_id": 1528,
    "state_code": "85",
    "country_id": 59,
    "country_code": "DK",
    "latitude": "55.75295000",
    "longitude": "12.10315000",
    "wikiDataId": null
  },
  {
    "id": 30753,
    "name": "Kalundborg",
    "state_id": 1528,
    "state_code": "85",
    "country_id": 59,
    "country_code": "DK",
    "latitude": "55.67954000",
    "longitude": "11.08864000",
    "wikiDataId": null
  },
  {
    "id": 30754,
    "name": "Kalundborg Kommune",
    "state_id": 1528,
    "state_code": "85",
    "country_id": 59,
    "country_code": "DK",
    "latitude": "55.63545000",
    "longitude": "11.19993000",
    "wikiDataId": null
  },
  {
    "id": 30759,
    "name": "Kirke Hvalsø",
    "state_id": 1528,
    "state_code": "85",
    "country_id": 59,
    "country_code": "DK",
    "latitude": "55.59170000",
    "longitude": "11.86253000",
    "wikiDataId": null
  },
  {
    "id": 30767,
    "name": "Korsør",
    "state_id": 1528,
    "state_code": "85",
    "country_id": 59,
    "country_code": "DK",
    "latitude": "55.32993000",
    "longitude": "11.13857000",
    "wikiDataId": null
  },
  {
    "id": 30771,
    "name": "Køge",
    "state_id": 1528,
    "state_code": "85",
    "country_id": 59,
    "country_code": "DK",
    "latitude": "55.45802000",
    "longitude": "12.18214000",
    "wikiDataId": null
  },
  {
    "id": 30772,
    "name": "Køge Kommune",
    "state_id": 1528,
    "state_code": "85",
    "country_id": 59,
    "country_code": "DK",
    "latitude": "55.45668000",
    "longitude": "12.07332000",
    "wikiDataId": null
  },
  {
    "id": 30776,
    "name": "Lejre",
    "state_id": 1528,
    "state_code": "85",
    "country_id": 59,
    "country_code": "DK",
    "latitude": "55.60461000",
    "longitude": "11.97477000",
    "wikiDataId": null
  },
  {
    "id": 30777,
    "name": "Lejre Kommune",
    "state_id": 1528,
    "state_code": "85",
    "country_id": 59,
    "country_code": "DK",
    "latitude": "55.63375000",
    "longitude": "11.92234000",
    "wikiDataId": null
  },
  {
    "id": 30783,
    "name": "Lolland Kommune",
    "state_id": 1528,
    "state_code": "85",
    "country_id": 59,
    "country_code": "DK",
    "latitude": "54.80238000",
    "longitude": "11.29524000",
    "wikiDataId": null
  },
  {
    "id": 30797,
    "name": "Maribo",
    "state_id": 1528,
    "state_code": "85",
    "country_id": 59,
    "country_code": "DK",
    "latitude": "54.77662000",
    "longitude": "11.50017000",
    "wikiDataId": null
  },
  {
    "id": 30805,
    "name": "Nakskov",
    "state_id": 1528,
    "state_code": "85",
    "country_id": 59,
    "country_code": "DK",
    "latitude": "54.83038000",
    "longitude": "11.13567000",
    "wikiDataId": null
  },
  {
    "id": 30821,
    "name": "Næstved",
    "state_id": 1528,
    "state_code": "85",
    "country_id": 59,
    "country_code": "DK",
    "latitude": "55.22992000",
    "longitude": "11.76092000",
    "wikiDataId": null
  },
  {
    "id": 30822,
    "name": "Næstved Kommune",
    "state_id": 1528,
    "state_code": "85",
    "country_id": 59,
    "country_code": "DK",
    "latitude": "55.25855000",
    "longitude": "11.74615000",
    "wikiDataId": null
  },
  {
    "id": 30807,
    "name": "Neder Vindinge",
    "state_id": 1528,
    "state_code": "85",
    "country_id": 59,
    "country_code": "DK",
    "latitude": "55.03211000",
    "longitude": "11.88356000",
    "wikiDataId": null
  },
  {
    "id": 30824,
    "name": "Nørre Alslev",
    "state_id": 1528,
    "state_code": "85",
    "country_id": 59,
    "country_code": "DK",
    "latitude": "54.89784000",
    "longitude": "11.88414000",
    "wikiDataId": null
  },
  {
    "id": 30817,
    "name": "Nykøbing Falster",
    "state_id": 1528,
    "state_code": "85",
    "country_id": 59,
    "country_code": "DK",
    "latitude": "54.76906000",
    "longitude": "11.87425000",
    "wikiDataId": null
  },
  {
    "id": 30819,
    "name": "Nykøbing Sjælland",
    "state_id": 1528,
    "state_code": "85",
    "country_id": 59,
    "country_code": "DK",
    "latitude": "55.92491000",
    "longitude": "11.67109000",
    "wikiDataId": null
  },
  {
    "id": 30820,
    "name": "Nyråd",
    "state_id": 1528,
    "state_code": "85",
    "country_id": 59,
    "country_code": "DK",
    "latitude": "55.00511000",
    "longitude": "11.96060000",
    "wikiDataId": null
  },
  {
    "id": 30831,
    "name": "Odsherred Kommune",
    "state_id": 1528,
    "state_code": "85",
    "country_id": 59,
    "country_code": "DK",
    "latitude": "55.88333000",
    "longitude": "11.59444000",
    "wikiDataId": null
  },
  {
    "id": 30833,
    "name": "Osted",
    "state_id": 1528,
    "state_code": "85",
    "country_id": 59,
    "country_code": "DK",
    "latitude": "55.56228000",
    "longitude": "11.95786000",
    "wikiDataId": null
  },
  {
    "id": 31001,
    "name": "Ørslev",
    "state_id": 1528,
    "state_code": "85",
    "country_id": 59,
    "country_code": "DK",
    "latitude": "55.04356000",
    "longitude": "11.96792000",
    "wikiDataId": null
  },
  {
    "id": 30837,
    "name": "Præstø",
    "state_id": 1528,
    "state_code": "85",
    "country_id": 59,
    "country_code": "DK",
    "latitude": "55.12374000",
    "longitude": "12.04477000",
    "wikiDataId": null
  },
  {
    "id": 30845,
    "name": "Ringsted",
    "state_id": 1528,
    "state_code": "85",
    "country_id": 59,
    "country_code": "DK",
    "latitude": "55.44260000",
    "longitude": "11.79011000",
    "wikiDataId": null
  },
  {
    "id": 30846,
    "name": "Ringsted Kommune",
    "state_id": 1528,
    "state_code": "85",
    "country_id": 59,
    "country_code": "DK",
    "latitude": "55.44721000",
    "longitude": "11.81720000",
    "wikiDataId": null
  },
  {
    "id": 30847,
    "name": "Roskilde",
    "state_id": 1528,
    "state_code": "85",
    "country_id": 59,
    "country_code": "DK",
    "latitude": "55.64152000",
    "longitude": "12.08035000",
    "wikiDataId": null
  },
  {
    "id": 30848,
    "name": "Roskilde Kommune",
    "state_id": 1528,
    "state_code": "85",
    "country_id": 59,
    "country_code": "DK",
    "latitude": "55.65000000",
    "longitude": "12.10000000",
    "wikiDataId": null
  },
  {
    "id": 30853,
    "name": "Rødby",
    "state_id": 1528,
    "state_code": "85",
    "country_id": 59,
    "country_code": "DK",
    "latitude": "54.69495000",
    "longitude": "11.38885000",
    "wikiDataId": null
  },
  {
    "id": 30854,
    "name": "Rødbyhavn",
    "state_id": 1528,
    "state_code": "85",
    "country_id": 59,
    "country_code": "DK",
    "latitude": "54.65944000",
    "longitude": "11.35504000",
    "wikiDataId": null
  },
  {
    "id": 30859,
    "name": "Rødvig",
    "state_id": 1528,
    "state_code": "85",
    "country_id": 59,
    "country_code": "DK",
    "latitude": "55.25540000",
    "longitude": "12.37936000",
    "wikiDataId": null
  },
  {
    "id": 30862,
    "name": "Rønnede",
    "state_id": 1528,
    "state_code": "85",
    "country_id": 59,
    "country_code": "DK",
    "latitude": "55.25710000",
    "longitude": "12.02125000",
    "wikiDataId": null
  },
  {
    "id": 30864,
    "name": "Sakskøbing",
    "state_id": 1528,
    "state_code": "85",
    "country_id": 59,
    "country_code": "DK",
    "latitude": "54.79970000",
    "longitude": "11.62599000",
    "wikiDataId": null
  },
  {
    "id": 30879,
    "name": "Skælskør",
    "state_id": 1528,
    "state_code": "85",
    "country_id": 59,
    "country_code": "DK",
    "latitude": "55.25058000",
    "longitude": "11.29352000",
    "wikiDataId": null
  },
  {
    "id": 30882,
    "name": "Slagelse",
    "state_id": 1528,
    "state_code": "85",
    "country_id": 59,
    "country_code": "DK",
    "latitude": "55.40276000",
    "longitude": "11.35459000",
    "wikiDataId": null
  },
  {
    "id": 30883,
    "name": "Slagelse Kommune",
    "state_id": 1528,
    "state_code": "85",
    "country_id": 59,
    "country_code": "DK",
    "latitude": "55.34546000",
    "longitude": "11.33390000",
    "wikiDataId": null
  },
  {
    "id": 30889,
    "name": "Solrød",
    "state_id": 1528,
    "state_code": "85",
    "country_id": 59,
    "country_code": "DK",
    "latitude": "55.53628000",
    "longitude": "12.18270000",
    "wikiDataId": null
  },
  {
    "id": 30890,
    "name": "Solrød Kommune",
    "state_id": 1528,
    "state_code": "85",
    "country_id": 59,
    "country_code": "DK",
    "latitude": "55.53553000",
    "longitude": "12.17337000",
    "wikiDataId": null
  },
  {
    "id": 30891,
    "name": "Solrød Strand",
    "state_id": 1528,
    "state_code": "85",
    "country_id": 59,
    "country_code": "DK",
    "latitude": "55.53285000",
    "longitude": "12.22227000",
    "wikiDataId": null
  },
  {
    "id": 30892,
    "name": "Sorø",
    "state_id": 1528,
    "state_code": "85",
    "country_id": 59,
    "country_code": "DK",
    "latitude": "55.43184000",
    "longitude": "11.55547000",
    "wikiDataId": null
  },
  {
    "id": 30893,
    "name": "Sorø Kommune",
    "state_id": 1528,
    "state_code": "85",
    "country_id": 59,
    "country_code": "DK",
    "latitude": "55.48268000",
    "longitude": "11.55693000",
    "wikiDataId": null
  },
  {
    "id": 30898,
    "name": "Stege",
    "state_id": 1528,
    "state_code": "85",
    "country_id": 59,
    "country_code": "DK",
    "latitude": "54.98704000",
    "longitude": "12.28461000",
    "wikiDataId": null
  },
  {
    "id": 30899,
    "name": "Stenlille",
    "state_id": 1528,
    "state_code": "85",
    "country_id": 59,
    "country_code": "DK",
    "latitude": "55.53888000",
    "longitude": "11.59120000",
    "wikiDataId": null
  },
  {
    "id": 30901,
    "name": "Stevns Kommune",
    "state_id": 1528,
    "state_code": "85",
    "country_id": 59,
    "country_code": "DK",
    "latitude": "55.33373000",
    "longitude": "12.30692000",
    "wikiDataId": null
  },
  {
    "id": 30905,
    "name": "Store Heddinge",
    "state_id": 1528,
    "state_code": "85",
    "country_id": 59,
    "country_code": "DK",
    "latitude": "55.30965000",
    "longitude": "12.38885000",
    "wikiDataId": null
  },
  {
    "id": 30911,
    "name": "Strøby Egede",
    "state_id": 1528,
    "state_code": "85",
    "country_id": 59,
    "country_code": "DK",
    "latitude": "55.41382000",
    "longitude": "12.24502000",
    "wikiDataId": null
  },
  {
    "id": 30912,
    "name": "Stubbekøbing",
    "state_id": 1528,
    "state_code": "85",
    "country_id": 59,
    "country_code": "DK",
    "latitude": "54.88875000",
    "longitude": "12.04102000",
    "wikiDataId": null
  },
  {
    "id": 30914,
    "name": "Sundby",
    "state_id": 1528,
    "state_code": "85",
    "country_id": 59,
    "country_code": "DK",
    "latitude": "54.76711000",
    "longitude": "11.84979000",
    "wikiDataId": null
  },
  {
    "id": 30916,
    "name": "Svebølle",
    "state_id": 1528,
    "state_code": "85",
    "country_id": 59,
    "country_code": "DK",
    "latitude": "55.65183000",
    "longitude": "11.28658000",
    "wikiDataId": null
  },
  {
    "id": 30921,
    "name": "Svinninge",
    "state_id": 1528,
    "state_code": "85",
    "country_id": 59,
    "country_code": "DK",
    "latitude": "55.72111000",
    "longitude": "11.46547000",
    "wikiDataId": null
  },
  {
    "id": 30922,
    "name": "Svogerslev",
    "state_id": 1528,
    "state_code": "85",
    "country_id": 59,
    "country_code": "DK",
    "latitude": "55.63423000",
    "longitude": "12.01465000",
    "wikiDataId": null
  },
  {
    "id": 30949,
    "name": "Tølløse",
    "state_id": 1528,
    "state_code": "85",
    "country_id": 59,
    "country_code": "DK",
    "latitude": "55.61250000",
    "longitude": "11.77034000",
    "wikiDataId": null
  },
  {
    "id": 30945,
    "name": "Tune",
    "state_id": 1528,
    "state_code": "85",
    "country_id": 59,
    "country_code": "DK",
    "latitude": "55.59287000",
    "longitude": "12.16968000",
    "wikiDataId": null
  },
  {
    "id": 30974,
    "name": "Viby",
    "state_id": 1528,
    "state_code": "85",
    "country_id": 59,
    "country_code": "DK",
    "latitude": "55.54872000",
    "longitude": "12.02391000",
    "wikiDataId": null
  },
  {
    "id": 30979,
    "name": "Vindinge",
    "state_id": 1528,
    "state_code": "85",
    "country_id": 59,
    "country_code": "DK",
    "latitude": "55.62298000",
    "longitude": "12.13870000",
    "wikiDataId": null
  },
  {
    "id": 30980,
    "name": "Vipperød",
    "state_id": 1528,
    "state_code": "85",
    "country_id": 59,
    "country_code": "DK",
    "latitude": "55.66768000",
    "longitude": "11.73967000",
    "wikiDataId": null
  },
  {
    "id": 30985,
    "name": "Vordingborg",
    "state_id": 1528,
    "state_code": "85",
    "country_id": 59,
    "country_code": "DK",
    "latitude": "55.00801000",
    "longitude": "11.91057000",
    "wikiDataId": null
  },
  {
    "id": 30986,
    "name": "Vordingborg Kommune",
    "state_id": 1528,
    "state_code": "85",
    "country_id": 59,
    "country_code": "DK",
    "latitude": "55.01383000",
    "longitude": "12.10008000",
    "wikiDataId": null
  }
]