[
  {
    "id": 155592,
    "name": "Ageville",
    "state_id": 5020,
    "state_code": "52",
    "country_id": 75,
    "country_code": "FR",
    "latitude": "48.11003830",
    "longitude": "5.17310240",
    "wikiDataId": null
  },
  {
    "id": 155593,
    "name": "Aigremont",
    "state_id": 5020,
    "state_code": "52",
    "country_id": 75,
    "country_code": "FR",
    "latitude": "48.90266770",
    "longitude": "1.99205600",
    "wikiDataId": null
  },
  {
    "id": 155594,
    "name": "Aillianville",
    "state_id": 5020,
    "state_code": "52",
    "country_id": 75,
    "country_code": "FR",
    "latitude": "48.33429430",
    "longitude": "5.43849100",
    "wikiDataId": null
  },
  {
    "id": 155595,
    "name": "Aingoulaincourt",
    "state_id": 5020,
    "state_code": "52",
    "country_id": 75,
    "country_code": "FR",
    "latitude": "48.45649370",
    "longitude": "5.25730900",
    "wikiDataId": null
  },
  {
    "id": 155596,
    "name": "Aizanville",
    "state_id": 5020,
    "state_code": "52",
    "country_id": 75,
    "country_code": "FR",
    "latitude": "48.11129400",
    "longitude": "4.87474160",
    "wikiDataId": null
  },
  {
    "id": 155597,
    "name": "Allichamps",
    "state_id": 5020,
    "state_code": "52",
    "country_id": 75,
    "country_code": "FR",
    "latitude": "48.56395740",
    "longitude": "4.86851950",
    "wikiDataId": null
  },
  {
    "id": 155598,
    "name": "Ambonville",
    "state_id": 5020,
    "state_code": "52",
    "country_id": 75,
    "country_code": "FR",
    "latitude": "48.31526490",
    "longitude": "4.97257640",
    "wikiDataId": null
  },
  {
    "id": 155599,
    "name": "Andelot-Blancheville",
    "state_id": 5020,
    "state_code": "52",
    "country_id": 75,
    "country_code": "FR",
    "latitude": "48.23644260",
    "longitude": "5.19846690",
    "wikiDataId": null
  },
  {
    "id": 155600,
    "name": "Andilly-en-Bassigny",
    "state_id": 5020,
    "state_code": "52",
    "country_id": 75,
    "country_code": "FR",
    "latitude": "47.92767610",
    "longitude": "5.50215770",
    "wikiDataId": null
  },
  {
    "id": 155601,
    "name": "Annéville-la-Prairie",
    "state_id": 5020,
    "state_code": "52",
    "country_id": 75,
    "country_code": "FR",
    "latitude": "48.19953310",
    "longitude": "5.06688300",
    "wikiDataId": null
  },
  {
    "id": 155602,
    "name": "Annonville",
    "state_id": 5020,
    "state_code": "52",
    "country_id": 75,
    "country_code": "FR",
    "latitude": "48.38644880",
    "longitude": "5.25003680",
    "wikiDataId": null
  },
  {
    "id": 155603,
    "name": "Anrosey",
    "state_id": 5020,
    "state_code": "52",
    "country_id": 75,
    "country_code": "FR",
    "latitude": "47.84682990",
    "longitude": "5.63671220",
    "wikiDataId": null
  },
  {
    "id": 155604,
    "name": "Aprey",
    "state_id": 5020,
    "state_code": "52",
    "country_id": 75,
    "country_code": "FR",
    "latitude": "47.77385090",
    "longitude": "5.15533100",
    "wikiDataId": null
  },
  {
    "id": 155605,
    "name": "Arbigny-sous-Varennes",
    "state_id": 5020,
    "state_code": "52",
    "country_id": 75,
    "country_code": "FR",
    "latitude": "47.86151230",
    "longitude": "5.57368630",
    "wikiDataId": null
  },
  {
    "id": 155606,
    "name": "Arbot",
    "state_id": 5020,
    "state_code": "52",
    "country_id": 75,
    "country_code": "FR",
    "latitude": "47.84677600",
    "longitude": "4.97535050",
    "wikiDataId": null
  },
  {
    "id": 155607,
    "name": "Arc-en-Barrois",
    "state_id": 5020,
    "state_code": "52",
    "country_id": 75,
    "country_code": "FR",
    "latitude": "47.94842170",
    "longitude": "4.93535810",
    "wikiDataId": null
  },
  {
    "id": 155608,
    "name": "Arnancourt",
    "state_id": 5020,
    "state_code": "52",
    "country_id": 75,
    "country_code": "FR",
    "latitude": "48.35044190",
    "longitude": "4.87836560",
    "wikiDataId": null
  },
  {
    "id": 155609,
    "name": "Attancourt",
    "state_id": 5020,
    "state_code": "52",
    "country_id": 75,
    "country_code": "FR",
    "latitude": "48.53654140",
    "longitude": "4.92125760",
    "wikiDataId": null
  },
  {
    "id": 155610,
    "name": "Aubepierre-sur-Aube",
    "state_id": 5020,
    "state_code": "52",
    "country_id": 75,
    "country_code": "FR",
    "latitude": "47.91445660",
    "longitude": "4.87267560",
    "wikiDataId": null
  },
  {
    "id": 155611,
    "name": "Auberive",
    "state_id": 5020,
    "state_code": "52",
    "country_id": 75,
    "country_code": "FR",
    "latitude": "47.78425200",
    "longitude": "5.01220860",
    "wikiDataId": null
  },
  {
    "id": 155612,
    "name": "Audeloncourt",
    "state_id": 5020,
    "state_code": "52",
    "country_id": 75,
    "country_code": "FR",
    "latitude": "48.11815830",
    "longitude": "5.49095690",
    "wikiDataId": null
  },
  {
    "id": 155613,
    "name": "Aujeurres",
    "state_id": 5020,
    "state_code": "52",
    "country_id": 75,
    "country_code": "FR",
    "latitude": "47.73910330",
    "longitude": "5.15077390",
    "wikiDataId": null
  },
  {
    "id": 155614,
    "name": "Aulnoy-sur-Aube",
    "state_id": 5020,
    "state_code": "52",
    "country_id": 75,
    "country_code": "FR",
    "latitude": "47.83190590",
    "longitude": "5.01148910",
    "wikiDataId": null
  },
  {
    "id": 155615,
    "name": "Autigny-le-Grand",
    "state_id": 5020,
    "state_code": "52",
    "country_id": 75,
    "country_code": "FR",
    "latitude": "48.47256660",
    "longitude": "5.12977220",
    "wikiDataId": null
  },
  {
    "id": 155616,
    "name": "Autigny-le-Petit",
    "state_id": 5020,
    "state_code": "52",
    "country_id": 75,
    "country_code": "FR",
    "latitude": "48.48112360",
    "longitude": "5.13049570",
    "wikiDataId": null
  },
  {
    "id": 155617,
    "name": "Autreville-sur-la-Renne",
    "state_id": 5020,
    "state_code": "52",
    "country_id": 75,
    "country_code": "FR",
    "latitude": "48.12694010",
    "longitude": "4.93468920",
    "wikiDataId": null
  },
  {
    "id": 155618,
    "name": "Avrecourt",
    "state_id": 5020,
    "state_code": "52",
    "country_id": 75,
    "country_code": "FR",
    "latitude": "47.96548350",
    "longitude": "5.51320070",
    "wikiDataId": null
  },
  {
    "id": 155619,
    "name": "Bailly-aux-Forges",
    "state_id": 5020,
    "state_code": "52",
    "country_id": 75,
    "country_code": "FR",
    "latitude": "48.45530510",
    "longitude": "4.86522790",
    "wikiDataId": null
  },
  {
    "id": 155620,
    "name": "Baissey",
    "state_id": 5020,
    "state_code": "52",
    "country_id": 75,
    "country_code": "FR",
    "latitude": "47.74925220",
    "longitude": "5.23160860",
    "wikiDataId": null
  },
  {
    "id": 155621,
    "name": "Bannes",
    "state_id": 5020,
    "state_code": "52",
    "country_id": 75,
    "country_code": "FR",
    "latitude": "47.90300420",
    "longitude": "5.34928270",
    "wikiDataId": null
  },
  {
    "id": 155622,
    "name": "Bassoncourt",
    "state_id": 5020,
    "state_code": "52",
    "country_id": 75,
    "country_code": "FR",
    "latitude": "48.07583980",
    "longitude": "5.53541300",
    "wikiDataId": null
  },
  {
    "id": 155623,
    "name": "Baudrecourt",
    "state_id": 5020,
    "state_code": "52",
    "country_id": 75,
    "country_code": "FR",
    "latitude": "48.39385650",
    "longitude": "4.94971690",
    "wikiDataId": null
  },
  {
    "id": 155624,
    "name": "Bay-sur-Aube",
    "state_id": 5020,
    "state_code": "52",
    "country_id": 75,
    "country_code": "FR",
    "latitude": "47.82532160",
    "longitude": "5.01752460",
    "wikiDataId": null
  },
  {
    "id": 155626,
    "name": "Beauchemin",
    "state_id": 5020,
    "state_code": "52",
    "country_id": 75,
    "country_code": "FR",
    "latitude": "47.91712610",
    "longitude": "5.22845130",
    "wikiDataId": null
  },
  {
    "id": 155627,
    "name": "Belmont",
    "state_id": 5020,
    "state_code": "52",
    "country_id": 75,
    "country_code": "FR",
    "latitude": "47.72043020",
    "longitude": "5.53289520",
    "wikiDataId": null
  },
  {
    "id": 155629,
    "name": "Beurville",
    "state_id": 5020,
    "state_code": "52",
    "country_id": 75,
    "country_code": "FR",
    "latitude": "48.31754850",
    "longitude": "4.82026430",
    "wikiDataId": null
  },
  {
    "id": 155631,
    "name": "Bize",
    "state_id": 5020,
    "state_code": "52",
    "country_id": 75,
    "country_code": "FR",
    "latitude": "47.84023480",
    "longitude": "5.62608600",
    "wikiDataId": null
  },
  {
    "id": 155632,
    "name": "Blaisy",
    "state_id": 5020,
    "state_code": "52",
    "country_id": 75,
    "country_code": "FR",
    "latitude": "48.17298570",
    "longitude": "4.98940130",
    "wikiDataId": null
  },
  {
    "id": 155633,
    "name": "Blecourt",
    "state_id": 5020,
    "state_code": "52",
    "country_id": 75,
    "country_code": "FR",
    "latitude": "48.38107250",
    "longitude": "5.05751790",
    "wikiDataId": null
  },
  {
    "id": 155634,
    "name": "Blessonville",
    "state_id": 5020,
    "state_code": "52",
    "country_id": 75,
    "country_code": "FR",
    "latitude": "48.05694950",
    "longitude": "4.99102850",
    "wikiDataId": null
  },
  {
    "id": 155635,
    "name": "Blumeray",
    "state_id": 5020,
    "state_code": "52",
    "country_id": 75,
    "country_code": "FR",
    "latitude": "48.35548390",
    "longitude": "4.82383150",
    "wikiDataId": null
  },
  {
    "id": 155636,
    "name": "Bologne",
    "state_id": 5020,
    "state_code": "52",
    "country_id": 75,
    "country_code": "FR",
    "latitude": "48.20354150",
    "longitude": "5.09719810",
    "wikiDataId": null
  },
  {
    "id": 155637,
    "name": "Bonnecourt",
    "state_id": 5020,
    "state_code": "52",
    "country_id": 75,
    "country_code": "FR",
    "latitude": "47.95739540",
    "longitude": "5.44091600",
    "wikiDataId": null
  },
  {
    "id": 155639,
    "name": "Bourdons-sur-Rognon",
    "state_id": 5020,
    "state_code": "52",
    "country_id": 75,
    "country_code": "FR",
    "latitude": "48.17170170",
    "longitude": "5.30208680",
    "wikiDataId": null
  },
  {
    "id": 155640,
    "name": "Bourg",
    "state_id": 5020,
    "state_code": "52",
    "country_id": 75,
    "country_code": "FR",
    "latitude": "47.79262450",
    "longitude": "5.29332670",
    "wikiDataId": null
  },
  {
    "id": 155641,
    "name": "Bourg-Sainte-Marie",
    "state_id": 5020,
    "state_code": "52",
    "country_id": 75,
    "country_code": "FR",
    "latitude": "48.18197720",
    "longitude": "5.53052000",
    "wikiDataId": null
  },
  {
    "id": 155642,
    "name": "Bourmont-entre-Meuse-et-Mouzon",
    "state_id": 5020,
    "state_code": "52",
    "country_id": 75,
    "country_code": "FR",
    "latitude": "48.22243740",
    "longitude": "5.52972790",
    "wikiDataId": null
  },
  {
    "id": 155643,
    "name": "Bouzancourt",
    "state_id": 5020,
    "state_code": "52",
    "country_id": 75,
    "country_code": "FR",
    "latitude": "48.32097000",
    "longitude": "4.90280800",
    "wikiDataId": null
  },
  {
    "id": 155644,
    "name": "Brachay",
    "state_id": 5020,
    "state_code": "52",
    "country_id": 75,
    "country_code": "FR",
    "latitude": "48.38085670",
    "longitude": "5.01955230",
    "wikiDataId": null
  },
  {
    "id": 155645,
    "name": "Brainville-sur-Meuse",
    "state_id": 5020,
    "state_code": "52",
    "country_id": 75,
    "country_code": "FR",
    "latitude": "48.17535640",
    "longitude": "5.57198980",
    "wikiDataId": null
  },
  {
    "id": 155646,
    "name": "Braux-le-Châtel",
    "state_id": 5020,
    "state_code": "52",
    "country_id": 75,
    "country_code": "FR",
    "latitude": "48.10436560",
    "longitude": "4.91530550",
    "wikiDataId": null
  },
  {
    "id": 155647,
    "name": "Brennes",
    "state_id": 5020,
    "state_code": "52",
    "country_id": 75,
    "country_code": "FR",
    "latitude": "47.79788150",
    "longitude": "5.25663480",
    "wikiDataId": null
  },
  {
    "id": 155648,
    "name": "Brethenay",
    "state_id": 5020,
    "state_code": "52",
    "country_id": 75,
    "country_code": "FR",
    "latitude": "48.15851630",
    "longitude": "5.05767330",
    "wikiDataId": null
  },
  {
    "id": 155649,
    "name": "Breuvannes-en-Bassigny",
    "state_id": 5020,
    "state_code": "52",
    "country_id": 75,
    "country_code": "FR",
    "latitude": "48.08609690",
    "longitude": "5.45314980",
    "wikiDataId": null
  },
  {
    "id": 155650,
    "name": "Briaucourt",
    "state_id": 5020,
    "state_code": "52",
    "country_id": 75,
    "country_code": "FR",
    "latitude": "48.21316360",
    "longitude": "5.11644400",
    "wikiDataId": null
  },
  {
    "id": 155651,
    "name": "Bricon",
    "state_id": 5020,
    "state_code": "52",
    "country_id": 75,
    "country_code": "FR",
    "latitude": "48.08496060",
    "longitude": "4.89998930",
    "wikiDataId": null
  },
  {
    "id": 155652,
    "name": "Brousseval",
    "state_id": 5020,
    "state_code": "52",
    "country_id": 75,
    "country_code": "FR",
    "latitude": "48.49136290",
    "longitude": "4.89438720",
    "wikiDataId": null
  },
  {
    "id": 155653,
    "name": "Bugnières",
    "state_id": 5020,
    "state_code": "52",
    "country_id": 75,
    "country_code": "FR",
    "latitude": "47.96416330",
    "longitude": "5.00776330",
    "wikiDataId": null
  },
  {
    "id": 155654,
    "name": "Busson",
    "state_id": 5020,
    "state_code": "52",
    "country_id": 75,
    "country_code": "FR",
    "latitude": "48.33266540",
    "longitude": "5.26170320",
    "wikiDataId": null
  },
  {
    "id": 155655,
    "name": "Buxières-lès-Clefmont",
    "state_id": 5020,
    "state_code": "52",
    "country_id": 75,
    "country_code": "FR",
    "latitude": "48.09178680",
    "longitude": "5.41935070",
    "wikiDataId": null
  },
  {
    "id": 155656,
    "name": "Buxières-lès-Villiers",
    "state_id": 5020,
    "state_code": "52",
    "country_id": 75,
    "country_code": "FR",
    "latitude": "48.10202600",
    "longitude": "4.98611350",
    "wikiDataId": null
  },
  {
    "id": 155657,
    "name": "Ceffonds",
    "state_id": 5020,
    "state_code": "52",
    "country_id": 75,
    "country_code": "FR",
    "latitude": "48.44066380",
    "longitude": "4.66533470",
    "wikiDataId": null
  },
  {
    "id": 155658,
    "name": "Celles-en-Bassigny",
    "state_id": 5020,
    "state_code": "52",
    "country_id": 75,
    "country_code": "FR",
    "latitude": "47.91340760",
    "longitude": "5.51327500",
    "wikiDataId": null
  },
  {
    "id": 155659,
    "name": "Celsoy",
    "state_id": 5020,
    "state_code": "52",
    "country_id": 75,
    "country_code": "FR",
    "latitude": "47.86313860",
    "longitude": "5.41182330",
    "wikiDataId": null
  },
  {
    "id": 155660,
    "name": "Cerisières",
    "state_id": 5020,
    "state_code": "52",
    "country_id": 75,
    "country_code": "FR",
    "latitude": "48.30729880",
    "longitude": "4.99872940",
    "wikiDataId": null
  },
  {
    "id": 155661,
    "name": "Chalancey",
    "state_id": 5020,
    "state_code": "52",
    "country_id": 75,
    "country_code": "FR",
    "latitude": "47.67730900",
    "longitude": "5.09393640",
    "wikiDataId": null
  },
  {
    "id": 155663,
    "name": "Chalvraines",
    "state_id": 5020,
    "state_code": "52",
    "country_id": 75,
    "country_code": "FR",
    "latitude": "48.23096890",
    "longitude": "5.42477410",
    "wikiDataId": null
  },
  {
    "id": 155665,
    "name": "Chambroncourt",
    "state_id": 5020,
    "state_code": "52",
    "country_id": 75,
    "country_code": "FR",
    "latitude": "48.35030240",
    "longitude": "5.31643530",
    "wikiDataId": null
  },
  {
    "id": 155666,
    "name": "Chamouilley",
    "state_id": 5020,
    "state_code": "52",
    "country_id": 75,
    "country_code": "FR",
    "latitude": "48.61222530",
    "longitude": "5.01052170",
    "wikiDataId": null
  },
  {
    "id": 155667,
    "name": "Champigneulles-en-Bassigny",
    "state_id": 5020,
    "state_code": "52",
    "country_id": 75,
    "country_code": "FR",
    "latitude": "48.12626680",
    "longitude": "5.54881560",
    "wikiDataId": null
  },
  {
    "id": 155668,
    "name": "Champigny-lès-Langres",
    "state_id": 5020,
    "state_code": "52",
    "country_id": 75,
    "country_code": "FR",
    "latitude": "47.89504230",
    "longitude": "5.30624340",
    "wikiDataId": null
  },
  {
    "id": 155669,
    "name": "Champigny-sous-Varennes",
    "state_id": 5020,
    "state_code": "52",
    "country_id": 75,
    "country_code": "FR",
    "latitude": "47.87101090",
    "longitude": "5.58682790",
    "wikiDataId": null
  },
  {
    "id": 155670,
    "name": "Champsevraine",
    "state_id": 5020,
    "state_code": "52",
    "country_id": 75,
    "country_code": "FR",
    "latitude": "47.77173090",
    "longitude": "5.44622930",
    "wikiDataId": null
  },
  {
    "id": 155672,
    "name": "Changey",
    "state_id": 5020,
    "state_code": "52",
    "country_id": 75,
    "country_code": "FR",
    "latitude": "47.92492750",
    "longitude": "5.34400040",
    "wikiDataId": null
  },
  {
    "id": 155673,
    "name": "Chanoy",
    "state_id": 5020,
    "state_code": "52",
    "country_id": 75,
    "country_code": "FR",
    "latitude": "47.91949160",
    "longitude": "5.24465840",
    "wikiDataId": null
  },
  {
    "id": 155674,
    "name": "Chantraines",
    "state_id": 5020,
    "state_code": "52",
    "country_id": 75,
    "country_code": "FR",
    "latitude": "48.21872710",
    "longitude": "5.16303190",
    "wikiDataId": null
  },
  {
    "id": 155675,
    "name": "Charmes",
    "state_id": 5020,
    "state_code": "52",
    "country_id": 75,
    "country_code": "FR",
    "latitude": "47.92190360",
    "longitude": "5.31165990",
    "wikiDataId": null
  },
  {
    "id": 155676,
    "name": "Charmes-en-l'Angle",
    "state_id": 5020,
    "state_code": "52",
    "country_id": 75,
    "country_code": "FR",
    "latitude": "48.35757160",
    "longitude": "4.95762110",
    "wikiDataId": null
  },
  {
    "id": 155677,
    "name": "Charmes-la-Grande",
    "state_id": 5020,
    "state_code": "52",
    "country_id": 75,
    "country_code": "FR",
    "latitude": "48.37936440",
    "longitude": "4.91447860",
    "wikiDataId": null
  },
  {
    "id": 155678,
    "name": "Chassigny",
    "state_id": 5020,
    "state_code": "52",
    "country_id": 75,
    "country_code": "FR",
    "latitude": "47.71648730",
    "longitude": "5.30081530",
    "wikiDataId": null
  },
  {
    "id": 155680,
    "name": "Chatenay-Mâcheron",
    "state_id": 5020,
    "state_code": "52",
    "country_id": 75,
    "country_code": "FR",
    "latitude": "47.85558150",
    "longitude": "5.36702060",
    "wikiDataId": null
  },
  {
    "id": 155681,
    "name": "Chatenay-Vaudin",
    "state_id": 5020,
    "state_code": "52",
    "country_id": 75,
    "country_code": "FR",
    "latitude": "47.85027070",
    "longitude": "5.42774510",
    "wikiDataId": null
  },
  {
    "id": 155682,
    "name": "Chatonrupt-Sommermont",
    "state_id": 5020,
    "state_code": "52",
    "country_id": 75,
    "country_code": "FR",
    "latitude": "48.47276510",
    "longitude": "5.05684940",
    "wikiDataId": null
  },
  {
    "id": 155683,
    "name": "Chaudenay",
    "state_id": 5020,
    "state_code": "52",
    "country_id": 75,
    "country_code": "FR",
    "latitude": "47.82101410",
    "longitude": "5.48649640",
    "wikiDataId": null
  },
  {
    "id": 155684,
    "name": "Chauffourt",
    "state_id": 5020,
    "state_code": "52",
    "country_id": 75,
    "country_code": "FR",
    "latitude": "47.97093640",
    "longitude": "5.41595430",
    "wikiDataId": null
  },
  {
    "id": 155686,
    "name": "Chaumont-la-Ville",
    "state_id": 5020,
    "state_code": "52",
    "country_id": 75,
    "country_code": "FR",
    "latitude": "48.14359480",
    "longitude": "5.59744110",
    "wikiDataId": null
  },
  {
    "id": 155688,
    "name": "Chézeaux",
    "state_id": 5020,
    "state_code": "52",
    "country_id": 75,
    "country_code": "FR",
    "latitude": "47.87619500",
    "longitude": "5.63682650",
    "wikiDataId": null
  },
  {
    "id": 155689,
    "name": "Choilley-Dardenay",
    "state_id": 5020,
    "state_code": "52",
    "country_id": 75,
    "country_code": "FR",
    "latitude": "47.66135320",
    "longitude": "5.32586410",
    "wikiDataId": null
  },
  {
    "id": 155690,
    "name": "Choiseul",
    "state_id": 5020,
    "state_code": "52",
    "country_id": 75,
    "country_code": "FR",
    "latitude": "48.05307990",
    "longitude": "5.53234320",
    "wikiDataId": null
  },
  {
    "id": 155691,
    "name": "Cirey-lès-Mareilles",
    "state_id": 5020,
    "state_code": "52",
    "country_id": 75,
    "country_code": "FR",
    "latitude": "48.19562700",
    "longitude": "5.25802700",
    "wikiDataId": null
  },
  {
    "id": 155692,
    "name": "Cirey-sur-Blaise",
    "state_id": 5020,
    "state_code": "52",
    "country_id": 75,
    "country_code": "FR",
    "latitude": "48.33405640",
    "longitude": "4.88668160",
    "wikiDataId": null
  },
  {
    "id": 155693,
    "name": "Cirfontaines-en-Azois",
    "state_id": 5020,
    "state_code": "52",
    "country_id": 75,
    "country_code": "FR",
    "latitude": "48.10642120",
    "longitude": "4.82462800",
    "wikiDataId": null
  },
  {
    "id": 155694,
    "name": "Cirfontaines-en-Ornois",
    "state_id": 5020,
    "state_code": "52",
    "country_id": 75,
    "country_code": "FR",
    "latitude": "48.45153230",
    "longitude": "5.35759750",
    "wikiDataId": null
  },
  {
    "id": 155695,
    "name": "Clefmont",
    "state_id": 5020,
    "state_code": "52",
    "country_id": 75,
    "country_code": "FR",
    "latitude": "48.11212670",
    "longitude": "5.46557900",
    "wikiDataId": null
  },
  {
    "id": 155696,
    "name": "Clinchamp",
    "state_id": 5020,
    "state_code": "52",
    "country_id": 75,
    "country_code": "FR",
    "latitude": "48.19391770",
    "longitude": "5.40928020",
    "wikiDataId": null
  },
  {
    "id": 155697,
    "name": "Cohons",
    "state_id": 5020,
    "state_code": "52",
    "country_id": 75,
    "country_code": "FR",
    "latitude": "47.78898870",
    "longitude": "5.34431200",
    "wikiDataId": null
  },
  {
    "id": 155698,
    "name": "Coiffy-le-Bas",
    "state_id": 5020,
    "state_code": "52",
    "country_id": 75,
    "country_code": "FR",
    "latitude": "47.90668480",
    "longitude": "5.62482490",
    "wikiDataId": null
  },
  {
    "id": 155699,
    "name": "Coiffy-le-Haut",
    "state_id": 5020,
    "state_code": "52",
    "country_id": 75,
    "country_code": "FR",
    "latitude": "47.90178030",
    "longitude": "5.64793180",
    "wikiDataId": null
  },
  {
    "id": 155700,
    "name": "Colmier-le-Bas",
    "state_id": 5020,
    "state_code": "52",
    "country_id": 75,
    "country_code": "FR",
    "latitude": "47.77232870",
    "longitude": "4.92056180",
    "wikiDataId": null
  },
  {
    "id": 155701,
    "name": "Colmier-le-Haut",
    "state_id": 5020,
    "state_code": "52",
    "country_id": 75,
    "country_code": "FR",
    "latitude": "47.78962640",
    "longitude": "4.93877080",
    "wikiDataId": null
  },
  {
    "id": 155702,
    "name": "Colombey-les-Deux-Églises",
    "state_id": 5020,
    "state_code": "52",
    "country_id": 75,
    "country_code": "FR",
    "latitude": "48.24179510",
    "longitude": "4.84142220",
    "wikiDataId": null
  },
  {
    "id": 155703,
    "name": "Condes",
    "state_id": 5020,
    "state_code": "52",
    "country_id": 75,
    "country_code": "FR",
    "latitude": "48.14191220",
    "longitude": "5.12104360",
    "wikiDataId": null
  },
  {
    "id": 155704,
    "name": "Consigny",
    "state_id": 5020,
    "state_code": "52",
    "country_id": 75,
    "country_code": "FR",
    "latitude": "48.16698300",
    "longitude": "5.39310760",
    "wikiDataId": null
  },
  {
    "id": 155705,
    "name": "Coublanc",
    "state_id": 5020,
    "state_code": "52",
    "country_id": 75,
    "country_code": "FR",
    "latitude": "47.70526190",
    "longitude": "5.39955600",
    "wikiDataId": null
  },
  {
    "id": 155706,
    "name": "Coupray",
    "state_id": 5020,
    "state_code": "52",
    "country_id": 75,
    "country_code": "FR",
    "latitude": "47.97741680",
    "longitude": "4.92257120",
    "wikiDataId": null
  },
  {
    "id": 155707,
    "name": "Cour-l'Évêque",
    "state_id": 5020,
    "state_code": "52",
    "country_id": 75,
    "country_code": "FR",
    "latitude": "47.97500900",
    "longitude": "4.93867850",
    "wikiDataId": null
  },
  {
    "id": 155708,
    "name": "Courcelles-en-Montagne",
    "state_id": 5020,
    "state_code": "52",
    "country_id": 75,
    "country_code": "FR",
    "latitude": "47.84555620",
    "longitude": "5.16853750",
    "wikiDataId": null
  },
  {
    "id": 155709,
    "name": "Courcelles-sur-Blaise",
    "state_id": 5020,
    "state_code": "52",
    "country_id": 75,
    "country_code": "FR",
    "latitude": "48.41190880",
    "longitude": "4.92156100",
    "wikiDataId": null
  },
  {
    "id": 155710,
    "name": "Culmont",
    "state_id": 5020,
    "state_code": "52",
    "country_id": 75,
    "country_code": "FR",
    "latitude": "47.82735130",
    "longitude": "5.42334280",
    "wikiDataId": null
  },
  {
    "id": 155711,
    "name": "Curel",
    "state_id": 5020,
    "state_code": "52",
    "country_id": 75,
    "country_code": "FR",
    "latitude": "48.49913400",
    "longitude": "5.12525580",
    "wikiDataId": null
  },
  {
    "id": 155712,
    "name": "Curmont",
    "state_id": 5020,
    "state_code": "52",
    "country_id": 75,
    "country_code": "FR",
    "latitude": "48.25485950",
    "longitude": "4.93168510",
    "wikiDataId": null
  },
  {
    "id": 155713,
    "name": "Cusey",
    "state_id": 5020,
    "state_code": "52",
    "country_id": 75,
    "country_code": "FR",
    "latitude": "47.62218810",
    "longitude": "5.31457190",
    "wikiDataId": null
  },
  {
    "id": 155714,
    "name": "Cuves",
    "state_id": 5020,
    "state_code": "52",
    "country_id": 75,
    "country_code": "FR",
    "latitude": "48.09516660",
    "longitude": "5.41048170",
    "wikiDataId": null
  },
  {
    "id": 155715,
    "name": "Daillancourt",
    "state_id": 5020,
    "state_code": "52",
    "country_id": 75,
    "country_code": "FR",
    "latitude": "48.29727430",
    "longitude": "4.89335880",
    "wikiDataId": null
  },
  {
    "id": 155716,
    "name": "Daillecourt",
    "state_id": 5020,
    "state_code": "52",
    "country_id": 75,
    "country_code": "FR",
    "latitude": "48.07091800",
    "longitude": "5.48541460",
    "wikiDataId": null
  },
  {
    "id": 155717,
    "name": "Dammartin-sur-Meuse",
    "state_id": 5020,
    "state_code": "52",
    "country_id": 75,
    "country_code": "FR",
    "latitude": "47.98014540",
    "longitude": "5.54011160",
    "wikiDataId": null
  },
  {
    "id": 155718,
    "name": "Dampierre",
    "state_id": 5020,
    "state_code": "52",
    "country_id": 75,
    "country_code": "FR",
    "latitude": "47.96097820",
    "longitude": "5.35983870",
    "wikiDataId": null
  },
  {
    "id": 155719,
    "name": "Damrémont",
    "state_id": 5020,
    "state_code": "52",
    "country_id": 75,
    "country_code": "FR",
    "latitude": "47.94753010",
    "longitude": "5.62063790",
    "wikiDataId": null
  },
  {
    "id": 155720,
    "name": "Dancevoir",
    "state_id": 5020,
    "state_code": "52",
    "country_id": 75,
    "country_code": "FR",
    "latitude": "47.92997570",
    "longitude": "4.83475000",
    "wikiDataId": null
  },
  {
    "id": 155721,
    "name": "Darmannes",
    "state_id": 5020,
    "state_code": "52",
    "country_id": 75,
    "country_code": "FR",
    "latitude": "48.16602830",
    "longitude": "5.18359650",
    "wikiDataId": null
  },
  {
    "id": 155722,
    "name": "Dinteville",
    "state_id": 5020,
    "state_code": "52",
    "country_id": 75,
    "country_code": "FR",
    "latitude": "48.03717850",
    "longitude": "4.75949350",
    "wikiDataId": null
  },
  {
    "id": 155723,
    "name": "Domblain",
    "state_id": 5020,
    "state_code": "52",
    "country_id": 75,
    "country_code": "FR",
    "latitude": "48.46556250",
    "longitude": "4.98032150",
    "wikiDataId": null
  },
  {
    "id": 155724,
    "name": "Dommarien",
    "state_id": 5020,
    "state_code": "52",
    "country_id": 75,
    "country_code": "FR",
    "latitude": "47.69226170",
    "longitude": "5.31668620",
    "wikiDataId": null
  },
  {
    "id": 155725,
    "name": "Dommartin-le-Franc",
    "state_id": 5020,
    "state_code": "52",
    "country_id": 75,
    "country_code": "FR",
    "latitude": "48.42542100",
    "longitude": "4.90614030",
    "wikiDataId": null
  },
  {
    "id": 155726,
    "name": "Dommartin-le-Saint-Père",
    "state_id": 5020,
    "state_code": "52",
    "country_id": 75,
    "country_code": "FR",
    "latitude": "48.40935390",
    "longitude": "4.87367550",
    "wikiDataId": null
  },
  {
    "id": 155727,
    "name": "Domremy-Landéville",
    "state_id": 5020,
    "state_code": "52",
    "country_id": 75,
    "country_code": "FR",
    "latitude": "48.35793190",
    "longitude": "5.21644750",
    "wikiDataId": null
  },
  {
    "id": 155728,
    "name": "Doncourt-sur-Meuse",
    "state_id": 5020,
    "state_code": "52",
    "country_id": 75,
    "country_code": "FR",
    "latitude": "48.14015870",
    "longitude": "5.56146110",
    "wikiDataId": null
  },
  {
    "id": 155729,
    "name": "Donjeux",
    "state_id": 5020,
    "state_code": "52",
    "country_id": 75,
    "country_code": "FR",
    "latitude": "48.35077150",
    "longitude": "5.12228600",
    "wikiDataId": null
  },
  {
    "id": 155731,
    "name": "Doulevant-le-Château",
    "state_id": 5020,
    "state_code": "52",
    "country_id": 75,
    "country_code": "FR",
    "latitude": "48.37258030",
    "longitude": "4.87465300",
    "wikiDataId": null
  },
  {
    "id": 155732,
    "name": "Doulevant-le-Petit",
    "state_id": 5020,
    "state_code": "52",
    "country_id": 75,
    "country_code": "FR",
    "latitude": "48.44960830",
    "longitude": "4.90880550",
    "wikiDataId": null
  },
  {
    "id": 155733,
    "name": "Échenay",
    "state_id": 5020,
    "state_code": "52",
    "country_id": 75,
    "country_code": "FR",
    "latitude": "48.46415180",
    "longitude": "5.29418650",
    "wikiDataId": null
  },
  {
    "id": 155734,
    "name": "Éclaron-Braucourt Sainte-Livière",
    "state_id": 5020,
    "state_code": "52",
    "country_id": 75,
    "country_code": "FR",
    "latitude": "48.56976940",
    "longitude": "4.75146290",
    "wikiDataId": null
  },
  {
    "id": 155735,
    "name": "Ecot-la-Combe",
    "state_id": 5020,
    "state_code": "52",
    "country_id": 75,
    "country_code": "FR",
    "latitude": "48.20667070",
    "longitude": "5.35545180",
    "wikiDataId": null
  },
  {
    "id": 155736,
    "name": "Effincourt",
    "state_id": 5020,
    "state_code": "52",
    "country_id": 75,
    "country_code": "FR",
    "latitude": "48.49253830",
    "longitude": "5.22333410",
    "wikiDataId": null
  },
  {
    "id": 155737,
    "name": "Enfonvelle",
    "state_id": 5020,
    "state_code": "52",
    "country_id": 75,
    "country_code": "FR",
    "latitude": "47.92284820",
    "longitude": "5.84364660",
    "wikiDataId": null
  },
  {
    "id": 155738,
    "name": "Épizon",
    "state_id": 5020,
    "state_code": "52",
    "country_id": 75,
    "country_code": "FR",
    "latitude": "48.36227480",
    "longitude": "5.28765960",
    "wikiDataId": null
  },
  {
    "id": 155739,
    "name": "Esnouveaux",
    "state_id": 5020,
    "state_code": "52",
    "country_id": 75,
    "country_code": "FR",
    "latitude": "48.13316490",
    "longitude": "5.30037330",
    "wikiDataId": null
  },
  {
    "id": 155740,
    "name": "Euffigneix",
    "state_id": 5020,
    "state_code": "52",
    "country_id": 75,
    "country_code": "FR",
    "latitude": "48.12704880",
    "longitude": "5.02268520",
    "wikiDataId": null
  },
  {
    "id": 155742,
    "name": "Farincourt",
    "state_id": 5020,
    "state_code": "52",
    "country_id": 75,
    "country_code": "FR",
    "latitude": "47.69747240",
    "longitude": "5.66052420",
    "wikiDataId": null
  },
  {
    "id": 155743,
    "name": "Faverolles",
    "state_id": 5020,
    "state_code": "52",
    "country_id": 75,
    "country_code": "FR",
    "latitude": "47.95586620",
    "longitude": "5.18139380",
    "wikiDataId": null
  },
  {
    "id": 155745,
    "name": "Fays",
    "state_id": 5020,
    "state_code": "52",
    "country_id": 75,
    "country_code": "FR",
    "latitude": "48.47715660",
    "longitude": "5.01702410",
    "wikiDataId": null
  },
  {
    "id": 155746,
    "name": "Ferrière-et-Lafolie",
    "state_id": 5020,
    "state_code": "52",
    "country_id": 75,
    "country_code": "FR",
    "latitude": "48.39795850",
    "longitude": "5.02872880",
    "wikiDataId": null
  },
  {
    "id": 155747,
    "name": "Flagey",
    "state_id": 5020,
    "state_code": "52",
    "country_id": 75,
    "country_code": "FR",
    "latitude": "47.78531030",
    "longitude": "5.22333310",
    "wikiDataId": null
  },
  {
    "id": 155748,
    "name": "Flammerécourt",
    "state_id": 5020,
    "state_code": "52",
    "country_id": 75,
    "country_code": "FR",
    "latitude": "48.36310990",
    "longitude": "4.99504130",
    "wikiDataId": null
  },
  {
    "id": 155749,
    "name": "Fontaines-sur-Marne",
    "state_id": 5020,
    "state_code": "52",
    "country_id": 75,
    "country_code": "FR",
    "latitude": "48.55606530",
    "longitude": "5.09800750",
    "wikiDataId": null
  },
  {
    "id": 155750,
    "name": "Forcey",
    "state_id": 5020,
    "state_code": "52",
    "country_id": 75,
    "country_code": "FR",
    "latitude": "48.15106090",
    "longitude": "5.34878360",
    "wikiDataId": null
  },
  {
    "id": 155751,
    "name": "Foulain",
    "state_id": 5020,
    "state_code": "52",
    "country_id": 75,
    "country_code": "FR",
    "latitude": "48.02341440",
    "longitude": "5.08059780",
    "wikiDataId": null
  },
  {
    "id": 155752,
    "name": "Frampas",
    "state_id": 5020,
    "state_code": "52",
    "country_id": 75,
    "country_code": "FR",
    "latitude": "48.52019730",
    "longitude": "4.79234870",
    "wikiDataId": null
  },
  {
    "id": 155753,
    "name": "Frécourt",
    "state_id": 5020,
    "state_code": "52",
    "country_id": 75,
    "country_code": "FR",
    "latitude": "47.94824400",
    "longitude": "5.43396940",
    "wikiDataId": null
  },
  {
    "id": 155754,
    "name": "Fresnes-sur-Apance",
    "state_id": 5020,
    "state_code": "52",
    "country_id": 75,
    "country_code": "FR",
    "latitude": "47.94256810",
    "longitude": "5.79363180",
    "wikiDataId": null
  },
  {
    "id": 155756,
    "name": "Fronville",
    "state_id": 5020,
    "state_code": "52",
    "country_id": 75,
    "country_code": "FR",
    "latitude": "48.40046960",
    "longitude": "5.08972870",
    "wikiDataId": null
  },
  {
    "id": 155757,
    "name": "Genevrières",
    "state_id": 5020,
    "state_code": "52",
    "country_id": 75,
    "country_code": "FR",
    "latitude": "47.72341160",
    "longitude": "5.56109540",
    "wikiDataId": null
  },
  {
    "id": 155758,
    "name": "Germaines",
    "state_id": 5020,
    "state_code": "52",
    "country_id": 75,
    "country_code": "FR",
    "latitude": "47.79906490",
    "longitude": "5.00901320",
    "wikiDataId": null
  },
  {
    "id": 155759,
    "name": "Germainvilliers",
    "state_id": 5020,
    "state_code": "52",
    "country_id": 75,
    "country_code": "FR",
    "latitude": "48.11538840",
    "longitude": "5.59607490",
    "wikiDataId": null
  },
  {
    "id": 155760,
    "name": "Germay",
    "state_id": 5020,
    "state_code": "52",
    "country_id": 75,
    "country_code": "FR",
    "latitude": "48.40740010",
    "longitude": "5.33129750",
    "wikiDataId": null
  },
  {
    "id": 155761,
    "name": "Germisay",
    "state_id": 5020,
    "state_code": "52",
    "country_id": 75,
    "country_code": "FR",
    "latitude": "48.39092360",
    "longitude": "5.32527420",
    "wikiDataId": null
  },
  {
    "id": 155762,
    "name": "Giey-sur-Aujon",
    "state_id": 5020,
    "state_code": "52",
    "country_id": 75,
    "country_code": "FR",
    "latitude": "47.90527530",
    "longitude": "5.01745440",
    "wikiDataId": null
  },
  {
    "id": 155763,
    "name": "Gillancourt",
    "state_id": 5020,
    "state_code": "52",
    "country_id": 75,
    "country_code": "FR",
    "latitude": "48.15335260",
    "longitude": "4.95441460",
    "wikiDataId": null
  },
  {
    "id": 155764,
    "name": "Gillaumé",
    "state_id": 5020,
    "state_code": "52",
    "country_id": 75,
    "country_code": "FR",
    "latitude": "48.46854310",
    "longitude": "5.32664310",
    "wikiDataId": null
  },
  {
    "id": 155765,
    "name": "Gilley",
    "state_id": 5020,
    "state_code": "52",
    "country_id": 75,
    "country_code": "FR",
    "latitude": "47.69170150",
    "longitude": "5.61223970",
    "wikiDataId": null
  },
  {
    "id": 155766,
    "name": "Graffigny-Chemin",
    "state_id": 5020,
    "state_code": "52",
    "country_id": 75,
    "country_code": "FR",
    "latitude": "48.16830590",
    "longitude": "5.60728900",
    "wikiDataId": null
  },
  {
    "id": 155767,
    "name": "Grandchamp",
    "state_id": 5020,
    "state_code": "52",
    "country_id": 75,
    "country_code": "FR",
    "latitude": "47.72231290",
    "longitude": "5.42566200",
    "wikiDataId": null
  },
  {
    "id": 155768,
    "name": "Grenant",
    "state_id": 5020,
    "state_code": "52",
    "country_id": 75,
    "country_code": "FR",
    "latitude": "47.70722560",
    "longitude": "5.45146330",
    "wikiDataId": null
  },
  {
    "id": 155769,
    "name": "Gudmont-Villiers",
    "state_id": 5020,
    "state_code": "52",
    "country_id": 75,
    "country_code": "FR",
    "latitude": "48.33621300",
    "longitude": "5.07926390",
    "wikiDataId": null
  },
  {
    "id": 155770,
    "name": "Guindrecourt-aux-Ormes",
    "state_id": 5020,
    "state_code": "52",
    "country_id": 75,
    "country_code": "FR",
    "latitude": "48.45297720",
    "longitude": "5.01940090",
    "wikiDataId": null
  },
  {
    "id": 155771,
    "name": "Guindrecourt-sur-Blaise",
    "state_id": 5020,
    "state_code": "52",
    "country_id": 75,
    "country_code": "FR",
    "latitude": "48.29844230",
    "longitude": "4.95858090",
    "wikiDataId": null
  },
  {
    "id": 155772,
    "name": "Guyonvelle",
    "state_id": 5020,
    "state_code": "52",
    "country_id": 75,
    "country_code": "FR",
    "latitude": "47.85944450",
    "longitude": "5.68424970",
    "wikiDataId": null
  },
  {
    "id": 155773,
    "name": "Hâcourt",
    "state_id": 5020,
    "state_code": "52",
    "country_id": 75,
    "country_code": "FR",
    "latitude": "48.16058690",
    "longitude": "5.55908140",
    "wikiDataId": null
  },
  {
    "id": 155774,
    "name": "Hallignicourt",
    "state_id": 5020,
    "state_code": "52",
    "country_id": 75,
    "country_code": "FR",
    "latitude": "48.64738110",
    "longitude": "4.83143460",
    "wikiDataId": null
  },
  {
    "id": 155775,
    "name": "Harréville-les-Chanteurs",
    "state_id": 5020,
    "state_code": "52",
    "country_id": 75,
    "country_code": "FR",
    "latitude": "48.26707700",
    "longitude": "5.57667880",
    "wikiDataId": null
  },
  {
    "id": 155776,
    "name": "Haute-Amance",
    "state_id": 5020,
    "state_code": "52",
    "country_id": 75,
    "country_code": "FR",
    "latitude": "47.84922990",
    "longitude": "5.44636080",
    "wikiDataId": null
  },
  {
    "id": 155777,
    "name": "Heuilley-le-Grand",
    "state_id": 5020,
    "state_code": "52",
    "country_id": 75,
    "country_code": "FR",
    "latitude": "47.75642110",
    "longitude": "5.35520380",
    "wikiDataId": null
  },
  {
    "id": 155778,
    "name": "Huilliécourt",
    "state_id": 5020,
    "state_code": "52",
    "country_id": 75,
    "country_code": "FR",
    "latitude": "48.15936370",
    "longitude": "5.49064550",
    "wikiDataId": null
  },
  {
    "id": 155779,
    "name": "Humbécourt",
    "state_id": 5020,
    "state_code": "52",
    "country_id": 75,
    "country_code": "FR",
    "latitude": "48.57997770",
    "longitude": "4.88058760",
    "wikiDataId": null
  },
  {
    "id": 155780,
    "name": "Humberville",
    "state_id": 5020,
    "state_code": "52",
    "country_id": 75,
    "country_code": "FR",
    "latitude": "48.29451110",
    "longitude": "5.35975040",
    "wikiDataId": null
  },
  {
    "id": 155781,
    "name": "Humes-Jorquenay",
    "state_id": 5020,
    "state_code": "52",
    "country_id": 75,
    "country_code": "FR",
    "latitude": "47.90270770",
    "longitude": "5.26091140",
    "wikiDataId": null
  },
  {
    "id": 155782,
    "name": "Illoud",
    "state_id": 5020,
    "state_code": "52",
    "country_id": 75,
    "country_code": "FR",
    "latitude": "48.21660190",
    "longitude": "5.50966650",
    "wikiDataId": null
  },
  {
    "id": 155783,
    "name": "Is-en-Bassigny",
    "state_id": 5020,
    "state_code": "52",
    "country_id": 75,
    "country_code": "FR",
    "latitude": "48.03599300",
    "longitude": "5.40391500",
    "wikiDataId": null
  },
  {
    "id": 155784,
    "name": "Isômes",
    "state_id": 5020,
    "state_code": "52",
    "country_id": 75,
    "country_code": "FR",
    "latitude": "47.63553020",
    "longitude": "5.28259770",
    "wikiDataId": null
  },
  {
    "id": 155786,
    "name": "Jonchery",
    "state_id": 5020,
    "state_code": "52",
    "country_id": 75,
    "country_code": "FR",
    "latitude": "48.14954500",
    "longitude": "5.03102390",
    "wikiDataId": null
  },
  {
    "id": 155787,
    "name": "Juzennecourt",
    "state_id": 5020,
    "state_code": "52",
    "country_id": 75,
    "country_code": "FR",
    "latitude": "48.20193170",
    "longitude": "4.93709400",
    "wikiDataId": null
  },
  {
    "id": 155788,
    "name": "La Genevroye",
    "state_id": 5020,
    "state_code": "52",
    "country_id": 75,
    "country_code": "FR",
    "latitude": "48.27634460",
    "longitude": "5.04524190",
    "wikiDataId": null
  },
  {
    "id": 155807,
    "name": "La Porte du Der",
    "state_id": 5020,
    "state_code": "52",
    "country_id": 75,
    "country_code": "FR",
    "latitude": "48.47727400",
    "longitude": "4.72506070",
    "wikiDataId": null
  },
  {
    "id": 155789,
    "name": "Lachapelle-en-Blaisy",
    "state_id": 5020,
    "state_code": "52",
    "country_id": 75,
    "country_code": "FR",
    "latitude": "48.20699960",
    "longitude": "4.92140070",
    "wikiDataId": null
  },
  {
    "id": 155790,
    "name": "Lafauche",
    "state_id": 5020,
    "state_code": "52",
    "country_id": 75,
    "country_code": "FR",
    "latitude": "48.30393090",
    "longitude": "5.47017390",
    "wikiDataId": null
  },
  {
    "id": 155791,
    "name": "Laferté-sur-Amance",
    "state_id": 5020,
    "state_code": "52",
    "country_id": 75,
    "country_code": "FR",
    "latitude": "47.83411950",
    "longitude": "5.67509670",
    "wikiDataId": null
  },
  {
    "id": 155792,
    "name": "Laferté-sur-Aube",
    "state_id": 5020,
    "state_code": "52",
    "country_id": 75,
    "country_code": "FR",
    "latitude": "48.09601060",
    "longitude": "4.69694760",
    "wikiDataId": null
  },
  {
    "id": 155793,
    "name": "Lamancine",
    "state_id": 5020,
    "state_code": "52",
    "country_id": 75,
    "country_code": "FR",
    "latitude": "48.21118010",
    "longitude": "5.09502950",
    "wikiDataId": null
  },
  {
    "id": 155794,
    "name": "Laneuvelle",
    "state_id": 5020,
    "state_code": "52",
    "country_id": 75,
    "country_code": "FR",
    "latitude": "47.93542250",
    "longitude": "5.62778440",
    "wikiDataId": null
  },
  {
    "id": 155795,
    "name": "Laneuville-à-Rémy",
    "state_id": 5020,
    "state_code": "52",
    "country_id": 75,
    "country_code": "FR",
    "latitude": "48.47308750",
    "longitude": "4.86052000",
    "wikiDataId": null
  },
  {
    "id": 155796,
    "name": "Laneuville-au-Pont",
    "state_id": 5020,
    "state_code": "52",
    "country_id": 75,
    "country_code": "FR",
    "latitude": "48.62694140",
    "longitude": "4.84664660",
    "wikiDataId": null
  },
  {
    "id": 155798,
    "name": "Lanques-sur-Rognon",
    "state_id": 5020,
    "state_code": "52",
    "country_id": 75,
    "country_code": "FR",
    "latitude": "48.08303240",
    "longitude": "5.32255170",
    "wikiDataId": null
  },
  {
    "id": 155799,
    "name": "Lanty-sur-Aube",
    "state_id": 5020,
    "state_code": "52",
    "country_id": 75,
    "country_code": "FR",
    "latitude": "48.02518980",
    "longitude": "4.70654310",
    "wikiDataId": null
  },
  {
    "id": 155800,
    "name": "Larivière-Arnoncourt",
    "state_id": 5020,
    "state_code": "52",
    "country_id": 75,
    "country_code": "FR",
    "latitude": "48.02104840",
    "longitude": "5.68728930",
    "wikiDataId": null
  },
  {
    "id": 155801,
    "name": "Latrecey-Ormoy-sur-Aube",
    "state_id": 5020,
    "state_code": "52",
    "country_id": 75,
    "country_code": "FR",
    "latitude": "47.99042260",
    "longitude": "4.76772670",
    "wikiDataId": null
  },
  {
    "id": 155802,
    "name": "Lavernoy",
    "state_id": 5020,
    "state_code": "52",
    "country_id": 75,
    "country_code": "FR",
    "latitude": "47.91545060",
    "longitude": "5.55590600",
    "wikiDataId": null
  },
  {
    "id": 155803,
    "name": "Laville-aux-Bois",
    "state_id": 5020,
    "state_code": "52",
    "country_id": 75,
    "country_code": "FR",
    "latitude": "48.09019120",
    "longitude": "5.19527530",
    "wikiDataId": null
  },
  {
    "id": 155804,
    "name": "Lavilleneuve",
    "state_id": 5020,
    "state_code": "52",
    "country_id": 75,
    "country_code": "FR",
    "latitude": "48.03787050",
    "longitude": "5.49782730",
    "wikiDataId": null
  },
  {
    "id": 155805,
    "name": "Lavilleneuve-au-Roi",
    "state_id": 5020,
    "state_code": "52",
    "country_id": 75,
    "country_code": "FR",
    "latitude": "48.16186770",
    "longitude": "4.89325960",
    "wikiDataId": null
  },
  {
    "id": 155806,
    "name": "Le Châtelet-sur-Meuse",
    "state_id": 5020,
    "state_code": "52",
    "country_id": 75,
    "country_code": "FR",
    "latitude": "47.97140070",
    "longitude": "5.60843310",
    "wikiDataId": null
  },
  {
    "id": 155808,
    "name": "Le Montsaugeonnais",
    "state_id": 5020,
    "state_code": "52",
    "country_id": 75,
    "country_code": "FR",
    "latitude": "47.66421090",
    "longitude": "5.24629220",
    "wikiDataId": null
  },
  {
    "id": 155809,
    "name": "Le Pailly",
    "state_id": 5020,
    "state_code": "52",
    "country_id": 75,
    "country_code": "FR",
    "latitude": "47.78735040",
    "longitude": "5.39442630",
    "wikiDataId": null
  },
  {
    "id": 155810,
    "name": "Le Val-d'Esnoms",
    "state_id": 5020,
    "state_code": "52",
    "country_id": 75,
    "country_code": "FR",
    "latitude": "47.68612880",
    "longitude": "5.17887510",
    "wikiDataId": null
  },
  {
    "id": 155811,
    "name": "Lecey",
    "state_id": 5020,
    "state_code": "52",
    "country_id": 75,
    "country_code": "FR",
    "latitude": "47.86069910",
    "longitude": "5.39436730",
    "wikiDataId": null
  },
  {
    "id": 155812,
    "name": "Leffonds",
    "state_id": 5020,
    "state_code": "52",
    "country_id": 75,
    "country_code": "FR",
    "latitude": "47.97910970",
    "longitude": "5.10514730",
    "wikiDataId": null
  },
  {
    "id": 155813,
    "name": "Les Loges",
    "state_id": 5020,
    "state_code": "52",
    "country_id": 75,
    "country_code": "FR",
    "latitude": "47.77091890",
    "longitude": "5.43999360",
    "wikiDataId": null
  },
  {
    "id": 155814,
    "name": "Leschères-sur-le-Blaiseron",
    "state_id": 5020,
    "state_code": "52",
    "country_id": 75,
    "country_code": "FR",
    "latitude": "48.33227190",
    "longitude": "4.98729420",
    "wikiDataId": null
  },
  {
    "id": 155815,
    "name": "Leuchey",
    "state_id": 5020,
    "state_code": "52",
    "country_id": 75,
    "country_code": "FR",
    "latitude": "47.72882880",
    "longitude": "5.19522020",
    "wikiDataId": null
  },
  {
    "id": 155816,
    "name": "Leurville",
    "state_id": 5020,
    "state_code": "52",
    "country_id": 75,
    "country_code": "FR",
    "latitude": "48.33739830",
    "longitude": "5.34456230",
    "wikiDataId": null
  },
  {
    "id": 155817,
    "name": "Levécourt",
    "state_id": 5020,
    "state_code": "52",
    "country_id": 75,
    "country_code": "FR",
    "latitude": "48.13468800",
    "longitude": "5.53822550",
    "wikiDataId": null
  },
  {
    "id": 155818,
    "name": "Lezéville",
    "state_id": 5020,
    "state_code": "52",
    "country_id": 75,
    "country_code": "FR",
    "latitude": "48.42612920",
    "longitude": "5.31536230",
    "wikiDataId": null
  },
  {
    "id": 155819,
    "name": "Liffol-le-Petit",
    "state_id": 5020,
    "state_code": "52",
    "country_id": 75,
    "country_code": "FR",
    "latitude": "48.28954560",
    "longitude": "5.50319300",
    "wikiDataId": null
  },
  {
    "id": 155820,
    "name": "Longchamp",
    "state_id": 5020,
    "state_code": "52",
    "country_id": 75,
    "country_code": "FR",
    "latitude": "48.12751100",
    "longitude": "5.41954620",
    "wikiDataId": null
  },
  {
    "id": 155821,
    "name": "Longeau-Percey",
    "state_id": 5020,
    "state_code": "52",
    "country_id": 75,
    "country_code": "FR",
    "latitude": "47.76162950",
    "longitude": "5.30188170",
    "wikiDataId": null
  },
  {
    "id": 155822,
    "name": "Louvemont",
    "state_id": 5020,
    "state_code": "52",
    "country_id": 75,
    "country_code": "FR",
    "latitude": "48.54505530",
    "longitude": "4.85255050",
    "wikiDataId": null
  },
  {
    "id": 155823,
    "name": "Louvières",
    "state_id": 5020,
    "state_code": "52",
    "country_id": 75,
    "country_code": "FR",
    "latitude": "48.02738590",
    "longitude": "5.26121600",
    "wikiDataId": null
  },
  {
    "id": 155824,
    "name": "Luzy-sur-Marne",
    "state_id": 5020,
    "state_code": "52",
    "country_id": 75,
    "country_code": "FR",
    "latitude": "48.05608050",
    "longitude": "5.15926420",
    "wikiDataId": null
  },
  {
    "id": 155825,
    "name": "Maâtz",
    "state_id": 5020,
    "state_code": "52",
    "country_id": 75,
    "country_code": "FR",
    "latitude": "47.71307280",
    "longitude": "5.39316550",
    "wikiDataId": null
  },
  {
    "id": 155826,
    "name": "Magneux",
    "state_id": 5020,
    "state_code": "52",
    "country_id": 75,
    "country_code": "FR",
    "latitude": "48.50905220",
    "longitude": "4.98600760",
    "wikiDataId": null
  },
  {
    "id": 155827,
    "name": "Maisoncelles",
    "state_id": 5020,
    "state_code": "52",
    "country_id": 75,
    "country_code": "FR",
    "latitude": "48.13434230",
    "longitude": "5.51604440",
    "wikiDataId": null
  },
  {
    "id": 155828,
    "name": "Maizières",
    "state_id": 5020,
    "state_code": "52",
    "country_id": 75,
    "country_code": "FR",
    "latitude": "48.49179160",
    "longitude": "5.04303620",
    "wikiDataId": null
  },
  {
    "id": 155829,
    "name": "Maizières-sur-Amance",
    "state_id": 5020,
    "state_code": "52",
    "country_id": 75,
    "country_code": "FR",
    "latitude": "47.83451390",
    "longitude": "5.58840420",
    "wikiDataId": null
  },
  {
    "id": 155830,
    "name": "Malaincourt-sur-Meuse",
    "state_id": 5020,
    "state_code": "52",
    "country_id": 75,
    "country_code": "FR",
    "latitude": "48.15524750",
    "longitude": "5.58557770",
    "wikiDataId": null
  },
  {
    "id": 155831,
    "name": "Mandres-la-Côte",
    "state_id": 5020,
    "state_code": "52",
    "country_id": 75,
    "country_code": "FR",
    "latitude": "48.06916010",
    "longitude": "5.31170080",
    "wikiDataId": null
  },
  {
    "id": 155832,
    "name": "Manois",
    "state_id": 5020,
    "state_code": "52",
    "country_id": 75,
    "country_code": "FR",
    "latitude": "48.26171510",
    "longitude": "5.32880090",
    "wikiDataId": null
  },
  {
    "id": 155833,
    "name": "Marac",
    "state_id": 5020,
    "state_code": "52",
    "country_id": 75,
    "country_code": "FR",
    "latitude": "47.93285650",
    "longitude": "5.12392710",
    "wikiDataId": null
  },
  {
    "id": 155834,
    "name": "Maranville",
    "state_id": 5020,
    "state_code": "52",
    "country_id": 75,
    "country_code": "FR",
    "latitude": "48.13911090",
    "longitude": "4.82156550",
    "wikiDataId": null
  },
  {
    "id": 155835,
    "name": "Marbéville",
    "state_id": 5020,
    "state_code": "52",
    "country_id": 75,
    "country_code": "FR",
    "latitude": "48.26382630",
    "longitude": "4.98364480",
    "wikiDataId": null
  },
  {
    "id": 155836,
    "name": "Marcilly-en-Bassigny",
    "state_id": 5020,
    "state_code": "52",
    "country_id": 75,
    "country_code": "FR",
    "latitude": "47.88770960",
    "longitude": "5.50749090",
    "wikiDataId": null
  },
  {
    "id": 155837,
    "name": "Mardor",
    "state_id": 5020,
    "state_code": "52",
    "country_id": 75,
    "country_code": "FR",
    "latitude": "47.88452460",
    "longitude": "5.18860900",
    "wikiDataId": null
  },
  {
    "id": 155838,
    "name": "Mareilles",
    "state_id": 5020,
    "state_code": "52",
    "country_id": 75,
    "country_code": "FR",
    "latitude": "48.16622450",
    "longitude": "5.21569020",
    "wikiDataId": null
  },
  {
    "id": 155839,
    "name": "Marnay-sur-Marne",
    "state_id": 5020,
    "state_code": "52",
    "country_id": 75,
    "country_code": "FR",
    "latitude": "48.01085340",
    "longitude": "5.19018170",
    "wikiDataId": null
  },
  {
    "id": 155840,
    "name": "Mathons",
    "state_id": 5020,
    "state_code": "52",
    "country_id": 75,
    "country_code": "FR",
    "latitude": "48.41611710",
    "longitude": "5.00074970",
    "wikiDataId": null
  },
  {
    "id": 155842,
    "name": "Mennouveaux",
    "state_id": 5020,
    "state_code": "52",
    "country_id": 75,
    "country_code": "FR",
    "latitude": "48.10067320",
    "longitude": "5.39342730",
    "wikiDataId": null
  },
  {
    "id": 155843,
    "name": "Merrey",
    "state_id": 5020,
    "state_code": "52",
    "country_id": 75,
    "country_code": "FR",
    "latitude": "48.05268360",
    "longitude": "5.57406620",
    "wikiDataId": null
  },
  {
    "id": 155844,
    "name": "Mertrud",
    "state_id": 5020,
    "state_code": "52",
    "country_id": 75,
    "country_code": "FR",
    "latitude": "48.42574330",
    "longitude": "4.84438430",
    "wikiDataId": null
  },
  {
    "id": 155845,
    "name": "Meures",
    "state_id": 5020,
    "state_code": "52",
    "country_id": 75,
    "country_code": "FR",
    "latitude": "48.19294160",
    "longitude": "5.03876540",
    "wikiDataId": null
  },
  {
    "id": 155846,
    "name": "Millières",
    "state_id": 5020,
    "state_code": "52",
    "country_id": 75,
    "country_code": "FR",
    "latitude": "48.14111140",
    "longitude": "5.38895610",
    "wikiDataId": null
  },
  {
    "id": 155847,
    "name": "Mirbel",
    "state_id": 5020,
    "state_code": "52",
    "country_id": 75,
    "country_code": "FR",
    "latitude": "48.28465710",
    "longitude": "4.99748980",
    "wikiDataId": null
  },
  {
    "id": 155848,
    "name": "Moëslains",
    "state_id": 5020,
    "state_code": "52",
    "country_id": 75,
    "country_code": "FR",
    "latitude": "48.61732390",
    "longitude": "4.86389160",
    "wikiDataId": null
  },
  {
    "id": 155849,
    "name": "Montcharvot",
    "state_id": 5020,
    "state_code": "52",
    "country_id": 75,
    "country_code": "FR",
    "latitude": "47.89949990",
    "longitude": "5.70872600",
    "wikiDataId": null
  },
  {
    "id": 155850,
    "name": "Montheries",
    "state_id": 5020,
    "state_code": "52",
    "country_id": 75,
    "country_code": "FR",
    "latitude": "48.17784520",
    "longitude": "4.86100620",
    "wikiDataId": null
  },
  {
    "id": 155851,
    "name": "Montot-sur-Rognon",
    "state_id": 5020,
    "state_code": "52",
    "country_id": 75,
    "country_code": "FR",
    "latitude": "48.28254330",
    "longitude": "5.27595230",
    "wikiDataId": null
  },
  {
    "id": 155852,
    "name": "Montreuil-sur-Blaise",
    "state_id": 5020,
    "state_code": "52",
    "country_id": 75,
    "country_code": "FR",
    "latitude": "48.47619540",
    "longitude": "4.94593680",
    "wikiDataId": null
  },
  {
    "id": 155853,
    "name": "Montreuil-sur-Thonnance",
    "state_id": 5020,
    "state_code": "52",
    "country_id": 75,
    "country_code": "FR",
    "latitude": "48.46004720",
    "longitude": "5.21313130",
    "wikiDataId": null
  },
  {
    "id": 155854,
    "name": "Morancourt",
    "state_id": 5020,
    "state_code": "52",
    "country_id": 75,
    "country_code": "FR",
    "latitude": "48.42661810",
    "longitude": "4.96726870",
    "wikiDataId": null
  },
  {
    "id": 155855,
    "name": "Morionvilliers",
    "state_id": 5020,
    "state_code": "52",
    "country_id": 75,
    "country_code": "FR",
    "latitude": "48.37619480",
    "longitude": "5.36990080",
    "wikiDataId": null
  },
  {
    "id": 155856,
    "name": "Mouilleron",
    "state_id": 5020,
    "state_code": "52",
    "country_id": 75,
    "country_code": "FR",
    "latitude": "47.69491120",
    "longitude": "5.09199610",
    "wikiDataId": null
  },
  {
    "id": 155857,
    "name": "Mussey-sur-Marne",
    "state_id": 5020,
    "state_code": "52",
    "country_id": 75,
    "country_code": "FR",
    "latitude": "48.37996200",
    "longitude": "5.08777310",
    "wikiDataId": null
  },
  {
    "id": 155858,
    "name": "Narcy",
    "state_id": 5020,
    "state_code": "52",
    "country_id": 75,
    "country_code": "FR",
    "latitude": "48.58022390",
    "longitude": "5.06088760",
    "wikiDataId": null
  },
  {
    "id": 155859,
    "name": "Neuilly-l'Évêque",
    "state_id": 5020,
    "state_code": "52",
    "country_id": 75,
    "country_code": "FR",
    "latitude": "47.91818080",
    "longitude": "5.39804820",
    "wikiDataId": null
  },
  {
    "id": 155860,
    "name": "Neuilly-sur-Suize",
    "state_id": 5020,
    "state_code": "52",
    "country_id": 75,
    "country_code": "FR",
    "latitude": "48.04022460",
    "longitude": "5.08709010",
    "wikiDataId": null
  },
  {
    "id": 155861,
    "name": "Neuvelle-lès-Voisey",
    "state_id": 5020,
    "state_code": "52",
    "country_id": 75,
    "country_code": "FR",
    "latitude": "47.86595320",
    "longitude": "5.76340180",
    "wikiDataId": null
  },
  {
    "id": 155862,
    "name": "Ninville",
    "state_id": 5020,
    "state_code": "52",
    "country_id": 75,
    "country_code": "FR",
    "latitude": "48.07034300",
    "longitude": "5.41897960",
    "wikiDataId": null
  },
  {
    "id": 155863,
    "name": "Nogent",
    "state_id": 5020,
    "state_code": "52",
    "country_id": 75,
    "country_code": "FR",
    "latitude": "48.04190920",
    "longitude": "5.28097660",
    "wikiDataId": null
  },
  {
    "id": 155864,
    "name": "Noidant-Chatenoy",
    "state_id": 5020,
    "state_code": "52",
    "country_id": 75,
    "country_code": "FR",
    "latitude": "47.79096260",
    "longitude": "5.35658960",
    "wikiDataId": null
  },
  {
    "id": 155865,
    "name": "Noidant-le-Rocheux",
    "state_id": 5020,
    "state_code": "52",
    "country_id": 75,
    "country_code": "FR",
    "latitude": "47.82214980",
    "longitude": "5.21828750",
    "wikiDataId": null
  },
  {
    "id": 155866,
    "name": "Nomécourt",
    "state_id": 5020,
    "state_code": "52",
    "country_id": 75,
    "country_code": "FR",
    "latitude": "48.43514120",
    "longitude": "5.05450660",
    "wikiDataId": null
  },
  {
    "id": 155867,
    "name": "Noncourt-sur-le-Rongeant",
    "state_id": 5020,
    "state_code": "52",
    "country_id": 75,
    "country_code": "FR",
    "latitude": "48.42041590",
    "longitude": "5.21100170",
    "wikiDataId": null
  },
  {
    "id": 155868,
    "name": "Noyers",
    "state_id": 5020,
    "state_code": "52",
    "country_id": 75,
    "country_code": "FR",
    "latitude": "48.06256930",
    "longitude": "5.43980670",
    "wikiDataId": null
  },
  {
    "id": 155869,
    "name": "Nully",
    "state_id": 5020,
    "state_code": "52",
    "country_id": 75,
    "country_code": "FR",
    "latitude": "48.36994340",
    "longitude": "4.77283570",
    "wikiDataId": null
  },
  {
    "id": 155870,
    "name": "Occey",
    "state_id": 5020,
    "state_code": "52",
    "country_id": 75,
    "country_code": "FR",
    "latitude": "47.60228840",
    "longitude": "5.23091360",
    "wikiDataId": null
  },
  {
    "id": 155871,
    "name": "Orbigny-au-Mont",
    "state_id": 5020,
    "state_code": "52",
    "country_id": 75,
    "country_code": "FR",
    "latitude": "47.88624820",
    "longitude": "5.41828830",
    "wikiDataId": null
  },
  {
    "id": 155872,
    "name": "Orbigny-au-Val",
    "state_id": 5020,
    "state_code": "52",
    "country_id": 75,
    "country_code": "FR",
    "latitude": "47.88273660",
    "longitude": "5.39997210",
    "wikiDataId": null
  },
  {
    "id": 155873,
    "name": "Orcevaux",
    "state_id": 5020,
    "state_code": "52",
    "country_id": 75,
    "country_code": "FR",
    "latitude": "47.77568660",
    "longitude": "5.24770100",
    "wikiDataId": null
  },
  {
    "id": 155874,
    "name": "Orges",
    "state_id": 5020,
    "state_code": "52",
    "country_id": 75,
    "country_code": "FR",
    "latitude": "48.08135560",
    "longitude": "4.90011710",
    "wikiDataId": null
  },
  {
    "id": 155875,
    "name": "Ormancey",
    "state_id": 5020,
    "state_code": "52",
    "country_id": 75,
    "country_code": "FR",
    "latitude": "47.90808570",
    "longitude": "5.14187900",
    "wikiDataId": null
  },
  {
    "id": 155876,
    "name": "Ormoy-lès-Sexfontaines",
    "state_id": 5020,
    "state_code": "52",
    "country_id": 75,
    "country_code": "FR",
    "latitude": "48.22566050",
    "longitude": "5.03544590",
    "wikiDataId": null
  },
  {
    "id": 155877,
    "name": "Orquevaux",
    "state_id": 5020,
    "state_code": "52",
    "country_id": 75,
    "country_code": "FR",
    "latitude": "48.30883890",
    "longitude": "5.37439010",
    "wikiDataId": null
  },
  {
    "id": 155878,
    "name": "Osne-le-Val",
    "state_id": 5020,
    "state_code": "52",
    "country_id": 75,
    "country_code": "FR",
    "latitude": "48.49932980",
    "longitude": "5.16007990",
    "wikiDataId": null
  },
  {
    "id": 155879,
    "name": "Oudincourt",
    "state_id": 5020,
    "state_code": "52",
    "country_id": 75,
    "country_code": "FR",
    "latitude": "48.22629300",
    "longitude": "5.06522200",
    "wikiDataId": null
  },
  {
    "id": 155880,
    "name": "Outremécourt",
    "state_id": 5020,
    "state_code": "52",
    "country_id": 75,
    "country_code": "FR",
    "latitude": "48.21716750",
    "longitude": "5.67382010",
    "wikiDataId": null
  },
  {
    "id": 155881,
    "name": "Ozières",
    "state_id": 5020,
    "state_code": "52",
    "country_id": 75,
    "country_code": "FR",
    "latitude": "48.17100680",
    "longitude": "5.42996970",
    "wikiDataId": null
  },
  {
    "id": 155882,
    "name": "Palaiseul",
    "state_id": 5020,
    "state_code": "52",
    "country_id": 75,
    "country_code": "FR",
    "latitude": "47.76623900",
    "longitude": "5.39620530",
    "wikiDataId": null
  },
  {
    "id": 155883,
    "name": "Pansey",
    "state_id": 5020,
    "state_code": "52",
    "country_id": 75,
    "country_code": "FR",
    "latitude": "48.47999850",
    "longitude": "5.25871390",
    "wikiDataId": null
  },
  {
    "id": 155884,
    "name": "Parnoy-en-Bassigny",
    "state_id": 5020,
    "state_code": "52",
    "country_id": 75,
    "country_code": "FR",
    "latitude": "48.02629320",
    "longitude": "5.61953680",
    "wikiDataId": null
  },
  {
    "id": 155885,
    "name": "Paroy-sur-Saulx",
    "state_id": 5020,
    "state_code": "52",
    "country_id": 75,
    "country_code": "FR",
    "latitude": "48.51735880",
    "longitude": "5.21423680",
    "wikiDataId": null
  },
  {
    "id": 155886,
    "name": "Peigney",
    "state_id": 5020,
    "state_code": "52",
    "country_id": 75,
    "country_code": "FR",
    "latitude": "47.87845800",
    "longitude": "5.33174740",
    "wikiDataId": null
  },
  {
    "id": 155887,
    "name": "Perrancey-les-Vieux-Moulins",
    "state_id": 5020,
    "state_code": "52",
    "country_id": 75,
    "country_code": "FR",
    "latitude": "47.85690190",
    "longitude": "5.23224090",
    "wikiDataId": null
  },
  {
    "id": 155888,
    "name": "Perrogney-les-Fontaines",
    "state_id": 5020,
    "state_code": "52",
    "country_id": 75,
    "country_code": "FR",
    "latitude": "47.80298680",
    "longitude": "5.17994490",
    "wikiDataId": null
  },
  {
    "id": 155889,
    "name": "Perrusse",
    "state_id": 5020,
    "state_code": "52",
    "country_id": 75,
    "country_code": "FR",
    "latitude": "48.09542620",
    "longitude": "5.45322600",
    "wikiDataId": null
  },
  {
    "id": 155890,
    "name": "Perthes",
    "state_id": 5020,
    "state_code": "52",
    "country_id": 75,
    "country_code": "FR",
    "latitude": "48.66496600",
    "longitude": "4.77372900",
    "wikiDataId": null
  },
  {
    "id": 155891,
    "name": "Pierremont-sur-Amance",
    "state_id": 5020,
    "state_code": "52",
    "country_id": 75,
    "country_code": "FR",
    "latitude": "47.80493160",
    "longitude": "5.61770510",
    "wikiDataId": null
  },
  {
    "id": 155892,
    "name": "Pisseloup",
    "state_id": 5020,
    "state_code": "52",
    "country_id": 75,
    "country_code": "FR",
    "latitude": "47.83368620",
    "longitude": "5.71974430",
    "wikiDataId": null
  },
  {
    "id": 155893,
    "name": "Planrupt",
    "state_id": 5020,
    "state_code": "52",
    "country_id": 75,
    "country_code": "FR",
    "latitude": "48.51142910",
    "longitude": "4.76825930",
    "wikiDataId": null
  },
  {
    "id": 155894,
    "name": "Plesnoy",
    "state_id": 5020,
    "state_code": "52",
    "country_id": 75,
    "country_code": "FR",
    "latitude": "47.89149120",
    "longitude": "5.47252670",
    "wikiDataId": null
  },
  {
    "id": 155895,
    "name": "Poinsenot",
    "state_id": 5020,
    "state_code": "52",
    "country_id": 75,
    "country_code": "FR",
    "latitude": "47.71563430",
    "longitude": "4.98878050",
    "wikiDataId": null
  },
  {
    "id": 155896,
    "name": "Poinson-lès-Fayl",
    "state_id": 5020,
    "state_code": "52",
    "country_id": 75,
    "country_code": "FR",
    "latitude": "47.74786340",
    "longitude": "5.58397570",
    "wikiDataId": null
  },
  {
    "id": 155897,
    "name": "Poinson-lès-Grancey",
    "state_id": 5020,
    "state_code": "52",
    "country_id": 75,
    "country_code": "FR",
    "latitude": "47.71029800",
    "longitude": "4.93758360",
    "wikiDataId": null
  },
  {
    "id": 155898,
    "name": "Poinson-lès-Nogent",
    "state_id": 5020,
    "state_code": "52",
    "country_id": 75,
    "country_code": "FR",
    "latitude": "47.99058610",
    "longitude": "5.36029190",
    "wikiDataId": null
  },
  {
    "id": 155899,
    "name": "Poiseul",
    "state_id": 5020,
    "state_code": "52",
    "country_id": 75,
    "country_code": "FR",
    "latitude": "47.92266710",
    "longitude": "5.46997760",
    "wikiDataId": null
  },
  {
    "id": 155900,
    "name": "Poissons",
    "state_id": 5020,
    "state_code": "52",
    "country_id": 75,
    "country_code": "FR",
    "latitude": "48.42206940",
    "longitude": "5.17333320",
    "wikiDataId": null
  },
  {
    "id": 155901,
    "name": "Pont-la-Ville",
    "state_id": 5020,
    "state_code": "52",
    "country_id": 75,
    "country_code": "FR",
    "latitude": "48.08058580",
    "longitude": "4.82778500",
    "wikiDataId": null
  },
  {
    "id": 155902,
    "name": "Poulangy",
    "state_id": 5020,
    "state_code": "52",
    "country_id": 75,
    "country_code": "FR",
    "latitude": "48.04549150",
    "longitude": "5.21471120",
    "wikiDataId": null
  },
  {
    "id": 155903,
    "name": "Praslay",
    "state_id": 5020,
    "state_code": "52",
    "country_id": 75,
    "country_code": "FR",
    "latitude": "47.73812500",
    "longitude": "5.08879800",
    "wikiDataId": null
  },
  {
    "id": 155904,
    "name": "Pressigny",
    "state_id": 5020,
    "state_code": "52",
    "country_id": 75,
    "country_code": "FR",
    "latitude": "47.74651310",
    "longitude": "5.58646370",
    "wikiDataId": null
  },
  {
    "id": 155905,
    "name": "Prez-sous-Lafauche",
    "state_id": 5020,
    "state_code": "52",
    "country_id": 75,
    "country_code": "FR",
    "latitude": "48.27823300",
    "longitude": "5.34331400",
    "wikiDataId": null
  },
  {
    "id": 155906,
    "name": "Rachecourt-sur-Marne",
    "state_id": 5020,
    "state_code": "52",
    "country_id": 75,
    "country_code": "FR",
    "latitude": "48.52103480",
    "longitude": "5.05339480",
    "wikiDataId": null
  },
  {
    "id": 155907,
    "name": "Rachecourt-Suzémont",
    "state_id": 5020,
    "state_code": "52",
    "country_id": 75,
    "country_code": "FR",
    "latitude": "48.45595560",
    "longitude": "4.88990020",
    "wikiDataId": null
  },
  {
    "id": 155908,
    "name": "Rançonnières",
    "state_id": 5020,
    "state_code": "52",
    "country_id": 75,
    "country_code": "FR",
    "latitude": "47.94135110",
    "longitude": "5.47810020",
    "wikiDataId": null
  },
  {
    "id": 155909,
    "name": "Rangecourt",
    "state_id": 5020,
    "state_code": "52",
    "country_id": 75,
    "country_code": "FR",
    "latitude": "48.04264520",
    "longitude": "5.40383200",
    "wikiDataId": null
  },
  {
    "id": 155910,
    "name": "Rennepont",
    "state_id": 5020,
    "state_code": "52",
    "country_id": 75,
    "country_code": "FR",
    "latitude": "48.16526320",
    "longitude": "4.78042830",
    "wikiDataId": null
  },
  {
    "id": 155911,
    "name": "Reynel",
    "state_id": 5020,
    "state_code": "52",
    "country_id": 75,
    "country_code": "FR",
    "latitude": "48.29584990",
    "longitude": "5.25914400",
    "wikiDataId": null
  },
  {
    "id": 155912,
    "name": "Riaucourt",
    "state_id": 5020,
    "state_code": "52",
    "country_id": 75,
    "country_code": "FR",
    "latitude": "48.17349130",
    "longitude": "5.08483730",
    "wikiDataId": null
  },
  {
    "id": 155913,
    "name": "Richebourg",
    "state_id": 5020,
    "state_code": "52",
    "country_id": 75,
    "country_code": "FR",
    "latitude": "48.01291970",
    "longitude": "4.97413170",
    "wikiDataId": null
  },
  {
    "id": 155914,
    "name": "Rimaucourt",
    "state_id": 5020,
    "state_code": "52",
    "country_id": 75,
    "country_code": "FR",
    "latitude": "48.24571280",
    "longitude": "5.26579570",
    "wikiDataId": null
  },
  {
    "id": 155915,
    "name": "Rives-Dervoises",
    "state_id": 5020,
    "state_code": "52",
    "country_id": 75,
    "country_code": "FR",
    "latitude": "48.47008130",
    "longitude": "4.54173260",
    "wikiDataId": null
  },
  {
    "id": 155916,
    "name": "Rivière-les-Fosses",
    "state_id": 5020,
    "state_code": "52",
    "country_id": 75,
    "country_code": "FR",
    "latitude": "47.64528080",
    "longitude": "5.14208490",
    "wikiDataId": null
  },
  {
    "id": 155917,
    "name": "Rivières-le-Bois",
    "state_id": 5020,
    "state_code": "52",
    "country_id": 75,
    "country_code": "FR",
    "latitude": "47.74121690",
    "longitude": "5.37227870",
    "wikiDataId": null
  },
  {
    "id": 155918,
    "name": "Rizaucourt-Buchey",
    "state_id": 5020,
    "state_code": "52",
    "country_id": 75,
    "country_code": "FR",
    "latitude": "48.27264630",
    "longitude": "4.82755890",
    "wikiDataId": null
  },
  {
    "id": 155919,
    "name": "Rochefort-sur-la-Côte",
    "state_id": 5020,
    "state_code": "52",
    "country_id": 75,
    "country_code": "FR",
    "latitude": "48.22774660",
    "longitude": "5.17031000",
    "wikiDataId": null
  },
  {
    "id": 155920,
    "name": "Roches-Bettaincourt",
    "state_id": 5020,
    "state_code": "52",
    "country_id": 75,
    "country_code": "FR",
    "latitude": "48.29497860",
    "longitude": "5.09804100",
    "wikiDataId": null
  },
  {
    "id": 155921,
    "name": "Roches-sur-Marne",
    "state_id": 5020,
    "state_code": "52",
    "country_id": 75,
    "country_code": "FR",
    "latitude": "48.60128900",
    "longitude": "4.92473260",
    "wikiDataId": null
  },
  {
    "id": 155922,
    "name": "Rochetaillée",
    "state_id": 5020,
    "state_code": "52",
    "country_id": 75,
    "country_code": "FR",
    "latitude": "47.84350730",
    "longitude": "5.03630890",
    "wikiDataId": null
  },
  {
    "id": 155924,
    "name": "Romain-sur-Meuse",
    "state_id": 5020,
    "state_code": "52",
    "country_id": 75,
    "country_code": "FR",
    "latitude": "48.18704310",
    "longitude": "5.43497840",
    "wikiDataId": null
  },
  {
    "id": 155925,
    "name": "Rouécourt",
    "state_id": 5020,
    "state_code": "52",
    "country_id": 75,
    "country_code": "FR",
    "latitude": "48.32969990",
    "longitude": "5.03470510",
    "wikiDataId": null
  },
  {
    "id": 155926,
    "name": "Rouelles",
    "state_id": 5020,
    "state_code": "52",
    "country_id": 75,
    "country_code": "FR",
    "latitude": "47.80404790",
    "longitude": "5.00686720",
    "wikiDataId": null
  },
  {
    "id": 155927,
    "name": "Rougeux",
    "state_id": 5020,
    "state_code": "52",
    "country_id": 75,
    "country_code": "FR",
    "latitude": "47.80985060",
    "longitude": "5.48943790",
    "wikiDataId": null
  },
  {
    "id": 155928,
    "name": "Rouvres-sur-Aube",
    "state_id": 5020,
    "state_code": "52",
    "country_id": 75,
    "country_code": "FR",
    "latitude": "47.85625420",
    "longitude": "4.90917460",
    "wikiDataId": null
  },
  {
    "id": 155929,
    "name": "Rouvroy-sur-Marne",
    "state_id": 5020,
    "state_code": "52",
    "country_id": 75,
    "country_code": "FR",
    "latitude": "48.35930110",
    "longitude": "5.03258810",
    "wikiDataId": null
  },
  {
    "id": 155930,
    "name": "Rupt",
    "state_id": 5020,
    "state_code": "52",
    "country_id": 75,
    "country_code": "FR",
    "latitude": "48.42201290",
    "longitude": "5.08968240",
    "wikiDataId": null
  },
  {
    "id": 155931,
    "name": "Sailly",
    "state_id": 5020,
    "state_code": "52",
    "country_id": 75,
    "country_code": "FR",
    "latitude": "48.43460450",
    "longitude": "5.18392070",
    "wikiDataId": null
  },
  {
    "id": 155932,
    "name": "Saint-Blin",
    "state_id": 5020,
    "state_code": "52",
    "country_id": 75,
    "country_code": "FR",
    "latitude": "48.25132460",
    "longitude": "5.33490740",
    "wikiDataId": null
  },
  {
    "id": 155933,
    "name": "Saint-Broingt-le-Bois",
    "state_id": 5020,
    "state_code": "52",
    "country_id": 75,
    "country_code": "FR",
    "latitude": "47.72907030",
    "longitude": "5.37721400",
    "wikiDataId": null
  },
  {
    "id": 155934,
    "name": "Saint-Broingt-les-Fosses",
    "state_id": 5020,
    "state_code": "52",
    "country_id": 75,
    "country_code": "FR",
    "latitude": "47.71348800",
    "longitude": "5.18741880",
    "wikiDataId": null
  },
  {
    "id": 155935,
    "name": "Saint-Ciergues",
    "state_id": 5020,
    "state_code": "52",
    "country_id": 75,
    "country_code": "FR",
    "latitude": "47.88210520",
    "longitude": "5.17675340",
    "wikiDataId": null
  },
  {
    "id": 155937,
    "name": "Saint-Loup-sur-Aujon",
    "state_id": 5020,
    "state_code": "52",
    "country_id": 75,
    "country_code": "FR",
    "latitude": "47.88103150",
    "longitude": "5.04677660",
    "wikiDataId": null
  },
  {
    "id": 155938,
    "name": "Saint-Martin-lès-Langres",
    "state_id": 5020,
    "state_code": "52",
    "country_id": 75,
    "country_code": "FR",
    "latitude": "47.89667100",
    "longitude": "5.24056120",
    "wikiDataId": null
  },
  {
    "id": 155939,
    "name": "Saint-Maurice",
    "state_id": 5020,
    "state_code": "52",
    "country_id": 75,
    "country_code": "FR",
    "latitude": "47.85428070",
    "longitude": "5.39679970",
    "wikiDataId": null
  },
  {
    "id": 155940,
    "name": "Saint-Thiébault",
    "state_id": 5020,
    "state_code": "52",
    "country_id": 75,
    "country_code": "FR",
    "latitude": "48.20130260",
    "longitude": "5.57213120",
    "wikiDataId": null
  },
  {
    "id": 155941,
    "name": "Saint-Urbain-Maconcourt",
    "state_id": 5020,
    "state_code": "52",
    "country_id": 75,
    "country_code": "FR",
    "latitude": "48.39746090",
    "longitude": "5.16342030",
    "wikiDataId": null
  },
  {
    "id": 155942,
    "name": "Saint-Vallier-sur-Marne",
    "state_id": 5020,
    "state_code": "52",
    "country_id": 75,
    "country_code": "FR",
    "latitude": "47.83364900",
    "longitude": "5.38366650",
    "wikiDataId": null
  },
  {
    "id": 155943,
    "name": "Saints-Geosmes",
    "state_id": 5020,
    "state_code": "52",
    "country_id": 75,
    "country_code": "FR",
    "latitude": "47.82407550",
    "longitude": "5.26286650",
    "wikiDataId": null
  },
  {
    "id": 155944,
    "name": "Sarcey",
    "state_id": 5020,
    "state_code": "52",
    "country_id": 75,
    "country_code": "FR",
    "latitude": "48.05754870",
    "longitude": "5.27547170",
    "wikiDataId": null
  },
  {
    "id": 155945,
    "name": "Sarrey",
    "state_id": 5020,
    "state_code": "52",
    "country_id": 75,
    "country_code": "FR",
    "latitude": "48.00147630",
    "longitude": "5.38484610",
    "wikiDataId": null
  },
  {
    "id": 155946,
    "name": "Saudron",
    "state_id": 5020,
    "state_code": "52",
    "country_id": 75,
    "country_code": "FR",
    "latitude": "48.49521910",
    "longitude": "5.30211280",
    "wikiDataId": null
  },
  {
    "id": 155947,
    "name": "Saulles",
    "state_id": 5020,
    "state_code": "52",
    "country_id": 75,
    "country_code": "FR",
    "latitude": "47.70269920",
    "longitude": "5.49479430",
    "wikiDataId": null
  },
  {
    "id": 155948,
    "name": "Saulxures",
    "state_id": 5020,
    "state_code": "52",
    "country_id": 75,
    "country_code": "FR",
    "latitude": "47.95526360",
    "longitude": "5.55739830",
    "wikiDataId": null
  },
  {
    "id": 155949,
    "name": "Savigny",
    "state_id": 5020,
    "state_code": "52",
    "country_id": 75,
    "country_code": "FR",
    "latitude": "47.71818410",
    "longitude": "5.62419620",
    "wikiDataId": null
  },
  {
    "id": 155950,
    "name": "Semilly",
    "state_id": 5020,
    "state_code": "52",
    "country_id": 75,
    "country_code": "FR",
    "latitude": "48.24459400",
    "longitude": "5.43191300",
    "wikiDataId": null
  },
  {
    "id": 155951,
    "name": "Semoutiers-Montsaon",
    "state_id": 5020,
    "state_code": "52",
    "country_id": 75,
    "country_code": "FR",
    "latitude": "48.06061810",
    "longitude": "5.00527010",
    "wikiDataId": null
  },
  {
    "id": 155952,
    "name": "Serqueux",
    "state_id": 5020,
    "state_code": "52",
    "country_id": 75,
    "country_code": "FR",
    "latitude": "48.00058880",
    "longitude": "5.70494920",
    "wikiDataId": null
  },
  {
    "id": 155953,
    "name": "Sexfontaines",
    "state_id": 5020,
    "state_code": "52",
    "country_id": 75,
    "country_code": "FR",
    "latitude": "48.20861510",
    "longitude": "4.98752520",
    "wikiDataId": null
  },
  {
    "id": 155954,
    "name": "Signéville",
    "state_id": 5020,
    "state_code": "52",
    "country_id": 75,
    "country_code": "FR",
    "latitude": "48.26716930",
    "longitude": "5.24589790",
    "wikiDataId": null
  },
  {
    "id": 155955,
    "name": "Silvarouvres",
    "state_id": 5020,
    "state_code": "52",
    "country_id": 75,
    "country_code": "FR",
    "latitude": "48.06079300",
    "longitude": "4.74683420",
    "wikiDataId": null
  },
  {
    "id": 155956,
    "name": "Sommancourt",
    "state_id": 5020,
    "state_code": "52",
    "country_id": 75,
    "country_code": "FR",
    "latitude": "48.50343420",
    "longitude": "5.02013850",
    "wikiDataId": null
  },
  {
    "id": 155957,
    "name": "Sommerécourt",
    "state_id": 5020,
    "state_code": "52",
    "country_id": 75,
    "country_code": "FR",
    "latitude": "48.22388180",
    "longitude": "5.63072840",
    "wikiDataId": null
  },
  {
    "id": 155958,
    "name": "Sommevoire",
    "state_id": 5020,
    "state_code": "52",
    "country_id": 75,
    "country_code": "FR",
    "latitude": "48.41083390",
    "longitude": "4.78633990",
    "wikiDataId": null
  },
  {
    "id": 155959,
    "name": "Soncourt-sur-Marne",
    "state_id": 5020,
    "state_code": "52",
    "country_id": 75,
    "country_code": "FR",
    "latitude": "48.24871860",
    "longitude": "5.04369710",
    "wikiDataId": null
  },
  {
    "id": 155960,
    "name": "Soulaucourt-sur-Mouzon",
    "state_id": 5020,
    "state_code": "52",
    "country_id": 75,
    "country_code": "FR",
    "latitude": "48.19417950",
    "longitude": "5.65538450",
    "wikiDataId": null
  },
  {
    "id": 155961,
    "name": "Soyers",
    "state_id": 5020,
    "state_code": "52",
    "country_id": 75,
    "country_code": "FR",
    "latitude": "47.86610300",
    "longitude": "5.67665260",
    "wikiDataId": null
  },
  {
    "id": 155962,
    "name": "Suzannecourt",
    "state_id": 5020,
    "state_code": "52",
    "country_id": 75,
    "country_code": "FR",
    "latitude": "48.43972340",
    "longitude": "5.16459240",
    "wikiDataId": null
  },
  {
    "id": 155963,
    "name": "Ternat",
    "state_id": 5020,
    "state_code": "52",
    "country_id": 75,
    "country_code": "FR",
    "latitude": "47.91493000",
    "longitude": "5.10697840",
    "wikiDataId": null
  },
  {
    "id": 155964,
    "name": "Thilleux",
    "state_id": 5020,
    "state_code": "52",
    "country_id": 75,
    "country_code": "FR",
    "latitude": "48.43397010",
    "longitude": "4.74635320",
    "wikiDataId": null
  },
  {
    "id": 155965,
    "name": "Thivet",
    "state_id": 5020,
    "state_code": "52",
    "country_id": 75,
    "country_code": "FR",
    "latitude": "47.98564580",
    "longitude": "5.25449150",
    "wikiDataId": null
  },
  {
    "id": 155966,
    "name": "Thol-lès-Millières",
    "state_id": 5020,
    "state_code": "52",
    "country_id": 75,
    "country_code": "FR",
    "latitude": "48.14733420",
    "longitude": "5.45470260",
    "wikiDataId": null
  },
  {
    "id": 155967,
    "name": "Thonnance-lès-Joinville",
    "state_id": 5020,
    "state_code": "52",
    "country_id": 75,
    "country_code": "FR",
    "latitude": "48.46323300",
    "longitude": "5.14344030",
    "wikiDataId": null
  },
  {
    "id": 155968,
    "name": "Thonnance-les-Moulins",
    "state_id": 5020,
    "state_code": "52",
    "country_id": 75,
    "country_code": "FR",
    "latitude": "48.42399040",
    "longitude": "5.27728420",
    "wikiDataId": null
  },
  {
    "id": 155969,
    "name": "Torcenay",
    "state_id": 5020,
    "state_code": "52",
    "country_id": 75,
    "country_code": "FR",
    "latitude": "47.81390190",
    "longitude": "5.44814510",
    "wikiDataId": null
  },
  {
    "id": 155970,
    "name": "Tornay",
    "state_id": 5020,
    "state_code": "52",
    "country_id": 75,
    "country_code": "FR",
    "latitude": "47.69092670",
    "longitude": "5.57446190",
    "wikiDataId": null
  },
  {
    "id": 155971,
    "name": "Treix",
    "state_id": 5020,
    "state_code": "52",
    "country_id": 75,
    "country_code": "FR",
    "latitude": "48.14188840",
    "longitude": "5.17482140",
    "wikiDataId": null
  },
  {
    "id": 155972,
    "name": "Trémilly",
    "state_id": 5020,
    "state_code": "52",
    "country_id": 75,
    "country_code": "FR",
    "latitude": "48.38320700",
    "longitude": "4.73529780",
    "wikiDataId": null
  },
  {
    "id": 155973,
    "name": "Troisfontaines-la-Ville",
    "state_id": 5020,
    "state_code": "52",
    "country_id": 75,
    "country_code": "FR",
    "latitude": "48.54729600",
    "longitude": "4.92826190",
    "wikiDataId": null
  },
  {
    "id": 155974,
    "name": "Vaillant",
    "state_id": 5020,
    "state_code": "52",
    "country_id": 75,
    "country_code": "FR",
    "latitude": "47.71714370",
    "longitude": "5.13847950",
    "wikiDataId": null
  },
  {
    "id": 155976,
    "name": "Valcourt",
    "state_id": 5020,
    "state_code": "52",
    "country_id": 75,
    "country_code": "FR",
    "latitude": "48.61145330",
    "longitude": "4.89102590",
    "wikiDataId": null
  },
  {
    "id": 155977,
    "name": "Valleret",
    "state_id": 5020,
    "state_code": "52",
    "country_id": 75,
    "country_code": "FR",
    "latitude": "48.48859990",
    "longitude": "4.98741820",
    "wikiDataId": null
  },
  {
    "id": 155978,
    "name": "Valleroy",
    "state_id": 5020,
    "state_code": "52",
    "country_id": 75,
    "country_code": "FR",
    "latitude": "47.69724640",
    "longitude": "5.63716420",
    "wikiDataId": null
  },
  {
    "id": 155979,
    "name": "Vals-des-Tilles",
    "state_id": 5020,
    "state_code": "52",
    "country_id": 75,
    "country_code": "FR",
    "latitude": "47.69045420",
    "longitude": "5.04554390",
    "wikiDataId": null
  },
  {
    "id": 155980,
    "name": "Varennes-sur-Amance",
    "state_id": 5020,
    "state_code": "52",
    "country_id": 75,
    "country_code": "FR",
    "latitude": "47.89502760",
    "longitude": "5.57035760",
    "wikiDataId": null
  },
  {
    "id": 155981,
    "name": "Vaudrecourt",
    "state_id": 5020,
    "state_code": "52",
    "country_id": 75,
    "country_code": "FR",
    "latitude": "48.20776050",
    "longitude": "5.62640900",
    "wikiDataId": null
  },
  {
    "id": 155982,
    "name": "Vaudrémont",
    "state_id": 5020,
    "state_code": "52",
    "country_id": 75,
    "country_code": "FR",
    "latitude": "48.13263140",
    "longitude": "4.89214880",
    "wikiDataId": null
  },
  {
    "id": 155983,
    "name": "Vaux-sur-Blaise",
    "state_id": 5020,
    "state_code": "52",
    "country_id": 75,
    "country_code": "FR",
    "latitude": "48.46939050",
    "longitude": "4.92184930",
    "wikiDataId": null
  },
  {
    "id": 155984,
    "name": "Vaux-sur-Saint-Urbain",
    "state_id": 5020,
    "state_code": "52",
    "country_id": 75,
    "country_code": "FR",
    "latitude": "48.37091770",
    "longitude": "5.18580800",
    "wikiDataId": null
  },
  {
    "id": 155985,
    "name": "Vauxbons",
    "state_id": 5020,
    "state_code": "52",
    "country_id": 75,
    "country_code": "FR",
    "latitude": "47.88279570",
    "longitude": "5.10023080",
    "wikiDataId": null
  },
  {
    "id": 155986,
    "name": "Vecqueville",
    "state_id": 5020,
    "state_code": "52",
    "country_id": 75,
    "country_code": "FR",
    "latitude": "48.46221150",
    "longitude": "5.11963550",
    "wikiDataId": null
  },
  {
    "id": 155987,
    "name": "Velles",
    "state_id": 5020,
    "state_code": "52",
    "country_id": 75,
    "country_code": "FR",
    "latitude": "47.83479550",
    "longitude": "5.70376260",
    "wikiDataId": null
  },
  {
    "id": 155988,
    "name": "Verbiesles",
    "state_id": 5020,
    "state_code": "52",
    "country_id": 75,
    "country_code": "FR",
    "latitude": "48.07588620",
    "longitude": "5.15359360",
    "wikiDataId": null
  },
  {
    "id": 155989,
    "name": "Verseilles-le-Bas",
    "state_id": 5020,
    "state_code": "52",
    "country_id": 75,
    "country_code": "FR",
    "latitude": "47.76239030",
    "longitude": "5.27401660",
    "wikiDataId": null
  },
  {
    "id": 155990,
    "name": "Verseilles-le-Haut",
    "state_id": 5020,
    "state_code": "52",
    "country_id": 75,
    "country_code": "FR",
    "latitude": "47.76948850",
    "longitude": "5.27154330",
    "wikiDataId": null
  },
  {
    "id": 155991,
    "name": "Vesaignes-sous-Lafauche",
    "state_id": 5020,
    "state_code": "52",
    "country_id": 75,
    "country_code": "FR",
    "latitude": "48.28455870",
    "longitude": "5.40490290",
    "wikiDataId": null
  },
  {
    "id": 155992,
    "name": "Vesaignes-sur-Marne",
    "state_id": 5020,
    "state_code": "52",
    "country_id": 75,
    "country_code": "FR",
    "latitude": "47.99737090",
    "longitude": "5.24620470",
    "wikiDataId": null
  },
  {
    "id": 155993,
    "name": "Vesvres-sous-Chalancey",
    "state_id": 5020,
    "state_code": "52",
    "country_id": 75,
    "country_code": "FR",
    "latitude": "47.69688350",
    "longitude": "5.14739040",
    "wikiDataId": null
  },
  {
    "id": 155994,
    "name": "Vicq",
    "state_id": 5020,
    "state_code": "52",
    "country_id": 75,
    "country_code": "FR",
    "latitude": "47.92698400",
    "longitude": "5.56721220",
    "wikiDataId": null
  },
  {
    "id": 155995,
    "name": "Viéville",
    "state_id": 5020,
    "state_code": "52",
    "country_id": 75,
    "country_code": "FR",
    "latitude": "48.23948100",
    "longitude": "5.12726260",
    "wikiDataId": null
  },
  {
    "id": 155996,
    "name": "Vignes-la-Côte",
    "state_id": 5020,
    "state_code": "52",
    "country_id": 75,
    "country_code": "FR",
    "latitude": "48.27354120",
    "longitude": "5.28830910",
    "wikiDataId": null
  },
  {
    "id": 155997,
    "name": "Vignory",
    "state_id": 5020,
    "state_code": "52",
    "country_id": 75,
    "country_code": "FR",
    "latitude": "48.27150790",
    "longitude": "5.04814910",
    "wikiDataId": null
  },
  {
    "id": 155998,
    "name": "Villars-en-Azois",
    "state_id": 5020,
    "state_code": "52",
    "country_id": 75,
    "country_code": "FR",
    "latitude": "48.07059670",
    "longitude": "4.66956980",
    "wikiDataId": null
  },
  {
    "id": 155999,
    "name": "Villars-Santenoge",
    "state_id": 5020,
    "state_code": "52",
    "country_id": 75,
    "country_code": "FR",
    "latitude": "47.74507410",
    "longitude": "4.96042310",
    "wikiDataId": null
  },
  {
    "id": 156000,
    "name": "Ville-en-Blaisois",
    "state_id": 5020,
    "state_code": "52",
    "country_id": 75,
    "country_code": "FR",
    "latitude": "48.44287440",
    "longitude": "4.90760270",
    "wikiDataId": null
  },
  {
    "id": 156001,
    "name": "Villegusien-le-Lac",
    "state_id": 5020,
    "state_code": "52",
    "country_id": 75,
    "country_code": "FR",
    "latitude": "47.74347330",
    "longitude": "5.23703940",
    "wikiDataId": null
  },
  {
    "id": 156003,
    "name": "Villiers-le-Sec",
    "state_id": 5020,
    "state_code": "52",
    "country_id": 75,
    "country_code": "FR",
    "latitude": "48.10088220",
    "longitude": "5.04868120",
    "wikiDataId": null
  },
  {
    "id": 156004,
    "name": "Villiers-lès-Aprey",
    "state_id": 5020,
    "state_code": "52",
    "country_id": 75,
    "country_code": "FR",
    "latitude": "47.75636890",
    "longitude": "5.19942070",
    "wikiDataId": null
  },
  {
    "id": 156005,
    "name": "Villiers-sur-Suize",
    "state_id": 5020,
    "state_code": "52",
    "country_id": 75,
    "country_code": "FR",
    "latitude": "47.97984800",
    "longitude": "5.15035880",
    "wikiDataId": null
  },
  {
    "id": 156006,
    "name": "Violot",
    "state_id": 5020,
    "state_code": "52",
    "country_id": 75,
    "country_code": "FR",
    "latitude": "47.75844870",
    "longitude": "5.42669600",
    "wikiDataId": null
  },
  {
    "id": 156007,
    "name": "Vitry-en-Montagne",
    "state_id": 5020,
    "state_code": "52",
    "country_id": 75,
    "country_code": "FR",
    "latitude": "47.82110980",
    "longitude": "5.05066180",
    "wikiDataId": null
  },
  {
    "id": 156008,
    "name": "Vitry-lès-Nogent",
    "state_id": 5020,
    "state_code": "52",
    "country_id": 75,
    "country_code": "FR",
    "latitude": "47.98704190",
    "longitude": "5.32216350",
    "wikiDataId": null
  },
  {
    "id": 156009,
    "name": "Vivey",
    "state_id": 5020,
    "state_code": "52",
    "country_id": 75,
    "country_code": "FR",
    "latitude": "47.73769510",
    "longitude": "5.04015670",
    "wikiDataId": null
  },
  {
    "id": 156010,
    "name": "Voillecomte",
    "state_id": 5020,
    "state_code": "52",
    "country_id": 75,
    "country_code": "FR",
    "latitude": "48.50408460",
    "longitude": "4.82070500",
    "wikiDataId": null
  },
  {
    "id": 156011,
    "name": "Voisey",
    "state_id": 5020,
    "state_code": "52",
    "country_id": 75,
    "country_code": "FR",
    "latitude": "47.87910480",
    "longitude": "5.73145280",
    "wikiDataId": null
  },
  {
    "id": 156012,
    "name": "Voisines",
    "state_id": 5020,
    "state_code": "52",
    "country_id": 75,
    "country_code": "FR",
    "latitude": "47.85666890",
    "longitude": "5.13551680",
    "wikiDataId": null
  },
  {
    "id": 156013,
    "name": "Voncourt",
    "state_id": 5020,
    "state_code": "52",
    "country_id": 75,
    "country_code": "FR",
    "latitude": "47.71717710",
    "longitude": "5.65392650",
    "wikiDataId": null
  },
  {
    "id": 156014,
    "name": "Vouécourt",
    "state_id": 5020,
    "state_code": "52",
    "country_id": 75,
    "country_code": "FR",
    "latitude": "48.26424440",
    "longitude": "5.12639200",
    "wikiDataId": null
  },
  {
    "id": 156015,
    "name": "Vraincourt",
    "state_id": 5020,
    "state_code": "52",
    "country_id": 75,
    "country_code": "FR",
    "latitude": "48.23150090",
    "longitude": "5.10004090",
    "wikiDataId": null
  },
  {
    "id": 156016,
    "name": "Vroncourt-la-Côte",
    "state_id": 5020,
    "state_code": "52",
    "country_id": 75,
    "country_code": "FR",
    "latitude": "48.14619270",
    "longitude": "5.49240830",
    "wikiDataId": null
  }
]