[
  {
    "id": 10077,
    "name": "Acorizal",
    "state_id": 2011,
    "state_code": "MT",
    "country_id": 31,
    "country_code": "BR",
    "latitude": "-15.17336000",
    "longitude": "-56.30434000",
    "wikiDataId": null
  },
  {
    "id": 15649,
    "name": "Água Boa",
    "state_id": 2011,
    "state_code": "MT",
    "country_id": 31,
    "country_code": "BR",
    "latitude": "-14.13584000",
    "longitude": "-52.49093000",
    "wikiDataId": null
  },
  {
    "id": 10150,
    "name": "Alta Floresta",
    "state_id": 2011,
    "state_code": "MT",
    "country_id": 31,
    "country_code": "BR",
    "latitude": "-9.87556000",
    "longitude": "-56.08611000",
    "wikiDataId": null
  },
  {
    "id": 10165,
    "name": "Alto Araguaia",
    "state_id": 2011,
    "state_code": "MT",
    "country_id": 31,
    "country_code": "BR",
    "latitude": "-17.48438000",
    "longitude": "-53.40594000",
    "wikiDataId": null
  },
  {
    "id": 10167,
    "name": "Alto Boa Vista",
    "state_id": 2011,
    "state_code": "MT",
    "country_id": 31,
    "country_code": "BR",
    "latitude": "-11.82825000",
    "longitude": "-51.74596000",
    "wikiDataId": null
  },
  {
    "id": 10170,
    "name": "Alto Garças",
    "state_id": 2011,
    "state_code": "MT",
    "country_id": 31,
    "country_code": "BR",
    "latitude": "-16.81961000",
    "longitude": "-53.62461000",
    "wikiDataId": null
  },
  {
    "id": 10174,
    "name": "Alto Paraguai",
    "state_id": 2011,
    "state_code": "MT",
    "country_id": 31,
    "country_code": "BR",
    "latitude": "-14.76851000",
    "longitude": "-56.72113000",
    "wikiDataId": null
  },
  {
    "id": 10184,
    "name": "Alto Taquari",
    "state_id": 2011,
    "state_code": "MT",
    "country_id": 31,
    "country_code": "BR",
    "latitude": "-17.76618000",
    "longitude": "-53.28010000",
    "wikiDataId": null
  },
  {
    "id": 10293,
    "name": "Apiacás",
    "state_id": 2011,
    "state_code": "MT",
    "country_id": 31,
    "country_code": "BR",
    "latitude": "-9.03962000",
    "longitude": "-57.75949000",
    "wikiDataId": null
  },
  {
    "id": 10319,
    "name": "Araguaiana",
    "state_id": 2011,
    "state_code": "MT",
    "country_id": 31,
    "country_code": "BR",
    "latitude": "-15.73389000",
    "longitude": "-51.83139000",
    "wikiDataId": null
  },
  {
    "id": 10320,
    "name": "Araguainha",
    "state_id": 2011,
    "state_code": "MT",
    "country_id": 31,
    "country_code": "BR",
    "latitude": "-16.78427000",
    "longitude": "-53.07981000",
    "wikiDataId": null
  },
  {
    "id": 10343,
    "name": "Araputanga",
    "state_id": 2011,
    "state_code": "MT",
    "country_id": 31,
    "country_code": "BR",
    "latitude": "-15.17477000",
    "longitude": "-58.49729000",
    "wikiDataId": null
  },
  {
    "id": 10390,
    "name": "Arenápolis",
    "state_id": 2011,
    "state_code": "MT",
    "country_id": 31,
    "country_code": "BR",
    "latitude": "-14.45028000",
    "longitude": "-56.84611000",
    "wikiDataId": null
  },
  {
    "id": 10395,
    "name": "Aripuanã",
    "state_id": 2011,
    "state_code": "MT",
    "country_id": 31,
    "country_code": "BR",
    "latitude": "-9.16667000",
    "longitude": "-60.63333000",
    "wikiDataId": null
  },
  {
    "id": 10575,
    "name": "Barão de Melgaço",
    "state_id": 2011,
    "state_code": "MT",
    "country_id": 31,
    "country_code": "BR",
    "latitude": "-16.19444000",
    "longitude": "-55.96750000",
    "wikiDataId": null
  },
  {
    "id": 10531,
    "name": "Barra do Bugres",
    "state_id": 2011,
    "state_code": "MT",
    "country_id": 31,
    "country_code": "BR",
    "latitude": "-15.07250000",
    "longitude": "-57.18111000",
    "wikiDataId": null
  },
  {
    "id": 10535,
    "name": "Barra do Garças",
    "state_id": 2011,
    "state_code": "MT",
    "country_id": 31,
    "country_code": "BR",
    "latitude": "-15.89000000",
    "longitude": "-52.25667000",
    "wikiDataId": null
  },
  {
    "id": 10709,
    "name": "Bom Jesus do Araguaia",
    "state_id": 2011,
    "state_code": "MT",
    "country_id": 31,
    "country_code": "BR",
    "latitude": "-12.27879000",
    "longitude": "-51.75156000",
    "wikiDataId": null
  },
  {
    "id": 10775,
    "name": "Brasnorte",
    "state_id": 2011,
    "state_code": "MT",
    "country_id": 31,
    "country_code": "BR",
    "latitude": "-12.24899000",
    "longitude": "-58.00289000",
    "wikiDataId": null
  },
  {
    "id": 11542,
    "name": "Cáceres",
    "state_id": 2011,
    "state_code": "MT",
    "country_id": 31,
    "country_code": "BR",
    "latitude": "-16.42263000",
    "longitude": "-57.71082000",
    "wikiDataId": null
  },
  {
    "id": 10975,
    "name": "Campinápolis",
    "state_id": 2011,
    "state_code": "MT",
    "country_id": 31,
    "country_code": "BR",
    "latitude": "-14.30712000",
    "longitude": "-53.15586000",
    "wikiDataId": null
  },
  {
    "id": 11001,
    "name": "Campo Novo do Parecis",
    "state_id": 2011,
    "state_code": "MT",
    "country_id": 31,
    "country_code": "BR",
    "latitude": "-13.62657000",
    "longitude": "-58.02125000",
    "wikiDataId": null
  },
  {
    "id": 11004,
    "name": "Campo Verde",
    "state_id": 2011,
    "state_code": "MT",
    "country_id": 31,
    "country_code": "BR",
    "latitude": "-15.37926000",
    "longitude": "-54.92950000",
    "wikiDataId": null
  },
  {
    "id": 11017,
    "name": "Campos de Júlio",
    "state_id": 2011,
    "state_code": "MT",
    "country_id": 31,
    "country_code": "BR",
    "latitude": "-13.63297000",
    "longitude": "-59.17849000",
    "wikiDataId": null
  },
  {
    "id": 11022,
    "name": "CanaBrava do Norte",
    "state_id": 2011,
    "state_code": "MT",
    "country_id": 31,
    "country_code": "BR",
    "latitude": "-11.18113000",
    "longitude": "-51.86378000",
    "wikiDataId": null
  },
  {
    "id": 11026,
    "name": "Canarana",
    "state_id": 2011,
    "state_code": "MT",
    "country_id": 31,
    "country_code": "BR",
    "latitude": "-13.17747000",
    "longitude": "-52.37104000",
    "wikiDataId": null
  },
  {
    "id": 11137,
    "name": "Carlinda",
    "state_id": 2011,
    "state_code": "MT",
    "country_id": 31,
    "country_code": "BR",
    "latitude": "-10.03792000",
    "longitude": "-55.85086000",
    "wikiDataId": null
  },
  {
    "id": 11185,
    "name": "Castanheira",
    "state_id": 2011,
    "state_code": "MT",
    "country_id": 31,
    "country_code": "BR",
    "latitude": "-10.87932000",
    "longitude": "-58.65100000",
    "wikiDataId": null
  },
  {
    "id": 11264,
    "name": "Chapada dos Guimarães",
    "state_id": 2011,
    "state_code": "MT",
    "country_id": 31,
    "country_code": "BR",
    "latitude": "-15.02015000",
    "longitude": "-55.53735000",
    "wikiDataId": null
  },
  {
    "id": 11301,
    "name": "Cláudia",
    "state_id": 2011,
    "state_code": "MT",
    "country_id": 31,
    "country_code": "BR",
    "latitude": "-11.45086000",
    "longitude": "-54.99828000",
    "wikiDataId": null
  },
  {
    "id": 11310,
    "name": "Cocalinho",
    "state_id": 2011,
    "state_code": "MT",
    "country_id": 31,
    "country_code": "BR",
    "latitude": "-13.80273000",
    "longitude": "-51.15344000",
    "wikiDataId": null
  },
  {
    "id": 11333,
    "name": "Colíder",
    "state_id": 2011,
    "state_code": "MT",
    "country_id": 31,
    "country_code": "BR",
    "latitude": "-10.56333000",
    "longitude": "-55.44573000",
    "wikiDataId": null
  },
  {
    "id": 11327,
    "name": "Colniza",
    "state_id": 2011,
    "state_code": "MT",
    "country_id": 31,
    "country_code": "BR",
    "latitude": "-9.29188000",
    "longitude": "-60.30457000",
    "wikiDataId": null
  },
  {
    "id": 11343,
    "name": "Comodoro",
    "state_id": 2011,
    "state_code": "MT",
    "country_id": 31,
    "country_code": "BR",
    "latitude": "-13.32583000",
    "longitude": "-59.82145000",
    "wikiDataId": null
  },
  {
    "id": 11376,
    "name": "Confresa",
    "state_id": 2011,
    "state_code": "MT",
    "country_id": 31,
    "country_code": "BR",
    "latitude": "-10.30959000",
    "longitude": "-51.73651000",
    "wikiDataId": null
  },
  {
    "id": 11383,
    "name": "Conquista D'oeste",
    "state_id": 2011,
    "state_code": "MT",
    "country_id": 31,
    "country_code": "BR",
    "latitude": "-14.61506000",
    "longitude": "-59.26741000",
    "wikiDataId": null
  },
  {
    "id": 11454,
    "name": "Cotriguaçu",
    "state_id": 2011,
    "state_code": "MT",
    "country_id": 31,
    "country_code": "BR",
    "latitude": "-9.50334000",
    "longitude": "-58.79134000",
    "wikiDataId": null
  },
  {
    "id": 11507,
    "name": "Cuiabá",
    "state_id": 2011,
    "state_code": "MT",
    "country_id": 31,
    "country_code": "BR",
    "latitude": "-15.41924000",
    "longitude": "-55.89023000",
    "wikiDataId": null
  },
  {
    "id": 11539,
    "name": "Curvelândia",
    "state_id": 2011,
    "state_code": "MT",
    "country_id": 31,
    "country_code": "BR",
    "latitude": "-15.63715000",
    "longitude": "-57.84548000",
    "wikiDataId": null
  },
  {
    "id": 11572,
    "name": "Denise",
    "state_id": 2011,
    "state_code": "MT",
    "country_id": 31,
    "country_code": "BR",
    "latitude": "-14.75742000",
    "longitude": "-56.95115000",
    "wikiDataId": null
  },
  {
    "id": 11589,
    "name": "Diamantino",
    "state_id": 2011,
    "state_code": "MT",
    "country_id": 31,
    "country_code": "BR",
    "latitude": "-14.02239000",
    "longitude": "-56.77742000",
    "wikiDataId": null
  },
  {
    "id": 11622,
    "name": "Dom Aquino",
    "state_id": 2011,
    "state_code": "MT",
    "country_id": 31,
    "country_code": "BR",
    "latitude": "-15.72098000",
    "longitude": "-54.83043000",
    "wikiDataId": null
  },
  {
    "id": 11800,
    "name": "Feliz Natal",
    "state_id": 2011,
    "state_code": "MT",
    "country_id": 31,
    "country_code": "BR",
    "latitude": "-11.93599000",
    "longitude": "-54.23925000",
    "wikiDataId": null
  },
  {
    "id": 11819,
    "name": "Figueirópolis d'Oeste",
    "state_id": 2011,
    "state_code": "MT",
    "country_id": 31,
    "country_code": "BR",
    "latitude": "-15.48700000",
    "longitude": "-58.69723000",
    "wikiDataId": null
  },
  {
    "id": 11932,
    "name": "Gaúcha do Norte",
    "state_id": 2011,
    "state_code": "MT",
    "country_id": 31,
    "country_code": "BR",
    "latitude": "-12.99365000",
    "longitude": "-53.52264000",
    "wikiDataId": null
  },
  {
    "id": 11935,
    "name": "General Carneiro",
    "state_id": 2011,
    "state_code": "MT",
    "country_id": 31,
    "country_code": "BR",
    "latitude": "-15.51539000",
    "longitude": "-53.29790000",
    "wikiDataId": null
  },
  {
    "id": 11951,
    "name": "Glória d'Oeste",
    "state_id": 2011,
    "state_code": "MT",
    "country_id": 31,
    "country_code": "BR",
    "latitude": "-15.91309000",
    "longitude": "-58.30449000",
    "wikiDataId": null
  },
  {
    "id": 12049,
    "name": "Guarantã do Norte",
    "state_id": 2011,
    "state_code": "MT",
    "country_id": 31,
    "country_code": "BR",
    "latitude": "-9.75597000",
    "longitude": "-54.72890000",
    "wikiDataId": null
  },
  {
    "id": 12083,
    "name": "Guiratinga",
    "state_id": 2011,
    "state_code": "MT",
    "country_id": 31,
    "country_code": "BR",
    "latitude": "-16.34534000",
    "longitude": "-53.76177000",
    "wikiDataId": null
  },
  {
    "id": 12242,
    "name": "Indiavaí",
    "state_id": 2011,
    "state_code": "MT",
    "country_id": 31,
    "country_code": "BR",
    "latitude": "-15.31484000",
    "longitude": "-58.62960000",
    "wikiDataId": null
  },
  {
    "id": 12277,
    "name": "Ipiranga do Norte",
    "state_id": 2011,
    "state_code": "MT",
    "country_id": 31,
    "country_code": "BR",
    "latitude": "-12.24000000",
    "longitude": "-56.14000000",
    "wikiDataId": null
  },
  {
    "id": 12391,
    "name": "Itanhangá",
    "state_id": 2011,
    "state_code": "MT",
    "country_id": 31,
    "country_code": "BR",
    "latitude": "-12.17000000",
    "longitude": "-56.68000000",
    "wikiDataId": null
  },
  {
    "id": 12470,
    "name": "Itaúba",
    "state_id": 2011,
    "state_code": "MT",
    "country_id": 31,
    "country_code": "BR",
    "latitude": "-11.09537000",
    "longitude": "-55.58848000",
    "wikiDataId": null
  },
  {
    "id": 12475,
    "name": "Itiquira",
    "state_id": 2011,
    "state_code": "MT",
    "country_id": 31,
    "country_code": "BR",
    "latitude": "-17.39441000",
    "longitude": "-54.76988000",
    "wikiDataId": null
  },
  {
    "id": 12524,
    "name": "Jaciara",
    "state_id": 2011,
    "state_code": "MT",
    "country_id": 31,
    "country_code": "BR",
    "latitude": "-15.96528000",
    "longitude": "-54.96833000",
    "wikiDataId": null
  },
  {
    "id": 12562,
    "name": "Jangada",
    "state_id": 2011,
    "state_code": "MT",
    "country_id": 31,
    "country_code": "BR",
    "latitude": "-15.33758000",
    "longitude": "-56.54282000",
    "wikiDataId": null
  },
  {
    "id": 12606,
    "name": "Jauru",
    "state_id": 2011,
    "state_code": "MT",
    "country_id": 31,
    "country_code": "BR",
    "latitude": "-15.32452000",
    "longitude": "-58.84580000",
    "wikiDataId": null
  },
  {
    "id": 12668,
    "name": "Juara",
    "state_id": 2011,
    "state_code": "MT",
    "country_id": 31,
    "country_code": "BR",
    "latitude": "-11.09828000",
    "longitude": "-57.49159000",
    "wikiDataId": null
  },
  {
    "id": 12715,
    "name": "Juína",
    "state_id": 2011,
    "state_code": "MT",
    "country_id": 31,
    "country_code": "BR",
    "latitude": "-11.40329000",
    "longitude": "-59.50810000",
    "wikiDataId": null
  },
  {
    "id": 12701,
    "name": "Juruena",
    "state_id": 2011,
    "state_code": "MT",
    "country_id": 31,
    "country_code": "BR",
    "latitude": "-10.28992000",
    "longitude": "-58.65303000",
    "wikiDataId": null
  },
  {
    "id": 12704,
    "name": "Juscimeira",
    "state_id": 2011,
    "state_code": "MT",
    "country_id": 31,
    "country_code": "BR",
    "latitude": "-16.20525000",
    "longitude": "-54.88029000",
    "wikiDataId": null
  },
  {
    "id": 12789,
    "name": "Lambari d'Oeste",
    "state_id": 2011,
    "state_code": "MT",
    "country_id": 31,
    "country_code": "BR",
    "latitude": "-15.65457000",
    "longitude": "-57.78813000",
    "wikiDataId": null
  },
  {
    "id": 12856,
    "name": "Lucas",
    "state_id": 2011,
    "state_code": "MT",
    "country_id": 31,
    "country_code": "BR",
    "latitude": "-16.33333000",
    "longitude": "-55.93333000",
    "wikiDataId": null
  },
  {
    "id": 12857,
    "name": "Lucas do Rio Verde",
    "state_id": 2011,
    "state_code": "MT",
    "country_id": 31,
    "country_code": "BR",
    "latitude": "-13.04098000",
    "longitude": "-56.15577000",
    "wikiDataId": null
  },
  {
    "id": 12860,
    "name": "Luciara",
    "state_id": 2011,
    "state_code": "MT",
    "country_id": 31,
    "country_code": "BR",
    "latitude": "-11.01415000",
    "longitude": "-50.94299000",
    "wikiDataId": null
  },
  {
    "id": 12993,
    "name": "Marcelândia",
    "state_id": 2011,
    "state_code": "MT",
    "country_id": 31,
    "country_code": "BR",
    "latitude": "-11.00372000",
    "longitude": "-54.13318000",
    "wikiDataId": null
  },
  {
    "id": 13074,
    "name": "Matupá",
    "state_id": 2011,
    "state_code": "MT",
    "country_id": 31,
    "country_code": "BR",
    "latitude": "-10.01532000",
    "longitude": "-54.35496000",
    "wikiDataId": null
  },
  {
    "id": 13150,
    "name": "Mirassol d'Oeste",
    "state_id": 2011,
    "state_code": "MT",
    "country_id": 31,
    "country_code": "BR",
    "latitude": "-15.63523000",
    "longitude": "-58.00508000",
    "wikiDataId": null
  },
  {
    "id": 13332,
    "name": "Nobres",
    "state_id": 2011,
    "state_code": "MT",
    "country_id": 31,
    "country_code": "BR",
    "latitude": "-14.72028000",
    "longitude": "-56.32750000",
    "wikiDataId": null
  },
  {
    "id": 13335,
    "name": "Nortelândia",
    "state_id": 2011,
    "state_code": "MT",
    "country_id": 31,
    "country_code": "BR",
    "latitude": "-14.45472000",
    "longitude": "-56.80278000",
    "wikiDataId": null
  },
  {
    "id": 13342,
    "name": "Nossa Senhora do Livramento",
    "state_id": 2011,
    "state_code": "MT",
    "country_id": 31,
    "country_code": "BR",
    "latitude": "-15.93447000",
    "longitude": "-56.54590000",
    "wikiDataId": null
  },
  {
    "id": 13355,
    "name": "Nova Bandeirantes",
    "state_id": 2011,
    "state_code": "MT",
    "country_id": 31,
    "country_code": "BR",
    "latitude": "-9.68571000",
    "longitude": "-58.01840000",
    "wikiDataId": null
  },
  {
    "id": 13359,
    "name": "Nova Brasilândia",
    "state_id": 2011,
    "state_code": "MT",
    "country_id": 31,
    "country_code": "BR",
    "latitude": "-14.75742000",
    "longitude": "-55.10534000",
    "wikiDataId": null
  },
  {
    "id": 13365,
    "name": "Nova Canaã do Norte",
    "state_id": 2011,
    "state_code": "MT",
    "country_id": 31,
    "country_code": "BR",
    "latitude": "-10.71987000",
    "longitude": "-56.03436000",
    "wikiDataId": null
  },
  {
    "id": 13385,
    "name": "Nova Guarita",
    "state_id": 2011,
    "state_code": "MT",
    "country_id": 31,
    "country_code": "BR",
    "latitude": "-10.28525000",
    "longitude": "-55.33730000",
    "wikiDataId": null
  },
  {
    "id": 13396,
    "name": "Nova Lacerda",
    "state_id": 2011,
    "state_code": "MT",
    "country_id": 31,
    "country_code": "BR",
    "latitude": "-14.26732000",
    "longitude": "-59.79280000",
    "wikiDataId": null
  },
  {
    "id": 13402,
    "name": "Nova Marilândia",
    "state_id": 2011,
    "state_code": "MT",
    "country_id": 31,
    "country_code": "BR",
    "latitude": "-14.31258000",
    "longitude": "-57.26088000",
    "wikiDataId": null
  },
  {
    "id": 13403,
    "name": "Nova Maringá",
    "state_id": 2011,
    "state_code": "MT",
    "country_id": 31,
    "country_code": "BR",
    "latitude": "-12.98384000",
    "longitude": "-57.19167000",
    "wikiDataId": null
  },
  {
    "id": 13404,
    "name": "Nova Monte Verde",
    "state_id": 2011,
    "state_code": "MT",
    "country_id": 31,
    "country_code": "BR",
    "latitude": "-9.99743000",
    "longitude": "-57.29768000",
    "wikiDataId": null
  },
  {
    "id": 13405,
    "name": "Nova Mutum",
    "state_id": 2011,
    "state_code": "MT",
    "country_id": 31,
    "country_code": "BR",
    "latitude": "-13.58906000",
    "longitude": "-56.15193000",
    "wikiDataId": null
  },
  {
    "id": 13407,
    "name": "Nova Nazaré",
    "state_id": 2011,
    "state_code": "MT",
    "country_id": 31,
    "country_code": "BR",
    "latitude": "-14.14648000",
    "longitude": "-51.79821000",
    "wikiDataId": null
  },
  {
    "id": 13414,
    "name": "Nova Olímpia",
    "state_id": 2011,
    "state_code": "MT",
    "country_id": 31,
    "country_code": "BR",
    "latitude": "-14.79722000",
    "longitude": "-57.28806000",
    "wikiDataId": null
  },
  {
    "id": 13432,
    "name": "Nova Santa Helena",
    "state_id": 2011,
    "state_code": "MT",
    "country_id": 31,
    "country_code": "BR",
    "latitude": "-10.92036000",
    "longitude": "-54.90636000",
    "wikiDataId": null
  },
  {
    "id": 13441,
    "name": "Nova Ubiratã",
    "state_id": 2011,
    "state_code": "MT",
    "country_id": 31,
    "country_code": "BR",
    "latitude": "-12.68233000",
    "longitude": "-54.47729000",
    "wikiDataId": null
  },
  {
    "id": 13448,
    "name": "Nova Xavantina",
    "state_id": 2011,
    "state_code": "MT",
    "country_id": 31,
    "country_code": "BR",
    "latitude": "-14.66463000",
    "longitude": "-52.35558000",
    "wikiDataId": null
  },
  {
    "id": 13463,
    "name": "Novo Horizonte do Norte",
    "state_id": 2011,
    "state_code": "MT",
    "country_id": 31,
    "country_code": "BR",
    "latitude": "-11.37917000",
    "longitude": "-57.28359000",
    "wikiDataId": null
  },
  {
    "id": 13470,
    "name": "Novo Mundo",
    "state_id": 2011,
    "state_code": "MT",
    "country_id": 31,
    "country_code": "BR",
    "latitude": "-9.83661000",
    "longitude": "-55.31349000",
    "wikiDataId": null
  },
  {
    "id": 13478,
    "name": "Novo Santo Antônio",
    "state_id": 2011,
    "state_code": "MT",
    "country_id": 31,
    "country_code": "BR",
    "latitude": "-12.32606000",
    "longitude": "-50.91431000",
    "wikiDataId": null
  },
  {
    "id": 13479,
    "name": "Novo São Joaquim",
    "state_id": 2011,
    "state_code": "MT",
    "country_id": 31,
    "country_code": "BR",
    "latitude": "-15.09570000",
    "longitude": "-53.29575000",
    "wikiDataId": null
  },
  {
    "id": 13646,
    "name": "Paranaíta",
    "state_id": 2011,
    "state_code": "MT",
    "country_id": 31,
    "country_code": "BR",
    "latitude": "-9.56371000",
    "longitude": "-56.76536000",
    "wikiDataId": null
  },
  {
    "id": 13643,
    "name": "Paranatinga",
    "state_id": 2011,
    "state_code": "MT",
    "country_id": 31,
    "country_code": "BR",
    "latitude": "-13.34326000",
    "longitude": "-54.01552000",
    "wikiDataId": null
  },
  {
    "id": 13757,
    "name": "Pedra Preta",
    "state_id": 2011,
    "state_code": "MT",
    "country_id": 31,
    "country_code": "BR",
    "latitude": "-16.76381000",
    "longitude": "-54.16343000",
    "wikiDataId": null
  },
  {
    "id": 13789,
    "name": "Peixoto de Azevedo",
    "state_id": 2011,
    "state_code": "MT",
    "country_id": 31,
    "country_code": "BR",
    "latitude": "-10.14722000",
    "longitude": "-53.58639000",
    "wikiDataId": null
  },
  {
    "id": 13942,
    "name": "Planalto da Serra",
    "state_id": 2011,
    "state_code": "MT",
    "country_id": 31,
    "country_code": "BR",
    "latitude": "-14.56524000",
    "longitude": "-54.67771000",
    "wikiDataId": null
  },
  {
    "id": 13947,
    "name": "Poconé",
    "state_id": 2011,
    "state_code": "MT",
    "country_id": 31,
    "country_code": "BR",
    "latitude": "-16.25667000",
    "longitude": "-56.62278000",
    "wikiDataId": null
  },
  {
    "id": 13961,
    "name": "Pontal do Araguaia",
    "state_id": 2011,
    "state_code": "MT",
    "country_id": 31,
    "country_code": "BR",
    "latitude": "-15.96755000",
    "longitude": "-52.75421000",
    "wikiDataId": null
  },
  {
    "id": 13969,
    "name": "Ponte Branca",
    "state_id": 2011,
    "state_code": "MT",
    "country_id": 31,
    "country_code": "BR",
    "latitude": "-16.65050000",
    "longitude": "-52.90238000",
    "wikiDataId": null
  },
  {
    "id": 13974,
    "name": "Pontes e Lacerda",
    "state_id": 2011,
    "state_code": "MT",
    "country_id": 31,
    "country_code": "BR",
    "latitude": "-15.22611000",
    "longitude": "-59.33528000",
    "wikiDataId": null
  },
  {
    "id": 13995,
    "name": "Porto Alegre do Norte",
    "state_id": 2011,
    "state_code": "MT",
    "country_id": 31,
    "country_code": "BR",
    "latitude": "-10.85081000",
    "longitude": "-51.76934000",
    "wikiDataId": null
  },
  {
    "id": 14028,
    "name": "Porto dos Gaúchos",
    "state_id": 2011,
    "state_code": "MT",
    "country_id": 31,
    "country_code": "BR",
    "latitude": "-11.76043000",
    "longitude": "-56.85721000",
    "wikiDataId": null
  },
  {
    "id": 14002,
    "name": "Porto Esperidião",
    "state_id": 2011,
    "state_code": "MT",
    "country_id": 31,
    "country_code": "BR",
    "latitude": "-15.88622000",
    "longitude": "-58.97107000",
    "wikiDataId": null
  },
  {
    "id": 14003,
    "name": "Porto Estrela",
    "state_id": 2011,
    "state_code": "MT",
    "country_id": 31,
    "country_code": "BR",
    "latitude": "-15.51966000",
    "longitude": "-57.22942000",
    "wikiDataId": null
  },
  {
    "id": 14042,
    "name": "Poxoréo",
    "state_id": 2011,
    "state_code": "MT",
    "country_id": 31,
    "country_code": "BR",
    "latitude": "-15.83722000",
    "longitude": "-54.38917000",
    "wikiDataId": null
  },
  {
    "id": 14043,
    "name": "Poxoréu",
    "state_id": 2011,
    "state_code": "MT",
    "country_id": 31,
    "country_code": "BR",
    "latitude": "-15.75635000",
    "longitude": "-54.11866000",
    "wikiDataId": null
  },
  {
    "id": 14103,
    "name": "Primavera do Leste",
    "state_id": 2011,
    "state_code": "MT",
    "country_id": 31,
    "country_code": "BR",
    "latitude": "-15.14064000",
    "longitude": "-54.19501000",
    "wikiDataId": null
  },
  {
    "id": 14145,
    "name": "Querência",
    "state_id": 2011,
    "state_code": "MT",
    "country_id": 31,
    "country_code": "BR",
    "latitude": "-12.32120000",
    "longitude": "-52.54760000",
    "wikiDataId": null
  },
  {
    "id": 14200,
    "name": "Reserva do Cabaçal",
    "state_id": 2011,
    "state_code": "MT",
    "country_id": 31,
    "country_code": "BR",
    "latitude": "-14.92946000",
    "longitude": "-58.45849000",
    "wikiDataId": null
  },
  {
    "id": 14239,
    "name": "Ribeirão Cascalheira",
    "state_id": 2011,
    "state_code": "MT",
    "country_id": 31,
    "country_code": "BR",
    "latitude": "-12.73516000",
    "longitude": "-51.71456000",
    "wikiDataId": null
  },
  {
    "id": 14252,
    "name": "Ribeirãozinho",
    "state_id": 2011,
    "state_code": "MT",
    "country_id": 31,
    "country_code": "BR",
    "latitude": "-16.50143000",
    "longitude": "-52.75910000",
    "wikiDataId": null
  },
  {
    "id": 14264,
    "name": "Rio Branco",
    "state_id": 2011,
    "state_code": "MT",
    "country_id": 31,
    "country_code": "BR",
    "latitude": "-15.31117000",
    "longitude": "-58.12450000",
    "wikiDataId": null
  },
  {
    "id": 14343,
    "name": "Rondolândia",
    "state_id": 2011,
    "state_code": "MT",
    "country_id": 31,
    "country_code": "BR",
    "latitude": "-10.27573000",
    "longitude": "-61.06224000",
    "wikiDataId": null
  },
  {
    "id": 14346,
    "name": "Rondonópolis",
    "state_id": 2011,
    "state_code": "MT",
    "country_id": 31,
    "country_code": "BR",
    "latitude": "-16.47083000",
    "longitude": "-54.63556000",
    "wikiDataId": null
  },
  {
    "id": 14351,
    "name": "Rosário Oeste",
    "state_id": 2011,
    "state_code": "MT",
    "country_id": 31,
    "country_code": "BR",
    "latitude": "-14.83611000",
    "longitude": "-56.42750000",
    "wikiDataId": null
  },
  {
    "id": 14400,
    "name": "Salto do Céu",
    "state_id": 2011,
    "state_code": "MT",
    "country_id": 31,
    "country_code": "BR",
    "latitude": "-15.13439000",
    "longitude": "-57.95902000",
    "wikiDataId": null
  },
  {
    "id": 14431,
    "name": "Santa Carmem",
    "state_id": 2011,
    "state_code": "MT",
    "country_id": 31,
    "country_code": "BR",
    "latitude": "-11.90602000",
    "longitude": "-54.80769000",
    "wikiDataId": null
  },
  {
    "id": 14457,
    "name": "Santa Cruz do Xingu",
    "state_id": 2011,
    "state_code": "MT",
    "country_id": 31,
    "country_code": "BR",
    "latitude": "-10.15595000",
    "longitude": "-52.49799000",
    "wikiDataId": null
  },
  {
    "id": 14539,
    "name": "Santa Rita do Trivelato",
    "state_id": 2011,
    "state_code": "MT",
    "country_id": 31,
    "country_code": "BR",
    "latitude": "-13.71416000",
    "longitude": "-55.40171000",
    "wikiDataId": null
  },
  {
    "id": 14560,
    "name": "Santa Terezinha",
    "state_id": 2011,
    "state_code": "MT",
    "country_id": 31,
    "country_code": "BR",
    "latitude": "-10.39138000",
    "longitude": "-50.83261000",
    "wikiDataId": null
  },
  {
    "id": 14602,
    "name": "Santo Afonso",
    "state_id": 2011,
    "state_code": "MT",
    "country_id": 31,
    "country_code": "BR",
    "latitude": "-14.46134000",
    "longitude": "-57.38575000",
    "wikiDataId": null
  },
  {
    "id": 14631,
    "name": "Santo Antônio do Leste",
    "state_id": 2011,
    "state_code": "MT",
    "country_id": 31,
    "country_code": "BR",
    "latitude": "-14.82454000",
    "longitude": "-53.74136000",
    "wikiDataId": null
  },
  {
    "id": 14632,
    "name": "Santo Antônio do Leverger",
    "state_id": 2011,
    "state_code": "MT",
    "country_id": 31,
    "country_code": "BR",
    "latitude": "-16.78576000",
    "longitude": "-55.31327000",
    "wikiDataId": null
  },
  {
    "id": 14902,
    "name": "São Félix do Araguaia",
    "state_id": 2011,
    "state_code": "MT",
    "country_id": 31,
    "country_code": "BR",
    "latitude": "-11.44230000",
    "longitude": "-52.13916000",
    "wikiDataId": null
  },
  {
    "id": 14982,
    "name": "São José do Povo",
    "state_id": 2011,
    "state_code": "MT",
    "country_id": 31,
    "country_code": "BR",
    "latitude": "-16.44547000",
    "longitude": "-54.28499000",
    "wikiDataId": null
  },
  {
    "id": 14983,
    "name": "São José do Rio Claro",
    "state_id": 2011,
    "state_code": "MT",
    "country_id": 31,
    "country_code": "BR",
    "latitude": "-13.52704000",
    "longitude": "-56.85065000",
    "wikiDataId": null
  },
  {
    "id": 14990,
    "name": "São José do Xingu",
    "state_id": 2011,
    "state_code": "MT",
    "country_id": 31,
    "country_code": "BR",
    "latitude": "-10.72794000",
    "longitude": "-52.62112000",
    "wikiDataId": null
  },
  {
    "id": 14996,
    "name": "São José dos Quatro Marcos",
    "state_id": 2011,
    "state_code": "MT",
    "country_id": 31,
    "country_code": "BR",
    "latitude": "-15.56664000",
    "longitude": "-58.29717000",
    "wikiDataId": null
  },
  {
    "id": 15109,
    "name": "São Pedro da Cipa",
    "state_id": 2011,
    "state_code": "MT",
    "country_id": 31,
    "country_code": "BR",
    "latitude": "-15.95162000",
    "longitude": "-54.77958000",
    "wikiDataId": null
  },
  {
    "id": 14657,
    "name": "Sapezal",
    "state_id": 2011,
    "state_code": "MT",
    "country_id": 31,
    "country_code": "BR",
    "latitude": "-13.16448000",
    "longitude": "-58.68788000",
    "wikiDataId": null
  },
  {
    "id": 14731,
    "name": "Serra Nova Dourada",
    "state_id": 2011,
    "state_code": "MT",
    "country_id": 31,
    "country_code": "BR",
    "latitude": "-12.02901000",
    "longitude": "-51.33412000",
    "wikiDataId": null
  },
  {
    "id": 14791,
    "name": "Sinop",
    "state_id": 2011,
    "state_code": "MT",
    "country_id": 31,
    "country_code": "BR",
    "latitude": "-11.86417000",
    "longitude": "-55.50250000",
    "wikiDataId": null
  },
  {
    "id": 14812,
    "name": "Sorriso",
    "state_id": 2011,
    "state_code": "MT",
    "country_id": 31,
    "country_code": "BR",
    "latitude": "-12.68167000",
    "longitude": "-55.69953000",
    "wikiDataId": null
  },
  {
    "id": 15182,
    "name": "Tabaporã",
    "state_id": 2011,
    "state_code": "MT",
    "country_id": 31,
    "country_code": "BR",
    "latitude": "-11.05295000",
    "longitude": "-56.64189000",
    "wikiDataId": null
  },
  {
    "id": 15217,
    "name": "Tangará da Serra",
    "state_id": 2011,
    "state_code": "MT",
    "country_id": 31,
    "country_code": "BR",
    "latitude": "-14.52323000",
    "longitude": "-58.09862000",
    "wikiDataId": null
  },
  {
    "id": 15239,
    "name": "Tapurah",
    "state_id": 2011,
    "state_code": "MT",
    "country_id": 31,
    "country_code": "BR",
    "latitude": "-12.74260000",
    "longitude": "-56.46149000",
    "wikiDataId": null
  },
  {
    "id": 15293,
    "name": "Terra Nova do Norte",
    "state_id": 2011,
    "state_code": "MT",
    "country_id": 31,
    "country_code": "BR",
    "latitude": "-10.49541000",
    "longitude": "-54.95547000",
    "wikiDataId": null
  },
  {
    "id": 15299,
    "name": "Tesouro",
    "state_id": 2011,
    "state_code": "MT",
    "country_id": 31,
    "country_code": "BR",
    "latitude": "-15.94904000",
    "longitude": "-53.43342000",
    "wikiDataId": null
  },
  {
    "id": 15338,
    "name": "Torixoréu",
    "state_id": 2011,
    "state_code": "MT",
    "country_id": 31,
    "country_code": "BR",
    "latitude": "-16.27591000",
    "longitude": "-52.88117000",
    "wikiDataId": null
  },
  {
    "id": 15462,
    "name": "União do Sul",
    "state_id": 2011,
    "state_code": "MT",
    "country_id": 31,
    "country_code": "BR",
    "latitude": "-11.47198000",
    "longitude": "-54.18806000",
    "wikiDataId": null
  },
  {
    "id": 15493,
    "name": "Vale de São Domingos",
    "state_id": 2011,
    "state_code": "MT",
    "country_id": 31,
    "country_code": "BR",
    "latitude": "-14.97590000",
    "longitude": "-58.96377000",
    "wikiDataId": null
  },
  {
    "id": 15618,
    "name": "Várzea Grande",
    "state_id": 2011,
    "state_code": "MT",
    "country_id": 31,
    "country_code": "BR",
    "latitude": "-15.56582000",
    "longitude": "-56.24391000",
    "wikiDataId": null
  },
  {
    "id": 15531,
    "name": "Vera",
    "state_id": 2011,
    "state_code": "MT",
    "country_id": 31,
    "country_code": "BR",
    "latitude": "-12.46612000",
    "longitude": "-55.34810000",
    "wikiDataId": null
  },
  {
    "id": 15565,
    "name": "Vila Bela da Santíssima Trindade",
    "state_id": 2011,
    "state_code": "MT",
    "country_id": 31,
    "country_code": "BR",
    "latitude": "-14.89148000",
    "longitude": "-60.05777000",
    "wikiDataId": null
  },
  {
    "id": 15576,
    "name": "Vila Rica",
    "state_id": 2011,
    "state_code": "MT",
    "country_id": 31,
    "country_code": "BR",
    "latitude": "-10.13413000",
    "longitude": "-51.41369000",
    "wikiDataId": null
  }
]