[
  {
    "id": 3901,
    "name": "Badakhshan",
    "country_id": 1,
    "country_code": "AF",
    "state_code": "BDS",
    "type": "province",
    "latitude": "36.80402540",
    "longitude": "71.36765800",
    "iso3166_2": "AF-BDS",
    "native": "بدخشان",
    "timezone": "Asia/Kabul"
  },
  {
    "id": 3871,
    "name": "Badghis",
    "country_id": 1,
    "country_code": "AF",
    "state_code": "BDG",
    "type": "province",
    "latitude": "35.00000000",
    "longitude": "63.75000000",
    "iso3166_2": "AF-BDG",
    "native": "بادغیس",
    "timezone": "Asia/Kabul"
  },
  {
    "id": 3875,
    "name": "Baghlan",
    "country_id": 1,
    "country_code": "AF",
    "state_code": "BGL",
    "type": "province",
    "latitude": "36.17890260",
    "longitude": "68.74530640",
    "iso3166_2": "AF-BGL",
    "native": "بغلان",
    "timezone": "Asia/Kabul"
  },
  {
    "id": 3884,
    "name": "Balkh",
    "country_id": 1,
    "country_code": "AF",
    "state_code": "BAL",
    "type": "province",
    "latitude": "36.75506030",
    "longitude": "66.89753720",
    "iso3166_2": "AF-BAL",
    "native": "بلخ",
    "timezone": "Asia/Kabul"
  },
  {
    "id": 3872,
    "name": "Bamyan",
    "country_id": 1,
    "country_code": "AF",
    "state_code": "BAM",
    "type": "province",
    "latitude": "34.79463100",
    "longitude": "67.68433400",
    "iso3166_2": "AF-BAM",
    "native": "بامیان",
    "timezone": "Asia/Kabul"
  },
  {
    "id": 3892,
    "name": "Daykundi",
    "country_id": 1,
    "country_code": "AF",
    "state_code": "DAY",
    "type": "province",
    "latitude": "33.72511300",
    "longitude": "66.21965540",
    "iso3166_2": "AF-DAY",
    "native": "دیوکونډي",
    "timezone": "Asia/Kabul"
  },
  {
    "id": 3899,
    "name": "Farah",
    "country_id": 1,
    "country_code": "AF",
    "state_code": "FRA",
    "type": "province",
    "latitude": "32.37409070",
    "longitude": "62.11462660",
    "iso3166_2": "AF-FRA",
    "native": "فراه",
    "timezone": "Asia/Kabul"
  },
  {
    "id": 3889,
    "name": "Faryab",
    "country_id": 1,
    "country_code": "AF",
    "state_code": "FYB",
    "type": "province",
    "latitude": "35.92617840",
    "longitude": "64.62377580",
    "iso3166_2": "AF-FYB",
    "native": "د فارماب",
    "timezone": "Asia/Kabul"
  },
  {
    "id": 3870,
    "name": "Ghazni",
    "country_id": 1,
    "country_code": "AF",
    "state_code": "GHA",
    "type": "province",
    "latitude": "33.54505870",
    "longitude": "68.41739720",
    "iso3166_2": "AF-GHA",
    "native": "غزني",
    "timezone": "Asia/Kabul"
  },
  {
    "id": 3888,
    "name": "Ghōr",
    "country_id": 1,
    "country_code": "AF",
    "state_code": "GHO",
    "type": "province",
    "latitude": "34.16052570",
    "longitude": "64.92019490",
    "iso3166_2": "AF-GHO",
    "native": "جور",
    "timezone": "Asia/Kabul"
  },
  {
    "id": 3873,
    "name": "Helmand",
    "country_id": 1,
    "country_code": "AF",
    "state_code": "HEL",
    "type": "province",
    "latitude": "31.00000000",
    "longitude": "64.00000000",
    "iso3166_2": "AF-HEL",
    "native": "هلمند",
    "timezone": "Asia/Kabul"
  },
  {
    "id": 3887,
    "name": "Herat",
    "country_id": 1,
    "country_code": "AF",
    "state_code": "HER",
    "type": "province",
    "latitude": "34.34914430",
    "longitude": "62.21632520",
    "iso3166_2": "AF-HER",
    "native": "هرات",
    "timezone": "Asia/Kabul"
  },
  {
    "id": 3886,
    "name": "Jowzjan",
    "country_id": 1,
    "country_code": "AF",
    "state_code": "JOW",
    "type": "province",
    "latitude": "36.96657060",
    "longitude": "65.95602320",
    "iso3166_2": "AF-JOW",
    "native": "جوزجان",
    "timezone": "Asia/Kabul"
  },
  {
    "id": 3902,
    "name": "Kabul",
    "country_id": 1,
    "country_code": "AF",
    "state_code": "KAB",
    "type": "province",
    "latitude": "34.52664310",
    "longitude": "69.18490820",
    "iso3166_2": "AF-KAB",
    "native": "کابل",
    "timezone": "Asia/Kabul"
  },
  {
    "id": 3890,
    "name": "Kandahar",
    "country_id": 1,
    "country_code": "AF",
    "state_code": "KAN",
    "type": "province",
    "latitude": "31.62057380",
    "longitude": "65.71575730",
    "iso3166_2": "AF-KAN",
    "native": "کندهار",
    "timezone": "Asia/Kabul"
  },
  {
    "id": 3879,
    "name": "Kapisa",
    "country_id": 1,
    "country_code": "AF",
    "state_code": "KAP",
    "type": "province",
    "latitude": "34.90555600",
    "longitude": "69.74166700",
    "iso3166_2": "AF-KAP",
    "native": "کیپټن",
    "timezone": "Asia/Kabul"
  },
  {
    "id": 3878,
    "name": "Khost",
    "country_id": 1,
    "country_code": "AF",
    "state_code": "KHO",
    "type": "province",
    "latitude": "33.33914020",
    "longitude": "69.92063590",
    "iso3166_2": "AF-KHO",
    "native": "خوست",
    "timezone": "Asia/Kabul"
  },
  {
    "id": 3876,
    "name": "Kunar",
    "country_id": 1,
    "country_code": "AF",
    "state_code": "KNR",
    "type": "province",
    "latitude": "34.95000000",
    "longitude": "71.13333300",
    "iso3166_2": "AF-KNR",
    "native": "دری برابره",
    "timezone": "Asia/Kabul"
  },
  {
    "id": 3900,
    "name": "Kunduz Province",
    "country_id": 1,
    "country_code": "AF",
    "state_code": "KDZ",
    "type": "province",
    "latitude": "36.87071870",
    "longitude": "68.75635280",
    "iso3166_2": "AF-KDZ",
    "native": "کندز ولایت",
    "timezone": "Asia/Kabul"
  },
  {
    "id": 3891,
    "name": "Laghman",
    "country_id": 1,
    "country_code": "AF",
    "state_code": "LAG",
    "type": "province",
    "latitude": "34.78333300",
    "longitude": "70.18333300",
    "iso3166_2": "AF-LAG",
    "native": "لغمان",
    "timezone": "Asia/Kabul"
  },
  {
    "id": 3897,
    "name": "Logar",
    "country_id": 1,
    "country_code": "AF",
    "state_code": "LOG",
    "type": "province",
    "latitude": "34.06535950",
    "longitude": "69.16017200",
    "iso3166_2": "AF-LOG",
    "native": "لوګر",
    "timezone": "Asia/Kabul"
  },
  {
    "id": 3882,
    "name": "Nangarhar",
    "country_id": 1,
    "country_code": "AF",
    "state_code": "NAN",
    "type": "province",
    "latitude": "34.22038900",
    "longitude": "70.38003140",
    "iso3166_2": "AF-NAN",
    "native": "ننګرهار",
    "timezone": "Asia/Kabul"
  },
  {
    "id": 3896,
    "name": "Nimruz",
    "country_id": 1,
    "country_code": "AF",
    "state_code": "NIM",
    "type": "province",
    "latitude": "30.77538110",
    "longitude": "62.47930880",
    "iso3166_2": "AF-NIM",
    "native": "نیمروز",
    "timezone": "Asia/Kabul"
  },
  {
    "id": 3880,
    "name": "Nuristan",
    "country_id": 1,
    "country_code": "AF",
    "state_code": "NUR",
    "type": "province",
    "latitude": "35.30000000",
    "longitude": "70.83333300",
    "iso3166_2": "AF-NUR",
    "native": "نورستان",
    "timezone": "Asia/Kabul"
  },
  {
    "id": 3894,
    "name": "Paktia",
    "country_id": 1,
    "country_code": "AF",
    "state_code": "PIA",
    "type": "province",
    "latitude": "33.70572400",
    "longitude": "69.40835550",
    "iso3166_2": "AF-PIA",
    "native": "بسته",
    "timezone": "Asia/Kabul"
  },
  {
    "id": 3877,
    "name": "Paktika",
    "country_id": 1,
    "country_code": "AF",
    "state_code": "PKA",
    "type": "province",
    "latitude": "32.39362310",
    "longitude": "68.70365140",
    "iso3166_2": "AF-PKA",
    "native": "بسته",
    "timezone": "Asia/Kabul"
  },
  {
    "id": 3881,
    "name": "Panjshir",
    "country_id": 1,
    "country_code": "AF",
    "state_code": "PAN",
    "type": "province",
    "latitude": "35.69735560",
    "longitude": "70.09996040",
    "iso3166_2": "AF-PAN",
    "native": "پنجشیر",
    "timezone": "Asia/Kabul"
  },
  {
    "id": 3895,
    "name": "Parwan",
    "country_id": 1,
    "country_code": "AF",
    "state_code": "PAR",
    "type": "province",
    "latitude": "34.97970140",
    "longitude": "68.91467030",
    "iso3166_2": "AF-PAR",
    "native": "ایوان",
    "timezone": "Asia/Kabul"
  },
  {
    "id": 3883,
    "name": "Samangan",
    "country_id": 1,
    "country_code": "AF",
    "state_code": "SAM",
    "type": "province",
    "latitude": "36.26749380",
    "longitude": "68.02153740",
    "iso3166_2": "AF-SAM",
    "native": "خدايه",
    "timezone": "Asia/Kabul"
  },
  {
    "id": 3885,
    "name": "Sar-e Pol",
    "country_id": 1,
    "country_code": "AF",
    "state_code": "SAR",
    "type": "province",
    "latitude": "36.21662800",
    "longitude": "65.93336000",
    "iso3166_2": "AF-SAR",
    "native": "سرپل پول",
    "timezone": "Asia/Kabul"
  },
  {
    "id": 3893,
    "name": "Takhar",
    "country_id": 1,
    "country_code": "AF",
    "state_code": "TAK",
    "type": "province",
    "latitude": "36.59407320",
    "longitude": "69.79389960",
    "iso3166_2": "AF-TAK",
    "native": "تخار",
    "timezone": "Asia/Kabul"
  },
  {
    "id": 3898,
    "name": "Urozgan",
    "country_id": 1,
    "country_code": "AF",
    "state_code": "URU",
    "type": "province",
    "latitude": "32.81296810",
    "longitude": "66.01831850",
    "iso3166_2": "AF-URU",
    "native": "ارزګان",
    "timezone": "Asia/Kabul"
  },
  {
    "id": 5468,
    "name": "Wardak",
    "country_id": 1,
    "country_code": "AF",
    "state_code": "WAR",
    "type": "province",
    "latitude": "34.30000000",
    "longitude": "68.50000000",
    "iso3166_2": "AF-WAR",
    "native": "میدان وردک",
    "timezone": "Asia/Kabul"
  },
  {
    "id": 3874,
    "name": "Zabul",
    "country_id": 1,
    "country_code": "AF",
    "state_code": "ZAB",
    "type": "province",
    "latitude": "32.30689420",
    "longitude": "67.12990400",
    "iso3166_2": "AF-ZAB",
    "native": "زابل",
    "timezone": "Asia/Kabul"
  }
]