[
  {
    "id": 1917,
    "name": "Ba",
    "country_id": 73,
    "country_code": "FJ",
    "state_code": "01",
    "type": "province",
    "latitude": "36.06138930",
    "longitude": "-95.80058720",
    "iso3166_2": "FJ-01",
    "native": "Ba",
    "timezone": "Pacific/Fiji"
  },
  {
    "id": 1930,
    "name": "Bua",
    "country_id": 73,
    "country_code": "FJ",
    "state_code": "02",
    "type": "province",
    "latitude": "43.09645840",
    "longitude": "-89.50088000",
    "iso3166_2": "FJ-02",
    "native": "Bua",
    "timezone": "Pacific/Fiji"
  },
  {
    "id": 1924,
    "name": "Cakaudrove",
    "country_id": 73,
    "country_code": "FJ",
    "state_code": "03",
    "type": "province",
    "latitude": "-16.81336480",
    "longitude": "179.28686820",
    "iso3166_2": "FJ-03",
    "native": "Cakaudrove",
    "timezone": "Pacific/Fiji"
  },
  {
    "id": 1929,
    "name": "Central",
    "country_id": 73,
    "country_code": "FJ",
    "state_code": "C",
    "type": "division",
    "latitude": "34.04400660",
    "longitude": "-118.24727380",
    "iso3166_2": "FJ-C",
    "native": "Central",
    "timezone": "Pacific/Fiji"
  },
  {
    "id": 1932,
    "name": "Eastern",
    "country_id": 73,
    "country_code": "FJ",
    "state_code": "E",
    "type": "division",
    "latitude": "32.80943050",
    "longitude": "-117.12899370",
    "iso3166_2": "FJ-E",
    "native": "Eastern",
    "timezone": "Pacific/Fiji"
  },
  {
    "id": 1934,
    "name": "Kadavu",
    "country_id": 73,
    "country_code": "FJ",
    "state_code": "04",
    "type": "province",
    "latitude": "-19.01271220",
    "longitude": "178.18766760",
    "iso3166_2": "FJ-04",
    "native": "Kadavu",
    "timezone": "Pacific/Fiji"
  },
  {
    "id": 1933,
    "name": "Lau",
    "country_id": 73,
    "country_code": "FJ",
    "state_code": "05",
    "type": "province",
    "latitude": "31.66870150",
    "longitude": "-106.39557630",
    "iso3166_2": "FJ-05",
    "native": "Lau",
    "timezone": "Pacific/Fiji"
  },
  {
    "id": 1916,
    "name": "Lomaiviti",
    "country_id": 73,
    "country_code": "FJ",
    "state_code": "06",
    "type": "province",
    "latitude": "-17.70900000",
    "longitude": "179.09100000",
    "iso3166_2": "FJ-06",
    "native": "Lomaiviti",
    "timezone": "Pacific/Fiji"
  },
  {
    "id": 1922,
    "name": "Macuata",
    "country_id": 73,
    "country_code": "FJ",
    "state_code": "07",
    "type": "province",
    "latitude": "-16.48649220",
    "longitude": "179.28472510",
    "iso3166_2": "FJ-07",
    "native": "Mute",
    "timezone": "Pacific/Fiji"
  },
  {
    "id": 1919,
    "name": "Nadroga-Navosa",
    "country_id": 73,
    "country_code": "FJ",
    "state_code": "08",
    "type": "province",
    "latitude": "-17.98652780",
    "longitude": "177.65811300",
    "iso3166_2": "FJ-08",
    "native": "Grahoga-navos",
    "timezone": "Pacific/Fiji"
  },
  {
    "id": 1927,
    "name": "Naitasiri",
    "country_id": 73,
    "country_code": "FJ",
    "state_code": "09",
    "type": "province",
    "latitude": "-17.89757540",
    "longitude": "178.20715980",
    "iso3166_2": "FJ-09",
    "native": "I have it",
    "timezone": "Pacific/Fiji"
  },
  {
    "id": 1928,
    "name": "Namosi",
    "country_id": 73,
    "country_code": "FJ",
    "state_code": "10",
    "type": "province",
    "latitude": "-18.08641760",
    "longitude": "178.12913870",
    "iso3166_2": "FJ-10",
    "native": "Nomis",
    "timezone": "Pacific/Fiji"
  },
  {
    "id": 1921,
    "name": "Northern",
    "country_id": 73,
    "country_code": "FJ",
    "state_code": "N",
    "type": "division",
    "latitude": "-16.81336480",
    "longitude": "179.28686820",
    "iso3166_2": "FJ-N",
    "native": "Northern",
    "timezone": "Pacific/Fiji"
  },
  {
    "id": 1926,
    "name": "Ra",
    "country_id": 73,
    "country_code": "FJ",
    "state_code": "11",
    "type": "province",
    "latitude": "37.10031530",
    "longitude": "-95.67442460",
    "iso3166_2": "FJ-11",
    "native": "Ra",
    "timezone": "Pacific/Fiji"
  },
  {
    "id": 1920,
    "name": "Rewa",
    "country_id": 73,
    "country_code": "FJ",
    "state_code": "12",
    "type": "province",
    "latitude": "34.79235170",
    "longitude": "-82.36092640",
    "iso3166_2": "FJ-12",
    "native": "Rewa",
    "timezone": "Pacific/Fiji"
  },
  {
    "id": 1931,
    "name": "Rotuma",
    "country_id": 73,
    "country_code": "FJ",
    "state_code": "R",
    "type": "dependency",
    "latitude": "-12.50250690",
    "longitude": "177.07241640",
    "iso3166_2": "FJ-R",
    "native": "Rotum",
    "timezone": "Pacific/Fiji"
  },
  {
    "id": 1925,
    "name": "Serua",
    "country_id": 73,
    "country_code": "FJ",
    "state_code": "13",
    "type": "province",
    "latitude": "-18.18047490",
    "longitude": "178.05097900",
    "iso3166_2": "FJ-13",
    "native": "Serua",
    "timezone": "Pacific/Fiji"
  },
  {
    "id": 1918,
    "name": "Tailevu",
    "country_id": 73,
    "country_code": "FJ",
    "state_code": "14",
    "type": "province",
    "latitude": "-17.82691110",
    "longitude": "178.29324800",
    "iso3166_2": "FJ-14",
    "native": "Tailev",
    "timezone": "Pacific/Fiji"
  },
  {
    "id": 1923,
    "name": "Western",
    "country_id": 73,
    "country_code": "FJ",
    "state_code": "W",
    "type": "division",
    "latitude": "42.96621980",
    "longitude": "-78.70211340",
    "iso3166_2": "FJ-W",
    "native": "Western",
    "timezone": "Pacific/Fiji"
  }
]