[
  {
    "id": 22108,
    "name": "Albrechtice",
    "state_id": 4600,
    "state_code": "80",
    "country_id": 58,
    "country_code": "CZ",
    "latitude": "49.78645000",
    "longitude": "18.52444000",
    "wikiDataId": null
  },
  {
    "id": 22113,
    "name": "Bartošovice",
    "state_id": 4600,
    "state_code": "80",
    "country_id": 58,
    "country_code": "CZ",
    "latitude": "49.66884000",
    "longitude": "18.05461000",
    "wikiDataId": null
  },
  {
    "id": 22116,
    "name": "Baška",
    "state_id": 4600,
    "state_code": "80",
    "country_id": 58,
    "country_code": "CZ",
    "latitude": "49.64584000",
    "longitude": "18.37233000",
    "wikiDataId": null
  },
  {
    "id": 22194,
    "name": "Bílovec",
    "state_id": 4600,
    "state_code": "80",
    "country_id": 58,
    "country_code": "CZ",
    "latitude": "49.75639000",
    "longitude": "18.01581000",
    "wikiDataId": null
  },
  {
    "id": 22139,
    "name": "Bohumín",
    "state_id": 4600,
    "state_code": "80",
    "country_id": 58,
    "country_code": "CZ",
    "latitude": "49.90411000",
    "longitude": "18.35755000",
    "wikiDataId": null
  },
  {
    "id": 22140,
    "name": "Bohuslavice",
    "state_id": 4600,
    "state_code": "80",
    "country_id": 58,
    "country_code": "CZ",
    "latitude": "49.94232000",
    "longitude": "18.12866000",
    "wikiDataId": null
  },
  {
    "id": 22145,
    "name": "Bolatice",
    "state_id": 4600,
    "state_code": "80",
    "country_id": 58,
    "country_code": "CZ",
    "latitude": "49.95172000",
    "longitude": "18.08358000",
    "wikiDataId": null
  },
  {
    "id": 22161,
    "name": "Brantice",
    "state_id": 4600,
    "state_code": "80",
    "country_id": 58,
    "country_code": "CZ",
    "latitude": "50.06351000",
    "longitude": "17.62911000",
    "wikiDataId": null
  },
  {
    "id": 22210,
    "name": "Březová",
    "state_id": 4600,
    "state_code": "80",
    "country_id": 58,
    "country_code": "CZ",
    "latitude": "49.79158000",
    "longitude": "17.86556000",
    "wikiDataId": null
  },
  {
    "id": 22214,
    "name": "Břidličná",
    "state_id": 4600,
    "state_code": "80",
    "country_id": 58,
    "country_code": "CZ",
    "latitude": "49.91167000",
    "longitude": "17.37107000",
    "wikiDataId": null
  },
  {
    "id": 22171,
    "name": "Brumovice",
    "state_id": 4600,
    "state_code": "80",
    "country_id": 58,
    "country_code": "CZ",
    "latitude": "50.01530000",
    "longitude": "17.74958000",
    "wikiDataId": null
  },
  {
    "id": 22172,
    "name": "Bruntál",
    "state_id": 4600,
    "state_code": "80",
    "country_id": 58,
    "country_code": "CZ",
    "latitude": "49.98844000",
    "longitude": "17.46470000",
    "wikiDataId": null
  },
  {
    "id": 22173,
    "name": "Brušperk",
    "state_id": 4600,
    "state_code": "80",
    "country_id": 58,
    "country_code": "CZ",
    "latitude": "49.70010000",
    "longitude": "18.22210000",
    "wikiDataId": null
  },
  {
    "id": 22176,
    "name": "Budišov nad Budišovkou",
    "state_id": 4600,
    "state_code": "80",
    "country_id": 58,
    "country_code": "CZ",
    "latitude": "49.79511000",
    "longitude": "17.62969000",
    "wikiDataId": null
  },
  {
    "id": 22179,
    "name": "Bukovec",
    "state_id": 4600,
    "state_code": "80",
    "country_id": 58,
    "country_code": "CZ",
    "latitude": "49.55114000",
    "longitude": "18.82683000",
    "wikiDataId": null
  },
  {
    "id": 22186,
    "name": "Bystřice",
    "state_id": 4600,
    "state_code": "80",
    "country_id": 58,
    "country_code": "CZ",
    "latitude": "49.63657000",
    "longitude": "18.72038000",
    "wikiDataId": null
  },
  {
    "id": 23367,
    "name": "Čeladná",
    "state_id": 4600,
    "state_code": "80",
    "country_id": 58,
    "country_code": "CZ",
    "latitude": "49.54873000",
    "longitude": "18.33759000",
    "wikiDataId": null
  },
  {
    "id": 23395,
    "name": "Český Těšín",
    "state_id": 4600,
    "state_code": "80",
    "country_id": 58,
    "country_code": "CZ",
    "latitude": "49.74613000",
    "longitude": "18.62613000",
    "wikiDataId": null
  },
  {
    "id": 22218,
    "name": "Chlebičov",
    "state_id": 4600,
    "state_code": "80",
    "country_id": 58,
    "country_code": "CZ",
    "latitude": "49.95942000",
    "longitude": "17.96748000",
    "wikiDataId": null
  },
  {
    "id": 22229,
    "name": "Chotěbuz",
    "state_id": 4600,
    "state_code": "80",
    "country_id": 58,
    "country_code": "CZ",
    "latitude": "49.76849000",
    "longitude": "18.56912000",
    "wikiDataId": null
  },
  {
    "id": 22237,
    "name": "Chuchelná",
    "state_id": 4600,
    "state_code": "80",
    "country_id": 58,
    "country_code": "CZ",
    "latitude": "49.98664000",
    "longitude": "18.11656000",
    "wikiDataId": null
  },
  {
    "id": 22250,
    "name": "Darkovice",
    "state_id": 4600,
    "state_code": "80",
    "country_id": 58,
    "country_code": "CZ",
    "latitude": "49.93592000",
    "longitude": "18.22213000",
    "wikiDataId": null
  },
  {
    "id": 22321,
    "name": "Dětmarovice",
    "state_id": 4600,
    "state_code": "80",
    "country_id": 58,
    "country_code": "CZ",
    "latitude": "49.89412000",
    "longitude": "18.46079000",
    "wikiDataId": null
  },
  {
    "id": 22262,
    "name": "Dobrá",
    "state_id": 4600,
    "state_code": "80",
    "country_id": 58,
    "country_code": "CZ",
    "latitude": "49.67383000",
    "longitude": "18.41393000",
    "wikiDataId": null
  },
  {
    "id": 22257,
    "name": "Dobratice",
    "state_id": 4600,
    "state_code": "80",
    "country_id": 58,
    "country_code": "CZ",
    "latitude": "49.66039000",
    "longitude": "18.49226000",
    "wikiDataId": null
  },
  {
    "id": 22271,
    "name": "Dolní Benešov",
    "state_id": 4600,
    "state_code": "80",
    "country_id": 58,
    "country_code": "CZ",
    "latitude": "49.92101000",
    "longitude": "18.10835000",
    "wikiDataId": null
  },
  {
    "id": 22284,
    "name": "Dolní Lhota",
    "state_id": 4600,
    "state_code": "80",
    "country_id": 58,
    "country_code": "CZ",
    "latitude": "49.84236000",
    "longitude": "18.09241000",
    "wikiDataId": null
  },
  {
    "id": 22286,
    "name": "Dolní Lutyně",
    "state_id": 4600,
    "state_code": "80",
    "country_id": 58,
    "country_code": "CZ",
    "latitude": "49.89876000",
    "longitude": "18.42815000",
    "wikiDataId": null
  },
  {
    "id": 22300,
    "name": "Dolní Životice",
    "state_id": 4600,
    "state_code": "80",
    "country_id": 58,
    "country_code": "CZ",
    "latitude": "49.89732000",
    "longitude": "17.77969000",
    "wikiDataId": null
  },
  {
    "id": 22304,
    "name": "Doubrava",
    "state_id": 4600,
    "state_code": "80",
    "country_id": 58,
    "country_code": "CZ",
    "latitude": "49.85873000",
    "longitude": "18.48018000",
    "wikiDataId": null
  },
  {
    "id": 22318,
    "name": "Dvorce",
    "state_id": 4600,
    "state_code": "80",
    "country_id": 58,
    "country_code": "CZ",
    "latitude": "49.83332000",
    "longitude": "17.54762000",
    "wikiDataId": null
  },
  {
    "id": 22327,
    "name": "Frenštát pod Radhoštěm",
    "state_id": 4600,
    "state_code": "80",
    "country_id": 58,
    "country_code": "CZ",
    "latitude": "49.54835000",
    "longitude": "18.21078000",
    "wikiDataId": null
  },
  {
    "id": 22329,
    "name": "Fryčovice",
    "state_id": 4600,
    "state_code": "80",
    "country_id": 58,
    "country_code": "CZ",
    "latitude": "49.66677000",
    "longitude": "18.22321000",
    "wikiDataId": null
  },
  {
    "id": 22331,
    "name": "Frýdek-Místek",
    "state_id": 4600,
    "state_code": "80",
    "country_id": 58,
    "country_code": "CZ",
    "latitude": "49.68333000",
    "longitude": "18.35000000",
    "wikiDataId": null
  },
  {
    "id": 22333,
    "name": "Frýdlant nad Ostravicí",
    "state_id": 4600,
    "state_code": "80",
    "country_id": 58,
    "country_code": "CZ",
    "latitude": "49.59280000",
    "longitude": "18.35967000",
    "wikiDataId": null
  },
  {
    "id": 22334,
    "name": "Fulnek",
    "state_id": 4600,
    "state_code": "80",
    "country_id": 58,
    "country_code": "CZ",
    "latitude": "49.71238000",
    "longitude": "17.90319000",
    "wikiDataId": null
  },
  {
    "id": 22440,
    "name": "Háj ve Slezsku",
    "state_id": 4600,
    "state_code": "80",
    "country_id": 58,
    "country_code": "CZ",
    "latitude": "49.89856000",
    "longitude": "18.09540000",
    "wikiDataId": null
  },
  {
    "id": 22347,
    "name": "Hať",
    "state_id": 4600,
    "state_code": "80",
    "country_id": 58,
    "country_code": "CZ",
    "latitude": "49.94644000",
    "longitude": "18.23931000",
    "wikiDataId": null
  },
  {
    "id": 22345,
    "name": "Havířov",
    "state_id": 4600,
    "state_code": "80",
    "country_id": 58,
    "country_code": "CZ",
    "latitude": "49.77984000",
    "longitude": "18.43688000",
    "wikiDataId": null
  },
  {
    "id": 22358,
    "name": "Hlučín",
    "state_id": 4600,
    "state_code": "80",
    "country_id": 58,
    "country_code": "CZ",
    "latitude": "49.89795000",
    "longitude": "18.19196000",
    "wikiDataId": null
  },
  {
    "id": 22361,
    "name": "Hněvošice",
    "state_id": 4600,
    "state_code": "80",
    "country_id": 58,
    "country_code": "CZ",
    "latitude": "50.00299000",
    "longitude": "18.00829000",
    "wikiDataId": null
  },
  {
    "id": 22359,
    "name": "Hnojník",
    "state_id": 4600,
    "state_code": "80",
    "country_id": 58,
    "country_code": "CZ",
    "latitude": "49.68250000",
    "longitude": "18.54143000",
    "wikiDataId": null
  },
  {
    "id": 22366,
    "name": "Hodslavice",
    "state_id": 4600,
    "state_code": "80",
    "country_id": 58,
    "country_code": "CZ",
    "latitude": "49.53856000",
    "longitude": "18.02367000",
    "wikiDataId": null
  },
  {
    "id": 22367,
    "name": "Holasovice",
    "state_id": 4600,
    "state_code": "80",
    "country_id": 58,
    "country_code": "CZ",
    "latitude": "49.99843000",
    "longitude": "17.80847000",
    "wikiDataId": null
  },
  {
    "id": 22374,
    "name": "Horní Benešov",
    "state_id": 4600,
    "state_code": "80",
    "country_id": 58,
    "country_code": "CZ",
    "latitude": "49.96682000",
    "longitude": "17.60262000",
    "wikiDataId": null
  },
  {
    "id": 22376,
    "name": "Horní Bludovice",
    "state_id": 4600,
    "state_code": "80",
    "country_id": 58,
    "country_code": "CZ",
    "latitude": "49.74965000",
    "longitude": "18.43677000",
    "wikiDataId": null
  },
  {
    "id": 22384,
    "name": "Horní Město",
    "state_id": 4600,
    "state_code": "80",
    "country_id": 58,
    "country_code": "CZ",
    "latitude": "49.90845000",
    "longitude": "17.21112000",
    "wikiDataId": null
  },
  {
    "id": 22391,
    "name": "Horní Suchá",
    "state_id": 4600,
    "state_code": "80",
    "country_id": 58,
    "country_code": "CZ",
    "latitude": "49.79780000",
    "longitude": "18.48189000",
    "wikiDataId": null
  },
  {
    "id": 22392,
    "name": "Horní Těrlicko",
    "state_id": 4600,
    "state_code": "80",
    "country_id": 58,
    "country_code": "CZ",
    "latitude": "49.75177000",
    "longitude": "18.48290000",
    "wikiDataId": null
  },
  {
    "id": 22411,
    "name": "Hrabyně",
    "state_id": 4600,
    "state_code": "80",
    "country_id": 58,
    "country_code": "CZ",
    "latitude": "49.88249000",
    "longitude": "18.05483000",
    "wikiDataId": null
  },
  {
    "id": 22413,
    "name": "Hradec nad Moravici",
    "state_id": 4600,
    "state_code": "80",
    "country_id": 58,
    "country_code": "CZ",
    "latitude": "49.87042000",
    "longitude": "17.87843000",
    "wikiDataId": null
  },
  {
    "id": 22429,
    "name": "Hrádek",
    "state_id": 4600,
    "state_code": "80",
    "country_id": 58,
    "country_code": "CZ",
    "latitude": "49.61661000",
    "longitude": "18.73720000",
    "wikiDataId": null
  },
  {
    "id": 22433,
    "name": "Hukvaldy",
    "state_id": 4600,
    "state_code": "80",
    "country_id": 58,
    "country_code": "CZ",
    "latitude": "49.62381000",
    "longitude": "18.22189000",
    "wikiDataId": null
  },
  {
    "id": 22449,
    "name": "Jablunkov",
    "state_id": 4600,
    "state_code": "80",
    "country_id": 58,
    "country_code": "CZ",
    "latitude": "49.57672000",
    "longitude": "18.76458000",
    "wikiDataId": null
  },
  {
    "id": 22451,
    "name": "Jakartovice",
    "state_id": 4600,
    "state_code": "80",
    "country_id": 58,
    "country_code": "CZ",
    "latitude": "49.91510000",
    "longitude": "17.68400000",
    "wikiDataId": null
  },
  {
    "id": 22454,
    "name": "Janovice",
    "state_id": 4600,
    "state_code": "80",
    "country_id": 58,
    "country_code": "CZ",
    "latitude": "49.62141000",
    "longitude": "18.40602000",
    "wikiDataId": null
  },
  {
    "id": 22468,
    "name": "Jeseník nad Odrou",
    "state_id": 4600,
    "state_code": "80",
    "country_id": 58,
    "country_code": "CZ",
    "latitude": "49.61194000",
    "longitude": "17.90526000",
    "wikiDataId": null
  },
  {
    "id": 22475,
    "name": "Jindřichov",
    "state_id": 4600,
    "state_code": "80",
    "country_id": 58,
    "country_code": "CZ",
    "latitude": "50.25184000",
    "longitude": "17.51903000",
    "wikiDataId": null
  },
  {
    "id": 22480,
    "name": "Jistebník",
    "state_id": 4600,
    "state_code": "80",
    "country_id": 58,
    "country_code": "CZ",
    "latitude": "49.75400000",
    "longitude": "18.13063000",
    "wikiDataId": null
  },
  {
    "id": 22497,
    "name": "Karlovice",
    "state_id": 4600,
    "state_code": "80",
    "country_id": 58,
    "country_code": "CZ",
    "latitude": "50.10564000",
    "longitude": "17.44563000",
    "wikiDataId": null
  },
  {
    "id": 22501,
    "name": "Karviná",
    "state_id": 4600,
    "state_code": "80",
    "country_id": 58,
    "country_code": "CZ",
    "latitude": "49.85400000",
    "longitude": "18.54169000",
    "wikiDataId": null
  },
  {
    "id": 22515,
    "name": "Klimkovice",
    "state_id": 4600,
    "state_code": "80",
    "country_id": 58,
    "country_code": "CZ",
    "latitude": "49.78809000",
    "longitude": "18.12585000",
    "wikiDataId": null
  },
  {
    "id": 22524,
    "name": "Kobeřice",
    "state_id": 4600,
    "state_code": "80",
    "country_id": 58,
    "country_code": "CZ",
    "latitude": "49.98548000",
    "longitude": "18.05212000",
    "wikiDataId": null
  },
  {
    "id": 22530,
    "name": "Komorní Lhotka",
    "state_id": 4600,
    "state_code": "80",
    "country_id": 58,
    "country_code": "CZ",
    "latitude": "49.65811000",
    "longitude": "18.52777000",
    "wikiDataId": null
  },
  {
    "id": 22534,
    "name": "Kopřivnice",
    "state_id": 4600,
    "state_code": "80",
    "country_id": 58,
    "country_code": "CZ",
    "latitude": "49.59947000",
    "longitude": "18.14480000",
    "wikiDataId": null
  },
  {
    "id": 22547,
    "name": "Kozlovice",
    "state_id": 4600,
    "state_code": "80",
    "country_id": 58,
    "country_code": "CZ",
    "latitude": "49.59040000",
    "longitude": "18.25656000",
    "wikiDataId": null
  },
  {
    "id": 22548,
    "name": "Kozmice",
    "state_id": 4600,
    "state_code": "80",
    "country_id": 58,
    "country_code": "CZ",
    "latitude": "49.91280000",
    "longitude": "18.15584000",
    "wikiDataId": null
  },
  {
    "id": 22557,
    "name": "Kravaře",
    "state_id": 4600,
    "state_code": "80",
    "country_id": 58,
    "country_code": "CZ",
    "latitude": "49.93203000",
    "longitude": "18.00472000",
    "wikiDataId": null
  },
  {
    "id": 22558,
    "name": "Krmelín",
    "state_id": 4600,
    "state_code": "80",
    "country_id": 58,
    "country_code": "CZ",
    "latitude": "49.72914000",
    "longitude": "18.23541000",
    "wikiDataId": null
  },
  {
    "id": 22559,
    "name": "Krnov",
    "state_id": 4600,
    "state_code": "80",
    "country_id": 58,
    "country_code": "CZ",
    "latitude": "50.08967000",
    "longitude": "17.70385000",
    "wikiDataId": null
  },
  {
    "id": 22572,
    "name": "Kunčice pod Ondřejníkem",
    "state_id": 4600,
    "state_code": "80",
    "country_id": 58,
    "country_code": "CZ",
    "latitude": "49.55070000",
    "longitude": "18.26113000",
    "wikiDataId": null
  },
  {
    "id": 22571,
    "name": "Kunín",
    "state_id": 4600,
    "state_code": "80",
    "country_id": 58,
    "country_code": "CZ",
    "latitude": "49.63377000",
    "longitude": "17.98965000",
    "wikiDataId": null
  },
  {
    "id": 22614,
    "name": "Lichnov",
    "state_id": 4600,
    "state_code": "80",
    "country_id": 58,
    "country_code": "CZ",
    "latitude": "50.00786000",
    "longitude": "17.62640000",
    "wikiDataId": null
  },
  {
    "id": 22615,
    "name": "Lichnov (o. Nový Jičín)",
    "state_id": 4600,
    "state_code": "80",
    "country_id": 58,
    "country_code": "CZ",
    "latitude": "49.56423000",
    "longitude": "18.16898000",
    "wikiDataId": null
  },
  {
    "id": 22653,
    "name": "Lučina",
    "state_id": 4600,
    "state_code": "80",
    "country_id": 58,
    "country_code": "CZ",
    "latitude": "49.72082000",
    "longitude": "18.44776000",
    "wikiDataId": null
  },
  {
    "id": 22645,
    "name": "Ludgeřovice",
    "state_id": 4600,
    "state_code": "80",
    "country_id": 58,
    "country_code": "CZ",
    "latitude": "49.89042000",
    "longitude": "18.24008000",
    "wikiDataId": null
  },
  {
    "id": 22677,
    "name": "Markvartovice",
    "state_id": 4600,
    "state_code": "80",
    "country_id": 58,
    "country_code": "CZ",
    "latitude": "49.90595000",
    "longitude": "18.23602000",
    "wikiDataId": null
  },
  {
    "id": 22741,
    "name": "Město Albrechtice",
    "state_id": 4600,
    "state_code": "80",
    "country_id": 58,
    "country_code": "CZ",
    "latitude": "50.16294000",
    "longitude": "17.57481000",
    "wikiDataId": null
  },
  {
    "id": 22682,
    "name": "Metylovice",
    "state_id": 4600,
    "state_code": "80",
    "country_id": 58,
    "country_code": "CZ",
    "latitude": "49.60666000",
    "longitude": "18.33911000",
    "wikiDataId": null
  },
  {
    "id": 22692,
    "name": "Milíkov",
    "state_id": 4600,
    "state_code": "80",
    "country_id": 58,
    "country_code": "CZ",
    "latitude": "49.58565000",
    "longitude": "18.71943000",
    "wikiDataId": null
  },
  {
    "id": 22713,
    "name": "Mokré Lazce",
    "state_id": 4600,
    "state_code": "80",
    "country_id": 58,
    "country_code": "CZ",
    "latitude": "49.90462000",
    "longitude": "18.02954000",
    "wikiDataId": null
  },
  {
    "id": 22724,
    "name": "Morávka",
    "state_id": 4600,
    "state_code": "80",
    "country_id": 58,
    "country_code": "CZ",
    "latitude": "49.59607000",
    "longitude": "18.52471000",
    "wikiDataId": null
  },
  {
    "id": 22730,
    "name": "Mořkov",
    "state_id": 4600,
    "state_code": "80",
    "country_id": 58,
    "country_code": "CZ",
    "latitude": "49.53684000",
    "longitude": "18.05968000",
    "wikiDataId": null
  },
  {
    "id": 22728,
    "name": "Mosty u Jablunkova",
    "state_id": 4600,
    "state_code": "80",
    "country_id": 58,
    "country_code": "CZ",
    "latitude": "49.52737000",
    "longitude": "18.75417000",
    "wikiDataId": null
  },
  {
    "id": 22796,
    "name": "Návsí u Jablunkova",
    "state_id": 4600,
    "state_code": "80",
    "country_id": 58,
    "country_code": "CZ",
    "latitude": "49.58720000",
    "longitude": "18.75907000",
    "wikiDataId": null
  },
  {
    "id": 22788,
    "name": "Nový Jičín",
    "state_id": 4600,
    "state_code": "80",
    "country_id": 58,
    "country_code": "CZ",
    "latitude": "49.59438000",
    "longitude": "18.01028000",
    "wikiDataId": null
  },
  {
    "id": 22797,
    "name": "Nýdek",
    "state_id": 4600,
    "state_code": "80",
    "country_id": 58,
    "country_code": "CZ",
    "latitude": "49.65609000",
    "longitude": "18.75687000",
    "wikiDataId": null
  },
  {
    "id": 22804,
    "name": "Odry",
    "state_id": 4600,
    "state_code": "80",
    "country_id": 58,
    "country_code": "CZ",
    "latitude": "49.66255000",
    "longitude": "17.83084000",
    "wikiDataId": null
  },
  {
    "id": 22810,
    "name": "Okres Bruntál",
    "state_id": 4600,
    "state_code": "80",
    "country_id": 58,
    "country_code": "CZ",
    "latitude": "50.00000000",
    "longitude": "17.41667000",
    "wikiDataId": null
  },
  {
    "id": 22817,
    "name": "Okres Frýdek-Místek",
    "state_id": 4600,
    "state_code": "80",
    "country_id": 58,
    "country_code": "CZ",
    "latitude": "49.58333000",
    "longitude": "18.50000000",
    "wikiDataId": null
  },
  {
    "id": 22827,
    "name": "Okres Karviná",
    "state_id": 4600,
    "state_code": "80",
    "country_id": 58,
    "country_code": "CZ",
    "latitude": "49.83333000",
    "longitude": "18.50000000",
    "wikiDataId": null
  },
  {
    "id": 22839,
    "name": "Okres Nový Jičín",
    "state_id": 4600,
    "state_code": "80",
    "country_id": 58,
    "country_code": "CZ",
    "latitude": "49.66667000",
    "longitude": "18.00000000",
    "wikiDataId": null
  },
  {
    "id": 22843,
    "name": "Okres Opava",
    "state_id": 4600,
    "state_code": "80",
    "country_id": 58,
    "country_code": "CZ",
    "latitude": "49.83333000",
    "longitude": "17.91667000",
    "wikiDataId": null
  },
  {
    "id": 22844,
    "name": "Okres Ostrava-město",
    "state_id": 4600,
    "state_code": "80",
    "country_id": 58,
    "country_code": "CZ",
    "latitude": "49.83333000",
    "longitude": "18.25000000",
    "wikiDataId": null
  },
  {
    "id": 22884,
    "name": "Oldřišov",
    "state_id": 4600,
    "state_code": "80",
    "country_id": 58,
    "country_code": "CZ",
    "latitude": "49.99130000",
    "longitude": "17.96074000",
    "wikiDataId": null
  },
  {
    "id": 22892,
    "name": "Opava",
    "state_id": 4600,
    "state_code": "80",
    "country_id": 58,
    "country_code": "CZ",
    "latitude": "49.93866000",
    "longitude": "17.90257000",
    "wikiDataId": null
  },
  {
    "id": 22895,
    "name": "Orlová",
    "state_id": 4600,
    "state_code": "80",
    "country_id": 58,
    "country_code": "CZ",
    "latitude": "49.84527000",
    "longitude": "18.43011000",
    "wikiDataId": null
  },
  {
    "id": 22902,
    "name": "Osoblaha",
    "state_id": 4600,
    "state_code": "80",
    "country_id": 58,
    "country_code": "CZ",
    "latitude": "50.27517000",
    "longitude": "17.71523000",
    "wikiDataId": null
  },
  {
    "id": 22904,
    "name": "Ostrava",
    "state_id": 4600,
    "state_code": "80",
    "country_id": 58,
    "country_code": "CZ",
    "latitude": "49.83465000",
    "longitude": "18.28204000",
    "wikiDataId": null
  },
  {
    "id": 22905,
    "name": "Ostravice",
    "state_id": 4600,
    "state_code": "80",
    "country_id": 58,
    "country_code": "CZ",
    "latitude": "49.53510000",
    "longitude": "18.39164000",
    "wikiDataId": null
  },
  {
    "id": 22913,
    "name": "Otice",
    "state_id": 4600,
    "state_code": "80",
    "country_id": 58,
    "country_code": "CZ",
    "latitude": "49.91684000",
    "longitude": "17.86982000",
    "wikiDataId": null
  },
  {
    "id": 22918,
    "name": "Palkovice",
    "state_id": 4600,
    "state_code": "80",
    "country_id": 58,
    "country_code": "CZ",
    "latitude": "49.63467000",
    "longitude": "18.31508000",
    "wikiDataId": null
  },
  {
    "id": 22921,
    "name": "Paskov",
    "state_id": 4600,
    "state_code": "80",
    "country_id": 58,
    "country_code": "CZ",
    "latitude": "49.73179000",
    "longitude": "18.29037000",
    "wikiDataId": null
  },
  {
    "id": 22930,
    "name": "Petrovice u Karviné",
    "state_id": 4600,
    "state_code": "80",
    "country_id": 58,
    "country_code": "CZ",
    "latitude": "49.89587000",
    "longitude": "18.54779000",
    "wikiDataId": null
  },
  {
    "id": 22931,
    "name": "Petřvald",
    "state_id": 4600,
    "state_code": "80",
    "country_id": 58,
    "country_code": "CZ",
    "latitude": "49.83100000",
    "longitude": "18.38940000",
    "wikiDataId": null
  },
  {
    "id": 22992,
    "name": "Písek",
    "state_id": 4600,
    "state_code": "80",
    "country_id": 58,
    "country_code": "CZ",
    "latitude": "49.55924000",
    "longitude": "18.80231000",
    "wikiDataId": null
  },
  {
    "id": 22995,
    "name": "Píšť",
    "state_id": 4600,
    "state_code": "80",
    "country_id": 58,
    "country_code": "CZ",
    "latitude": "49.97857000",
    "longitude": "18.19349000",
    "wikiDataId": null
  },
  {
    "id": 22975,
    "name": "Pražmo",
    "state_id": 4600,
    "state_code": "80",
    "country_id": 58,
    "country_code": "CZ",
    "latitude": "49.60876000",
    "longitude": "18.48617000",
    "wikiDataId": null
  },
  {
    "id": 23007,
    "name": "Příbor",
    "state_id": 4600,
    "state_code": "80",
    "country_id": 58,
    "country_code": "CZ",
    "latitude": "49.64094000",
    "longitude": "18.14499000",
    "wikiDataId": null
  },
  {
    "id": 22990,
    "name": "Pustá Polom",
    "state_id": 4600,
    "state_code": "80",
    "country_id": 58,
    "country_code": "CZ",
    "latitude": "49.84917000",
    "longitude": "17.99790000",
    "wikiDataId": null
  },
  {
    "id": 23026,
    "name": "Raškovice",
    "state_id": 4600,
    "state_code": "80",
    "country_id": 58,
    "country_code": "CZ",
    "latitude": "49.61975000",
    "longitude": "18.47286000",
    "wikiDataId": null
  },
  {
    "id": 23401,
    "name": "Řepiště",
    "state_id": 4600,
    "state_code": "80",
    "country_id": 58,
    "country_code": "CZ",
    "latitude": "49.73338000",
    "longitude": "18.31707000",
    "wikiDataId": null
  },
  {
    "id": 23033,
    "name": "Ropice",
    "state_id": 4600,
    "state_code": "80",
    "country_id": 58,
    "country_code": "CZ",
    "latitude": "49.70536000",
    "longitude": "18.61345000",
    "wikiDataId": null
  },
  {
    "id": 23052,
    "name": "Rybí",
    "state_id": 4600,
    "state_code": "80",
    "country_id": 58,
    "country_code": "CZ",
    "latitude": "49.60073000",
    "longitude": "18.07592000",
    "wikiDataId": null
  },
  {
    "id": 23054,
    "name": "Rychvald",
    "state_id": 4600,
    "state_code": "80",
    "country_id": 58,
    "country_code": "CZ",
    "latitude": "49.86625000",
    "longitude": "18.37626000",
    "wikiDataId": null
  },
  {
    "id": 23057,
    "name": "Rýmařov",
    "state_id": 4600,
    "state_code": "80",
    "country_id": 58,
    "country_code": "CZ",
    "latitude": "49.93183000",
    "longitude": "17.27177000",
    "wikiDataId": null
  },
  {
    "id": 23064,
    "name": "Sedliště",
    "state_id": 4600,
    "state_code": "80",
    "country_id": 58,
    "country_code": "CZ",
    "latitude": "49.71836000",
    "longitude": "18.36869000",
    "wikiDataId": null
  },
  {
    "id": 23065,
    "name": "Sedlnice",
    "state_id": 4600,
    "state_code": "80",
    "country_id": 58,
    "country_code": "CZ",
    "latitude": "49.65770000",
    "longitude": "18.08690000",
    "wikiDataId": null
  },
  {
    "id": 23412,
    "name": "Šenov",
    "state_id": 4600,
    "state_code": "80",
    "country_id": 58,
    "country_code": "CZ",
    "latitude": "49.79315000",
    "longitude": "18.37607000",
    "wikiDataId": null
  },
  {
    "id": 23415,
    "name": "Šilheřovice",
    "state_id": 4600,
    "state_code": "80",
    "country_id": 58,
    "country_code": "CZ",
    "latitude": "49.92602000",
    "longitude": "18.27017000",
    "wikiDataId": null
  },
  {
    "id": 23081,
    "name": "Slavkov",
    "state_id": 4600,
    "state_code": "80",
    "country_id": 58,
    "country_code": "CZ",
    "latitude": "49.92180000",
    "longitude": "17.83641000",
    "wikiDataId": null
  },
  {
    "id": 23102,
    "name": "Stará Ves nad Ondřejnicí",
    "state_id": 4600,
    "state_code": "80",
    "country_id": 58,
    "country_code": "CZ",
    "latitude": "49.72775000",
    "longitude": "18.18850000",
    "wikiDataId": null
  },
  {
    "id": 23105,
    "name": "Staré Město",
    "state_id": 4600,
    "state_code": "80",
    "country_id": 58,
    "country_code": "CZ",
    "latitude": "49.66992000",
    "longitude": "18.36349000",
    "wikiDataId": null
  },
  {
    "id": 23116,
    "name": "Staříč",
    "state_id": 4600,
    "state_code": "80",
    "country_id": 58,
    "country_code": "CZ",
    "latitude": "49.68594000",
    "longitude": "18.27281000",
    "wikiDataId": null
  },
  {
    "id": 23110,
    "name": "Starý Bohumín",
    "state_id": 4600,
    "state_code": "80",
    "country_id": 58,
    "country_code": "CZ",
    "latitude": "49.91690000",
    "longitude": "18.33619000",
    "wikiDataId": null
  },
  {
    "id": 23111,
    "name": "Starý Jičín",
    "state_id": 4600,
    "state_code": "80",
    "country_id": 58,
    "country_code": "CZ",
    "latitude": "49.57686000",
    "longitude": "17.96169000",
    "wikiDataId": null
  },
  {
    "id": 23135,
    "name": "Stěbořice",
    "state_id": 4600,
    "state_code": "80",
    "country_id": 58,
    "country_code": "CZ",
    "latitude": "49.93708000",
    "longitude": "17.80547000",
    "wikiDataId": null
  },
  {
    "id": 23428,
    "name": "Štěpánkovice",
    "state_id": 4600,
    "state_code": "80",
    "country_id": 58,
    "country_code": "CZ",
    "latitude": "49.95738000",
    "longitude": "18.03741000",
    "wikiDataId": null
  },
  {
    "id": 23423,
    "name": "Štítina",
    "state_id": 4600,
    "state_code": "80",
    "country_id": 58,
    "country_code": "CZ",
    "latitude": "49.91487000",
    "longitude": "18.01245000",
    "wikiDataId": null
  },
  {
    "id": 23119,
    "name": "Stonava",
    "state_id": 4600,
    "state_code": "80",
    "country_id": 58,
    "country_code": "CZ",
    "latitude": "49.81691000",
    "longitude": "18.52518000",
    "wikiDataId": null
  },
  {
    "id": 23422,
    "name": "Štramberk",
    "state_id": 4600,
    "state_code": "80",
    "country_id": 58,
    "country_code": "CZ",
    "latitude": "49.59181000",
    "longitude": "18.11741000",
    "wikiDataId": null
  },
  {
    "id": 23134,
    "name": "Studénka",
    "state_id": 4600,
    "state_code": "80",
    "country_id": 58,
    "country_code": "CZ",
    "latitude": "49.72342000",
    "longitude": "18.07853000",
    "wikiDataId": null
  },
  {
    "id": 23148,
    "name": "Sviadnov",
    "state_id": 4600,
    "state_code": "80",
    "country_id": 58,
    "country_code": "CZ",
    "latitude": "49.68926000",
    "longitude": "18.32762000",
    "wikiDataId": null
  },
  {
    "id": 23164,
    "name": "Tichá",
    "state_id": 4600,
    "state_code": "80",
    "country_id": 58,
    "country_code": "CZ",
    "latitude": "49.56999000",
    "longitude": "18.22148000",
    "wikiDataId": null
  },
  {
    "id": 23205,
    "name": "Třinec",
    "state_id": 4600,
    "state_code": "80",
    "country_id": 58,
    "country_code": "CZ",
    "latitude": "49.67763000",
    "longitude": "18.67078000",
    "wikiDataId": null
  },
  {
    "id": 23177,
    "name": "Trojanovice",
    "state_id": 4600,
    "state_code": "80",
    "country_id": 58,
    "country_code": "CZ",
    "latitude": "49.52039000",
    "longitude": "18.23800000",
    "wikiDataId": null
  },
  {
    "id": 23310,
    "name": "Václavovice",
    "state_id": 4600,
    "state_code": "80",
    "country_id": 58,
    "country_code": "CZ",
    "latitude": "49.75531000",
    "longitude": "18.37220000",
    "wikiDataId": null
  },
  {
    "id": 23234,
    "name": "Velká Polom",
    "state_id": 4600,
    "state_code": "80",
    "country_id": 58,
    "country_code": "CZ",
    "latitude": "49.86359000",
    "longitude": "18.09331000",
    "wikiDataId": null
  },
  {
    "id": 23239,
    "name": "Velké Heraltice",
    "state_id": 4600,
    "state_code": "80",
    "country_id": 58,
    "country_code": "CZ",
    "latitude": "49.97493000",
    "longitude": "17.72879000",
    "wikiDataId": null
  },
  {
    "id": 23240,
    "name": "Velké Hoštice",
    "state_id": 4600,
    "state_code": "80",
    "country_id": 58,
    "country_code": "CZ",
    "latitude": "49.93609000",
    "longitude": "17.97380000",
    "wikiDataId": null
  },
  {
    "id": 23259,
    "name": "Vendryně",
    "state_id": 4600,
    "state_code": "80",
    "country_id": 58,
    "country_code": "CZ",
    "latitude": "49.66662000",
    "longitude": "18.71307000",
    "wikiDataId": null
  },
  {
    "id": 23265,
    "name": "Veřovice",
    "state_id": 4600,
    "state_code": "80",
    "country_id": 58,
    "country_code": "CZ",
    "latitude": "49.53916000",
    "longitude": "18.11425000",
    "wikiDataId": null
  },
  {
    "id": 23312,
    "name": "Vítkov",
    "state_id": 4600,
    "state_code": "80",
    "country_id": 58,
    "country_code": "CZ",
    "latitude": "49.77445000",
    "longitude": "17.74941000",
    "wikiDataId": null
  },
  {
    "id": 23283,
    "name": "Vlčnov",
    "state_id": 4600,
    "state_code": "80",
    "country_id": 58,
    "country_code": "CZ",
    "latitude": "49.57866000",
    "longitude": "17.95458000",
    "wikiDataId": null
  },
  {
    "id": 23294,
    "name": "Vratimov",
    "state_id": 4600,
    "state_code": "80",
    "country_id": 58,
    "country_code": "CZ",
    "latitude": "49.76995000",
    "longitude": "18.31015000",
    "wikiDataId": null
  },
  {
    "id": 23296,
    "name": "Vrbice",
    "state_id": 4600,
    "state_code": "80",
    "country_id": 58,
    "country_code": "CZ",
    "latitude": "49.88333000",
    "longitude": "18.31667000",
    "wikiDataId": null
  },
  {
    "id": 23297,
    "name": "Vrbno pod Pradědem",
    "state_id": 4600,
    "state_code": "80",
    "country_id": 58,
    "country_code": "CZ",
    "latitude": "50.12095000",
    "longitude": "17.38316000",
    "wikiDataId": null
  },
  {
    "id": 23316,
    "name": "Vřesina",
    "state_id": 4600,
    "state_code": "80",
    "country_id": 58,
    "country_code": "CZ",
    "latitude": "49.82418000",
    "longitude": "18.12569000",
    "wikiDataId": null
  },
  {
    "id": 23352,
    "name": "Zátor",
    "state_id": 4600,
    "state_code": "80",
    "country_id": 58,
    "country_code": "CZ",
    "latitude": "50.03413000",
    "longitude": "17.59296000",
    "wikiDataId": null
  }
]