[
  {
    "id": 76786,
    "name": "Azare",
    "state_id": 312,
    "state_code": "BA",
    "country_id": 161,
    "country_code": "NG",
    "latitude": "11.67478000",
    "longitude": "10.19069000",
    "wikiDataId": null
  },
  {
    "id": 76796,
    "name": "Bauchi",
    "state_id": 312,
    "state_code": "BA",
    "country_id": 161,
    "country_code": "NG",
    "latitude": "10.31032000",
    "longitude": "9.84388000",
    "wikiDataId": null
  },
  {
    "id": 76810,
    "name": "Boi",
    "state_id": 312,
    "state_code": "BA",
    "country_id": 161,
    "country_code": "NG",
    "latitude": "9.56109000",
    "longitude": "9.50154000",
    "wikiDataId": null
  },
  {
    "id": 76818,
    "name": "Bununu",
    "state_id": 312,
    "state_code": "BA",
    "country_id": 161,
    "country_code": "NG",
    "latitude": "9.88224000",
    "longitude": "9.68058000",
    "wikiDataId": null
  },
  {
    "id": 76835,
    "name": "Darazo",
    "state_id": 312,
    "state_code": "BA",
    "country_id": 161,
    "country_code": "NG",
    "latitude": "10.99920000",
    "longitude": "10.41062000",
    "wikiDataId": null
  },
  {
    "id": 76836,
    "name": "Dass",
    "state_id": 312,
    "state_code": "BA",
    "country_id": 161,
    "country_code": "NG",
    "latitude": "10.00065000",
    "longitude": "9.51596000",
    "wikiDataId": null
  },
  {
    "id": 76843,
    "name": "Dindima",
    "state_id": 312,
    "state_code": "BA",
    "country_id": 161,
    "country_code": "NG",
    "latitude": "10.22629000",
    "longitude": "10.15132000",
    "wikiDataId": null
  },
  {
    "id": 76844,
    "name": "Disina",
    "state_id": 312,
    "state_code": "BA",
    "country_id": 161,
    "country_code": "NG",
    "latitude": "11.48135000",
    "longitude": "9.91903000",
    "wikiDataId": null
  },
  {
    "id": 76871,
    "name": "Gabarin",
    "state_id": 312,
    "state_code": "BA",
    "country_id": 161,
    "country_code": "NG",
    "latitude": "11.10930000",
    "longitude": "10.44410000",
    "wikiDataId": null
  },
  {
    "id": 76898,
    "name": "Gwaram",
    "state_id": 312,
    "state_code": "BA",
    "country_id": 161,
    "country_code": "NG",
    "latitude": "10.23295000",
    "longitude": "10.28572000",
    "wikiDataId": null
  },
  {
    "id": 76978,
    "name": "Kari",
    "state_id": 312,
    "state_code": "BA",
    "country_id": 161,
    "country_code": "NG",
    "latitude": "11.24710000",
    "longitude": "10.56100000",
    "wikiDataId": null
  },
  {
    "id": 77005,
    "name": "Lame",
    "state_id": 312,
    "state_code": "BA",
    "country_id": 161,
    "country_code": "NG",
    "latitude": "10.44154000",
    "longitude": "9.23955000",
    "wikiDataId": null
  },
  {
    "id": 77009,
    "name": "Lere",
    "state_id": 312,
    "state_code": "BA",
    "country_id": 161,
    "country_code": "NG",
    "latitude": "9.71052000",
    "longitude": "9.34029000",
    "wikiDataId": null
  },
  {
    "id": 77015,
    "name": "Madara",
    "state_id": 312,
    "state_code": "BA",
    "country_id": 161,
    "country_code": "NG",
    "latitude": "11.77980000",
    "longitude": "10.44790000",
    "wikiDataId": null
  },
  {
    "id": 77031,
    "name": "Misau",
    "state_id": 312,
    "state_code": "BA",
    "country_id": 161,
    "country_code": "NG",
    "latitude": "11.31370000",
    "longitude": "10.46664000",
    "wikiDataId": null
  },
  {
    "id": 77095,
    "name": "Sade",
    "state_id": 312,
    "state_code": "BA",
    "country_id": 161,
    "country_code": "NG",
    "latitude": "11.35950000",
    "longitude": "10.67320000",
    "wikiDataId": null
  },
  {
    "id": 77140,
    "name": "Yamrat",
    "state_id": 312,
    "state_code": "BA",
    "country_id": 161,
    "country_code": "NG",
    "latitude": "10.11161000",
    "longitude": "9.82604000",
    "wikiDataId": null
  },
  {
    "id": 77141,
    "name": "Yanda Bayo",
    "state_id": 312,
    "state_code": "BA",
    "country_id": 161,
    "country_code": "NG",
    "latitude": "11.50710000",
    "longitude": "10.74590000",
    "wikiDataId": null
  },
  {
    "id": 77147,
    "name": "Yuli",
    "state_id": 312,
    "state_code": "BA",
    "country_id": 161,
    "country_code": "NG",
    "latitude": "9.69707000",
    "longitude": "10.27350000",
    "wikiDataId": null
  },
  {
    "id": 77148,
    "name": "Zadawa",
    "state_id": 312,
    "state_code": "BA",
    "country_id": 161,
    "country_code": "NG",
    "latitude": "11.44960000",
    "longitude": "10.36720000",
    "wikiDataId": null
  },
  {
    "id": 77150,
    "name": "Zalanga",
    "state_id": 312,
    "state_code": "BA",
    "country_id": 161,
    "country_code": "NG",
    "latitude": "10.61432000",
    "longitude": "10.17647000",
    "wikiDataId": null
  }
]