[
  {
    "id": 97522,
    "name": "Agryz",
    "state_id": 1861,
    "state_code": "TA",
    "country_id": 182,
    "country_code": "RU",
    "latitude": "56.52034000",
    "longitude": "52.99422000",
    "wikiDataId": null
  },
  {
    "id": 97523,
    "name": "Agryzskiy Rayon",
    "state_id": 1861,
    "state_code": "TA",
    "country_id": 182,
    "country_code": "RU",
    "latitude": "56.25000000",
    "longitude": "52.83333000",
    "wikiDataId": null
  },
  {
    "id": 97545,
    "name": "Aksubayevskiy Rayon",
    "state_id": 1861,
    "state_code": "TA",
    "country_id": 182,
    "country_code": "RU",
    "latitude": "54.83333000",
    "longitude": "50.83333000",
    "wikiDataId": null
  },
  {
    "id": 97546,
    "name": "Aktanysh",
    "state_id": 1861,
    "state_code": "TA",
    "country_id": 182,
    "country_code": "RU",
    "latitude": "55.72156000",
    "longitude": "54.08293000",
    "wikiDataId": null
  },
  {
    "id": 97547,
    "name": "Aktanyshskiy Rayon",
    "state_id": 1861,
    "state_code": "TA",
    "country_id": 182,
    "country_code": "RU",
    "latitude": "55.75000000",
    "longitude": "53.83333000",
    "wikiDataId": null
  },
  {
    "id": 97549,
    "name": "Aktyubinskiy",
    "state_id": 1861,
    "state_code": "TA",
    "country_id": 182,
    "country_code": "RU",
    "latitude": "54.81372000",
    "longitude": "52.80559000",
    "wikiDataId": null
  },
  {
    "id": 97607,
    "name": "Al’keyevskiy Rayon",
    "state_id": 1861,
    "state_code": "TA",
    "country_id": 182,
    "country_code": "RU",
    "latitude": "54.91667000",
    "longitude": "50.00000000",
    "wikiDataId": null
  },
  {
    "id": 97608,
    "name": "Al’met’yevsk",
    "state_id": 1861,
    "state_code": "TA",
    "country_id": 182,
    "country_code": "RU",
    "latitude": "54.90442000",
    "longitude": "52.31540000",
    "wikiDataId": null
  },
  {
    "id": 97609,
    "name": "Al’met’yevskiy Rayon",
    "state_id": 1861,
    "state_code": "TA",
    "country_id": 182,
    "country_code": "RU",
    "latitude": "54.91667000",
    "longitude": "52.41667000",
    "wikiDataId": null
  },
  {
    "id": 97581,
    "name": "Alekseyevskiy Rayon",
    "state_id": 1861,
    "state_code": "TA",
    "country_id": 182,
    "country_code": "RU",
    "latitude": "55.16667000",
    "longitude": "50.00000000",
    "wikiDataId": null
  },
  {
    "id": 97582,
    "name": "Alekseyevskoye",
    "state_id": 1861,
    "state_code": "TA",
    "country_id": 182,
    "country_code": "RU",
    "latitude": "55.30706000",
    "longitude": "50.11353000",
    "wikiDataId": null
  },
  {
    "id": 97647,
    "name": "Apastovo",
    "state_id": 1861,
    "state_code": "TA",
    "country_id": 182,
    "country_code": "RU",
    "latitude": "55.20293000",
    "longitude": "48.51091000",
    "wikiDataId": null
  },
  {
    "id": 97648,
    "name": "Apastovskiy Rayon",
    "state_id": 1861,
    "state_code": "TA",
    "country_id": 182,
    "country_code": "RU",
    "latitude": "55.25000000",
    "longitude": "48.50000000",
    "wikiDataId": null
  },
  {
    "id": 97681,
    "name": "Arsk",
    "state_id": 1861,
    "state_code": "TA",
    "country_id": 182,
    "country_code": "RU",
    "latitude": "56.09151000",
    "longitude": "49.87783000",
    "wikiDataId": null
  },
  {
    "id": 97682,
    "name": "Arskiy Rayon",
    "state_id": 1861,
    "state_code": "TA",
    "country_id": 182,
    "country_code": "RU",
    "latitude": "56.16667000",
    "longitude": "49.91667000",
    "wikiDataId": null
  },
  {
    "id": 97716,
    "name": "Atninskiy Rayon",
    "state_id": 1861,
    "state_code": "TA",
    "country_id": 182,
    "country_code": "RU",
    "latitude": "56.25000000",
    "longitude": "49.41667000",
    "wikiDataId": null
  },
  {
    "id": 97730,
    "name": "Aysha",
    "state_id": 1861,
    "state_code": "TA",
    "country_id": 182,
    "country_code": "RU",
    "latitude": "55.87035000",
    "longitude": "48.63187000",
    "wikiDataId": null
  },
  {
    "id": 97733,
    "name": "Aznakayevskiy Rayon",
    "state_id": 1861,
    "state_code": "TA",
    "country_id": 182,
    "country_code": "RU",
    "latitude": "54.91667000",
    "longitude": "53.00000000",
    "wikiDataId": null
  },
  {
    "id": 97780,
    "name": "Baltasi",
    "state_id": 1861,
    "state_code": "TA",
    "country_id": 182,
    "country_code": "RU",
    "latitude": "56.34620000",
    "longitude": "50.20620000",
    "wikiDataId": null
  },
  {
    "id": 97781,
    "name": "Baltasinskiy Rayon",
    "state_id": 1861,
    "state_code": "TA",
    "country_id": 182,
    "country_code": "RU",
    "latitude": "56.33333000",
    "longitude": "50.25000000",
    "wikiDataId": null
  },
  {
    "id": 97818,
    "name": "Bavlinskiy Rayon",
    "state_id": 1861,
    "state_code": "TA",
    "country_id": 182,
    "country_code": "RU",
    "latitude": "54.25000000",
    "longitude": "53.25000000",
    "wikiDataId": null
  },
  {
    "id": 97819,
    "name": "Bavly",
    "state_id": 1861,
    "state_code": "TA",
    "country_id": 182,
    "country_code": "RU",
    "latitude": "54.39304000",
    "longitude": "53.26023000",
    "wikiDataId": null
  },
  {
    "id": 97831,
    "name": "Bazarnyye Mataki",
    "state_id": 1861,
    "state_code": "TA",
    "country_id": 182,
    "country_code": "RU",
    "latitude": "54.88333000",
    "longitude": "49.93333000",
    "wikiDataId": null
  },
  {
    "id": 97930,
    "name": "Bilyarsk",
    "state_id": 1861,
    "state_code": "TA",
    "country_id": 182,
    "country_code": "RU",
    "latitude": "54.98358000",
    "longitude": "50.38671000",
    "wikiDataId": null
  },
  {
    "id": 97964,
    "name": "Bogatyye Saby",
    "state_id": 1861,
    "state_code": "TA",
    "country_id": 182,
    "country_code": "RU",
    "latitude": "56.01020000",
    "longitude": "50.44830000",
    "wikiDataId": null
  },
  {
    "id": 97990,
    "name": "Bolgar",
    "state_id": 1861,
    "state_code": "TA",
    "country_id": 182,
    "country_code": "RU",
    "latitude": "54.95000000",
    "longitude": "49.06667000",
    "wikiDataId": null
  },
  {
    "id": 98067,
    "name": "Bugul’ma",
    "state_id": 1861,
    "state_code": "TA",
    "country_id": 182,
    "country_code": "RU",
    "latitude": "54.53780000",
    "longitude": "52.79850000",
    "wikiDataId": null
  },
  {
    "id": 98068,
    "name": "Bugul’minskiy Rayon",
    "state_id": 1861,
    "state_code": "TA",
    "country_id": 182,
    "country_code": "RU",
    "latitude": "54.58333000",
    "longitude": "52.91667000",
    "wikiDataId": null
  },
  {
    "id": 98071,
    "name": "Buinsk",
    "state_id": 1861,
    "state_code": "TA",
    "country_id": 182,
    "country_code": "RU",
    "latitude": "54.97119000",
    "longitude": "48.29184000",
    "wikiDataId": null
  },
  {
    "id": 98072,
    "name": "Buinskiy Rayon",
    "state_id": 1861,
    "state_code": "TA",
    "country_id": 182,
    "country_code": "RU",
    "latitude": "55.00000000",
    "longitude": "48.25000000",
    "wikiDataId": null
  },
  {
    "id": 98150,
    "name": "Cheremshan",
    "state_id": 1861,
    "state_code": "TA",
    "country_id": 182,
    "country_code": "RU",
    "latitude": "54.66667000",
    "longitude": "51.50000000",
    "wikiDataId": null
  },
  {
    "id": 98152,
    "name": "Cheremshanskiy Rayon",
    "state_id": 1861,
    "state_code": "TA",
    "country_id": 182,
    "country_code": "RU",
    "latitude": "54.75000000",
    "longitude": "51.50000000",
    "wikiDataId": null
  },
  {
    "id": 98200,
    "name": "Chistopol’",
    "state_id": 1861,
    "state_code": "TA",
    "country_id": 182,
    "country_code": "RU",
    "latitude": "55.36311000",
    "longitude": "50.64244000",
    "wikiDataId": null
  },
  {
    "id": 98201,
    "name": "Chistopol’skiy Rayon",
    "state_id": 1861,
    "state_code": "TA",
    "country_id": 182,
    "country_code": "RU",
    "latitude": "55.33333000",
    "longitude": "50.75000000",
    "wikiDataId": null
  },
  {
    "id": 98327,
    "name": "Drozhzhanovskiy Rayon",
    "state_id": 1861,
    "state_code": "TA",
    "country_id": 182,
    "country_code": "RU",
    "latitude": "54.75000000",
    "longitude": "47.58333000",
    "wikiDataId": null
  },
  {
    "id": 98372,
    "name": "Dzhalil’",
    "state_id": 1861,
    "state_code": "TA",
    "country_id": 182,
    "country_code": "RU",
    "latitude": "55.02390000",
    "longitude": "52.73580000",
    "wikiDataId": null
  },
  {
    "id": 98548,
    "name": "Gorod Buinsk",
    "state_id": 1861,
    "state_code": "TA",
    "country_id": 182,
    "country_code": "RU",
    "latitude": "54.96694000",
    "longitude": "48.28500000",
    "wikiDataId": null
  },
  {
    "id": 98551,
    "name": "Gorod Kazan’",
    "state_id": 1861,
    "state_code": "TA",
    "country_id": 182,
    "country_code": "RU",
    "latitude": "55.75000000",
    "longitude": "49.13333000",
    "wikiDataId": null
  },
  {
    "id": 98553,
    "name": "Gorod Nizhnekamsk",
    "state_id": 1861,
    "state_code": "TA",
    "country_id": 182,
    "country_code": "RU",
    "latitude": "55.63333000",
    "longitude": "51.81667000",
    "wikiDataId": null
  },
  {
    "id": 98555,
    "name": "Gorod Yelabuga",
    "state_id": 1861,
    "state_code": "TA",
    "country_id": 182,
    "country_code": "RU",
    "latitude": "55.75000000",
    "longitude": "52.06667000",
    "wikiDataId": null
  },
  {
    "id": 98556,
    "name": "Gorod Zainsk",
    "state_id": 1861,
    "state_code": "TA",
    "country_id": 182,
    "country_code": "RU",
    "latitude": "55.31667000",
    "longitude": "52.05000000",
    "wikiDataId": null
  },
  {
    "id": 98557,
    "name": "Gorod Zelënodol’sk",
    "state_id": 1861,
    "state_code": "TA",
    "country_id": 182,
    "country_code": "RU",
    "latitude": "55.83333000",
    "longitude": "48.50000000",
    "wikiDataId": null
  },
  {
    "id": 98827,
    "name": "Kamsko-Ust’inskiy Rayon",
    "state_id": 1861,
    "state_code": "TA",
    "country_id": 182,
    "country_code": "RU",
    "latitude": "55.16667000",
    "longitude": "49.00000000",
    "wikiDataId": null
  },
  {
    "id": 98852,
    "name": "Karabash",
    "state_id": 1861,
    "state_code": "TA",
    "country_id": 182,
    "country_code": "RU",
    "latitude": "54.69300000",
    "longitude": "52.58359000",
    "wikiDataId": null
  },
  {
    "id": 98918,
    "name": "Kaybitskiy Rayon",
    "state_id": 1861,
    "state_code": "TA",
    "country_id": 182,
    "country_code": "RU",
    "latitude": "55.41667000",
    "longitude": "48.16667000",
    "wikiDataId": null
  },
  {
    "id": 98926,
    "name": "Kazan",
    "state_id": 1861,
    "state_code": "TA",
    "country_id": 182,
    "country_code": "RU",
    "latitude": "55.78874000",
    "longitude": "49.12214000",
    "wikiDataId": null
  },
  {
    "id": 99425,
    "name": "Kukmor",
    "state_id": 1861,
    "state_code": "TA",
    "country_id": 182,
    "country_code": "RU",
    "latitude": "56.18550000",
    "longitude": "50.89440000",
    "wikiDataId": null
  },
  {
    "id": 99426,
    "name": "Kukmorskiy Rayon",
    "state_id": 1861,
    "state_code": "TA",
    "country_id": 182,
    "country_code": "RU",
    "latitude": "56.25000000",
    "longitude": "50.66667000",
    "wikiDataId": null
  },
  {
    "id": 99496,
    "name": "Kuybyshevskiy Zaton",
    "state_id": 1861,
    "state_code": "TA",
    "country_id": 182,
    "country_code": "RU",
    "latitude": "55.15930000",
    "longitude": "49.17010000",
    "wikiDataId": null
  },
  {
    "id": 99535,
    "name": "Laishevo",
    "state_id": 1861,
    "state_code": "TA",
    "country_id": 182,
    "country_code": "RU",
    "latitude": "55.40464000",
    "longitude": "49.55037000",
    "wikiDataId": null
  },
  {
    "id": 99536,
    "name": "Laishevskiy Rayon",
    "state_id": 1861,
    "state_code": "TA",
    "country_id": 182,
    "country_code": "RU",
    "latitude": "55.50000000",
    "longitude": "49.58333000",
    "wikiDataId": null
  },
  {
    "id": 99566,
    "name": "Leninogorsk",
    "state_id": 1861,
    "state_code": "TA",
    "country_id": 182,
    "country_code": "RU",
    "latitude": "54.60256000",
    "longitude": "52.46087000",
    "wikiDataId": null
  },
  {
    "id": 99567,
    "name": "Leninogorskiy Rayon",
    "state_id": 1861,
    "state_code": "TA",
    "country_id": 182,
    "country_code": "RU",
    "latitude": "54.58333000",
    "longitude": "52.08333000",
    "wikiDataId": null
  },
  {
    "id": 99677,
    "name": "Lubyany",
    "state_id": 1861,
    "state_code": "TA",
    "country_id": 182,
    "country_code": "RU",
    "latitude": "56.03780000",
    "longitude": "51.40001000",
    "wikiDataId": null
  },
  {
    "id": 99774,
    "name": "Mamadysh",
    "state_id": 1861,
    "state_code": "TA",
    "country_id": 182,
    "country_code": "RU",
    "latitude": "55.71525000",
    "longitude": "51.40797000",
    "wikiDataId": null
  },
  {
    "id": 99775,
    "name": "Mamadyshskiy Rayon",
    "state_id": 1861,
    "state_code": "TA",
    "country_id": 182,
    "country_code": "RU",
    "latitude": "55.66667000",
    "longitude": "51.25000000",
    "wikiDataId": null
  },
  {
    "id": 99863,
    "name": "Mendeleyevsk",
    "state_id": 1861,
    "state_code": "TA",
    "country_id": 182,
    "country_code": "RU",
    "latitude": "55.90819000",
    "longitude": "52.29047000",
    "wikiDataId": null
  },
  {
    "id": 99865,
    "name": "Mendeleyevskiy Rayon",
    "state_id": 1861,
    "state_code": "TA",
    "country_id": 182,
    "country_code": "RU",
    "latitude": "55.91667000",
    "longitude": "52.33333000",
    "wikiDataId": null
  },
  {
    "id": 99866,
    "name": "Menzelinsk",
    "state_id": 1861,
    "state_code": "TA",
    "country_id": 182,
    "country_code": "RU",
    "latitude": "55.72706000",
    "longitude": "53.10258000",
    "wikiDataId": null
  },
  {
    "id": 99867,
    "name": "Menzelinskiy Rayon",
    "state_id": 1861,
    "state_code": "TA",
    "country_id": 182,
    "country_code": "RU",
    "latitude": "55.75000000",
    "longitude": "53.00000000",
    "wikiDataId": null
  },
  {
    "id": 100019,
    "name": "Muslyumovo",
    "state_id": 1861,
    "state_code": "TA",
    "country_id": 182,
    "country_code": "RU",
    "latitude": "55.30333000",
    "longitude": "53.19472000",
    "wikiDataId": null
  },
  {
    "id": 100021,
    "name": "Muslyumovskiy Rayon",
    "state_id": 1861,
    "state_code": "TA",
    "country_id": 182,
    "country_code": "RU",
    "latitude": "55.25000000",
    "longitude": "53.25000000",
    "wikiDataId": null
  },
  {
    "id": 100037,
    "name": "Naberezhnyye Chelny",
    "state_id": 1861,
    "state_code": "TA",
    "country_id": 182,
    "country_code": "RU",
    "latitude": "55.72545000",
    "longitude": "52.41122000",
    "wikiDataId": null
  },
  {
    "id": 100155,
    "name": "Nizhnekamsk",
    "state_id": 1861,
    "state_code": "TA",
    "country_id": 182,
    "country_code": "RU",
    "latitude": "55.63657000",
    "longitude": "51.82447000",
    "wikiDataId": null
  },
  {
    "id": 100156,
    "name": "Nizhnekamskiy Rayon",
    "state_id": 1861,
    "state_code": "TA",
    "country_id": 182,
    "country_code": "RU",
    "latitude": "55.41667000",
    "longitude": "51.58333000",
    "wikiDataId": null
  },
  {
    "id": 100180,
    "name": "Nizhniye Vyazovyye",
    "state_id": 1861,
    "state_code": "TA",
    "country_id": 182,
    "country_code": "RU",
    "latitude": "55.79877000",
    "longitude": "48.52476000",
    "wikiDataId": null
  },
  {
    "id": 100183,
    "name": "Nizhnyaya Maktama",
    "state_id": 1861,
    "state_code": "TA",
    "country_id": 182,
    "country_code": "RU",
    "latitude": "54.86356000",
    "longitude": "52.42810000",
    "wikiDataId": null
  },
  {
    "id": 100300,
    "name": "Novosheshminsk",
    "state_id": 1861,
    "state_code": "TA",
    "country_id": 182,
    "country_code": "RU",
    "latitude": "55.06513000",
    "longitude": "51.23376000",
    "wikiDataId": null
  },
  {
    "id": 100301,
    "name": "Novosheshminskiy Rayon",
    "state_id": 1861,
    "state_code": "TA",
    "country_id": 182,
    "country_code": "RU",
    "latitude": "55.08333000",
    "longitude": "51.25000000",
    "wikiDataId": null
  },
  {
    "id": 100370,
    "name": "Nurlat",
    "state_id": 1861,
    "state_code": "TA",
    "country_id": 182,
    "country_code": "RU",
    "latitude": "54.42766000",
    "longitude": "50.80511000",
    "wikiDataId": null
  },
  {
    "id": 100371,
    "name": "Nurlatskiy rayon",
    "state_id": 1861,
    "state_code": "TA",
    "country_id": 182,
    "country_code": "RU",
    "latitude": "54.50000000",
    "longitude": "50.75000000",
    "wikiDataId": null
  },
  {
    "id": 100488,
    "name": "Osinovo",
    "state_id": 1861,
    "state_code": "TA",
    "country_id": 182,
    "country_code": "RU",
    "latitude": "55.88090000",
    "longitude": "48.88100000",
    "wikiDataId": null
  },
  {
    "id": 100641,
    "name": "Pestrechinskiy Rayon",
    "state_id": 1861,
    "state_code": "TA",
    "country_id": 182,
    "country_code": "RU",
    "latitude": "55.75000000",
    "longitude": "49.75000000",
    "wikiDataId": null
  },
  {
    "id": 100642,
    "name": "Pestretsy",
    "state_id": 1861,
    "state_code": "TA",
    "country_id": 182,
    "country_code": "RU",
    "latitude": "55.75313000",
    "longitude": "49.65454000",
    "wikiDataId": null
  },
  {
    "id": 101032,
    "name": "Russkiy Aktash",
    "state_id": 1861,
    "state_code": "TA",
    "country_id": 182,
    "country_code": "RU",
    "latitude": "55.03840000",
    "longitude": "52.12140000",
    "wikiDataId": null
  },
  {
    "id": 101050,
    "name": "Rybnaya Sloboda",
    "state_id": 1861,
    "state_code": "TA",
    "country_id": 182,
    "country_code": "RU",
    "latitude": "55.46129000",
    "longitude": "50.14090000",
    "wikiDataId": null
  },
  {
    "id": 101051,
    "name": "Rybno-Slobodskiy Rayon",
    "state_id": 1861,
    "state_code": "TA",
    "country_id": 182,
    "country_code": "RU",
    "latitude": "55.58333000",
    "longitude": "50.16667000",
    "wikiDataId": null
  },
  {
    "id": 101061,
    "name": "Sabinskiy Rayon",
    "state_id": 1861,
    "state_code": "TA",
    "country_id": 182,
    "country_code": "RU",
    "latitude": "56.00000000",
    "longitude": "50.50000000",
    "wikiDataId": null
  },
  {
    "id": 101120,
    "name": "Sarmanovo",
    "state_id": 1861,
    "state_code": "TA",
    "country_id": 182,
    "country_code": "RU",
    "latitude": "55.25529000",
    "longitude": "52.58907000",
    "wikiDataId": null
  },
  {
    "id": 101121,
    "name": "Sarmanovskiy Rayon",
    "state_id": 1861,
    "state_code": "TA",
    "country_id": 182,
    "country_code": "RU",
    "latitude": "55.25000000",
    "longitude": "52.58333000",
    "wikiDataId": null
  },
  {
    "id": 101295,
    "name": "Shemordan",
    "state_id": 1861,
    "state_code": "TA",
    "country_id": 182,
    "country_code": "RU",
    "latitude": "56.18560000",
    "longitude": "50.39720000",
    "wikiDataId": null
  },
  {
    "id": 101344,
    "name": "Shugurovo",
    "state_id": 1861,
    "state_code": "TA",
    "country_id": 182,
    "country_code": "RU",
    "latitude": "54.50828000",
    "longitude": "52.13265000",
    "wikiDataId": null
  },
  {
    "id": 101531,
    "name": "Spasskiy Rayon",
    "state_id": 1861,
    "state_code": "TA",
    "country_id": 182,
    "country_code": "RU",
    "latitude": "55.00000000",
    "longitude": "49.50000000",
    "wikiDataId": null
  },
  {
    "id": 101600,
    "name": "Staroye Arakchino",
    "state_id": 1861,
    "state_code": "TA",
    "country_id": 182,
    "country_code": "RU",
    "latitude": "55.80410000",
    "longitude": "48.97090000",
    "wikiDataId": null
  },
  {
    "id": 101601,
    "name": "Staroye Drozhzhanoye",
    "state_id": 1861,
    "state_code": "TA",
    "country_id": 182,
    "country_code": "RU",
    "latitude": "54.72657000",
    "longitude": "47.56766000",
    "wikiDataId": null
  },
  {
    "id": 101621,
    "name": "Stolbishchi",
    "state_id": 1861,
    "state_code": "TA",
    "country_id": 182,
    "country_code": "RU",
    "latitude": "55.64679000",
    "longitude": "49.21595000",
    "wikiDataId": null
  },
  {
    "id": 101711,
    "name": "Sviyazhsk",
    "state_id": 1861,
    "state_code": "TA",
    "country_id": 182,
    "country_code": "RU",
    "latitude": "55.77329000",
    "longitude": "48.66051000",
    "wikiDataId": null
  },
  {
    "id": 101842,
    "name": "Tetyushi",
    "state_id": 1861,
    "state_code": "TA",
    "country_id": 182,
    "country_code": "RU",
    "latitude": "54.93821000",
    "longitude": "48.83656000",
    "wikiDataId": null
  },
  {
    "id": 101843,
    "name": "Tetyushskiy Rayon",
    "state_id": 1861,
    "state_code": "TA",
    "country_id": 182,
    "country_code": "RU",
    "latitude": "55.00000000",
    "longitude": "48.75000000",
    "wikiDataId": null
  },
  {
    "id": 101965,
    "name": "Tukayevskiy Rayon",
    "state_id": 1861,
    "state_code": "TA",
    "country_id": 182,
    "country_code": "RU",
    "latitude": "55.66667000",
    "longitude": "52.25000000",
    "wikiDataId": null
  },
  {
    "id": 102002,
    "name": "Tyulyachi",
    "state_id": 1861,
    "state_code": "TA",
    "country_id": 182,
    "country_code": "RU",
    "latitude": "55.89125000",
    "longitude": "50.23992000",
    "wikiDataId": null
  },
  {
    "id": 102003,
    "name": "Tyulyachinskiy Rayon",
    "state_id": 1861,
    "state_code": "TA",
    "country_id": 182,
    "country_code": "RU",
    "latitude": "55.91667000",
    "longitude": "50.25000000",
    "wikiDataId": null
  },
  {
    "id": 102090,
    "name": "Urussu",
    "state_id": 1861,
    "state_code": "TA",
    "country_id": 182,
    "country_code": "RU",
    "latitude": "54.59812000",
    "longitude": "53.46313000",
    "wikiDataId": null
  },
  {
    "id": 102198,
    "name": "Vasil’yevo",
    "state_id": 1861,
    "state_code": "TA",
    "country_id": 182,
    "country_code": "RU",
    "latitude": "55.83595000",
    "longitude": "48.65820000",
    "wikiDataId": null
  },
  {
    "id": 102243,
    "name": "Verkhneuslonskiy Rayon",
    "state_id": 1861,
    "state_code": "TA",
    "country_id": 182,
    "country_code": "RU",
    "latitude": "55.66667000",
    "longitude": "48.75000000",
    "wikiDataId": null
  },
  {
    "id": 102259,
    "name": "Verkhniy Uslon",
    "state_id": 1861,
    "state_code": "TA",
    "country_id": 182,
    "country_code": "RU",
    "latitude": "55.77010000",
    "longitude": "48.98230000",
    "wikiDataId": null
  },
  {
    "id": 102444,
    "name": "Vysokaya Gora",
    "state_id": 1861,
    "state_code": "TA",
    "country_id": 182,
    "country_code": "RU",
    "latitude": "55.91278000",
    "longitude": "49.30167000",
    "wikiDataId": null
  },
  {
    "id": 102448,
    "name": "Vysokogorskiy Rayon",
    "state_id": 1861,
    "state_code": "TA",
    "country_id": 182,
    "country_code": "RU",
    "latitude": "55.90000000",
    "longitude": "49.31667000",
    "wikiDataId": null
  },
  {
    "id": 102532,
    "name": "Yelabuga",
    "state_id": 1861,
    "state_code": "TA",
    "country_id": 182,
    "country_code": "RU",
    "latitude": "55.76127000",
    "longitude": "52.06493000",
    "wikiDataId": null
  },
  {
    "id": 102533,
    "name": "Yelabuzhskiy Rayon",
    "state_id": 1861,
    "state_code": "TA",
    "country_id": 182,
    "country_code": "RU",
    "latitude": "55.83333000",
    "longitude": "51.83333000",
    "wikiDataId": null
  },
  {
    "id": 102610,
    "name": "Yutazinskiy Rayon",
    "state_id": 1861,
    "state_code": "TA",
    "country_id": 182,
    "country_code": "RU",
    "latitude": "54.66667000",
    "longitude": "53.50000000",
    "wikiDataId": null
  },
  {
    "id": 102631,
    "name": "Zainsk",
    "state_id": 1861,
    "state_code": "TA",
    "country_id": 182,
    "country_code": "RU",
    "latitude": "55.31950000",
    "longitude": "52.06942000",
    "wikiDataId": null
  },
  {
    "id": 102632,
    "name": "Zainskiy Rayon",
    "state_id": 1861,
    "state_code": "TA",
    "country_id": 182,
    "country_code": "RU",
    "latitude": "55.30000000",
    "longitude": "52.00000000",
    "wikiDataId": null
  },
  {
    "id": 102694,
    "name": "Zelenodol’skiy Rayon",
    "state_id": 1861,
    "state_code": "TA",
    "country_id": 182,
    "country_code": "RU",
    "latitude": "55.91667000",
    "longitude": "48.75000000",
    "wikiDataId": null
  },
  {
    "id": 102693,
    "name": "Zelenodolsk",
    "state_id": 1861,
    "state_code": "TA",
    "country_id": 182,
    "country_code": "RU",
    "latitude": "55.84376000",
    "longitude": "48.51784000",
    "wikiDataId": null
  }
]