[
  {
    "id": 81135,
    "name": "Abucay",
    "state_id": 1345,
    "state_code": "03",
    "country_id": 174,
    "country_code": "PH",
    "latitude": "14.73347000",
    "longitude": "120.53358000",
    "wikiDataId": null
  },
  {
    "id": 81144,
    "name": "Acli",
    "state_id": 1345,
    "state_code": "03",
    "country_id": 174,
    "country_code": "PH",
    "latitude": "15.12279000",
    "longitude": "120.64470000",
    "wikiDataId": null
  },
  {
    "id": 81155,
    "name": "Agbannawag",
    "state_id": 1345,
    "state_code": "03",
    "country_id": 174,
    "country_code": "PH",
    "latitude": "15.67920000",
    "longitude": "121.08330000",
    "wikiDataId": null
  },
  {
    "id": 81175,
    "name": "Akle",
    "state_id": 1345,
    "state_code": "03",
    "country_id": 174,
    "country_code": "PH",
    "latitude": "15.04820000",
    "longitude": "121.07330000",
    "wikiDataId": null
  },
  {
    "id": 81227,
    "name": "Almendras",
    "state_id": 1345,
    "state_code": "03",
    "country_id": 174,
    "country_code": "PH",
    "latitude": "15.27576000",
    "longitude": "120.69873000",
    "wikiDataId": null
  },
  {
    "id": 81233,
    "name": "Alua",
    "state_id": 1345,
    "state_code": "03",
    "country_id": 174,
    "country_code": "PH",
    "latitude": "15.31154000",
    "longitude": "120.89433000",
    "wikiDataId": null
  },
  {
    "id": 81238,
    "name": "Amacalan",
    "state_id": 1345,
    "state_code": "03",
    "country_id": 174,
    "country_code": "PH",
    "latitude": "15.58150000",
    "longitude": "120.61120000",
    "wikiDataId": null
  },
  {
    "id": 81251,
    "name": "Amucao",
    "state_id": 1345,
    "state_code": "03",
    "country_id": 174,
    "country_code": "PH",
    "latitude": "15.46405000",
    "longitude": "120.68643000",
    "wikiDataId": null
  },
  {
    "id": 81253,
    "name": "Amu単gan",
    "state_id": 1345,
    "state_code": "03",
    "country_id": 174,
    "country_code": "PH",
    "latitude": "15.36520000",
    "longitude": "119.95820000",
    "wikiDataId": null
  },
  {
    "id": 81266,
    "name": "Angat",
    "state_id": 1345,
    "state_code": "03",
    "country_id": 174,
    "country_code": "PH",
    "latitude": "14.92779400",
    "longitude": "121.02914000",
    "wikiDataId": null
  },
  {
    "id": 81311,
    "name": "Arenas",
    "state_id": 1345,
    "state_code": "03",
    "country_id": 174,
    "country_code": "PH",
    "latitude": "15.17042000",
    "longitude": "120.68571000",
    "wikiDataId": null
  },
  {
    "id": 81316,
    "name": "Arminia",
    "state_id": 1345,
    "state_code": "03",
    "country_id": 174,
    "country_code": "PH",
    "latitude": "15.43563000",
    "longitude": "120.56379000",
    "wikiDataId": null
  },
  {
    "id": 81349,
    "name": "Babo-Pangulo",
    "state_id": 1345,
    "state_code": "03",
    "country_id": 174,
    "country_code": "PH",
    "latitude": "15.08333000",
    "longitude": "120.51667000",
    "wikiDataId": null
  },
  {
    "id": 81351,
    "name": "Bacabac",
    "state_id": 1345,
    "state_code": "03",
    "country_id": 174,
    "country_code": "PH",
    "latitude": "15.72477000",
    "longitude": "120.42816000",
    "wikiDataId": null
  },
  {
    "id": 81371,
    "name": "Bacsay",
    "state_id": 1345,
    "state_code": "03",
    "country_id": 174,
    "country_code": "PH",
    "latitude": "15.62063000",
    "longitude": "120.34341000",
    "wikiDataId": null
  },
  {
    "id": 81385,
    "name": "Bagac",
    "state_id": 1345,
    "state_code": "03",
    "country_id": 174,
    "country_code": "PH",
    "latitude": "14.59620000",
    "longitude": "120.39280000",
    "wikiDataId": null
  },
  {
    "id": 81398,
    "name": "Bagong Barrio",
    "state_id": 1345,
    "state_code": "03",
    "country_id": 174,
    "country_code": "PH",
    "latitude": "14.88993000",
    "longitude": "120.94095000",
    "wikiDataId": null
  },
  {
    "id": 81402,
    "name": "Bagong-Sikat",
    "state_id": 1345,
    "state_code": "03",
    "country_id": 174,
    "country_code": "PH",
    "latitude": "15.48010000",
    "longitude": "121.30730000",
    "wikiDataId": null
  },
  {
    "id": 81417,
    "name": "Bahay Pare",
    "state_id": 1345,
    "state_code": "03",
    "country_id": 174,
    "country_code": "PH",
    "latitude": "15.03238000",
    "longitude": "120.88083000",
    "wikiDataId": null
  },
  {
    "id": 81425,
    "name": "Bakulong",
    "state_id": 1345,
    "state_code": "03",
    "country_id": 174,
    "country_code": "PH",
    "latitude": "15.53790000",
    "longitude": "120.63850000",
    "wikiDataId": null
  },
  {
    "id": 81434,
    "name": "Balagtas",
    "state_id": 1345,
    "state_code": "03",
    "country_id": 174,
    "country_code": "PH",
    "latitude": "14.81667000",
    "longitude": "120.86667000",
    "wikiDataId": null
  },
  {
    "id": 81441,
    "name": "Balanga",
    "state_id": 1345,
    "state_code": "03",
    "country_id": 174,
    "country_code": "PH",
    "latitude": "14.67611000",
    "longitude": "120.53611000",
    "wikiDataId": null
  },
  {
    "id": 81447,
    "name": "Balaoang",
    "state_id": 1345,
    "state_code": "03",
    "country_id": 174,
    "country_code": "PH",
    "latitude": "15.66330000",
    "longitude": "120.51470000",
    "wikiDataId": null
  },
  {
    "id": 81450,
    "name": "Balas",
    "state_id": 1345,
    "state_code": "03",
    "country_id": 174,
    "country_code": "PH",
    "latitude": "15.04998000",
    "longitude": "120.58611000",
    "wikiDataId": null
  },
  {
    "id": 81452,
    "name": "Balasing",
    "state_id": 1345,
    "state_code": "03",
    "country_id": 174,
    "country_code": "PH",
    "latitude": "14.85450000",
    "longitude": "121.01270000",
    "wikiDataId": null
  },
  {
    "id": 81456,
    "name": "Balayang",
    "state_id": 1345,
    "state_code": "03",
    "country_id": 174,
    "country_code": "PH",
    "latitude": "15.54950000",
    "longitude": "120.69430000",
    "wikiDataId": null
  },
  {
    "id": 81466,
    "name": "Balibago",
    "state_id": 1345,
    "state_code": "03",
    "country_id": 174,
    "country_code": "PH",
    "latitude": "15.16240000",
    "longitude": "120.59540000",
    "wikiDataId": null
  },
  {
    "id": 81477,
    "name": "Balingcanaway",
    "state_id": 1345,
    "state_code": "03",
    "country_id": 174,
    "country_code": "PH",
    "latitude": "15.48215000",
    "longitude": "120.68543000",
    "wikiDataId": null
  },
  {
    "id": 81481,
    "name": "Balite",
    "state_id": 1345,
    "state_code": "03",
    "country_id": 174,
    "country_code": "PH",
    "latitude": "15.64451000",
    "longitude": "120.64196000",
    "wikiDataId": null
  },
  {
    "id": 81485,
    "name": "Baliuag",
    "state_id": 1345,
    "state_code": "03",
    "country_id": 174,
    "country_code": "PH",
    "latitude": "14.95472000",
    "longitude": "120.89694000",
    "wikiDataId": null
  },
  {
    "id": 81490,
    "name": "Baloc",
    "state_id": 1345,
    "state_code": "03",
    "country_id": 174,
    "country_code": "PH",
    "latitude": "15.64350000",
    "longitude": "120.88520000",
    "wikiDataId": null
  },
  {
    "id": 81497,
    "name": "Baloy",
    "state_id": 1345,
    "state_code": "03",
    "country_id": 174,
    "country_code": "PH",
    "latitude": "15.80530000",
    "longitude": "120.77420000",
    "wikiDataId": null
  },
  {
    "id": 81498,
    "name": "Balsic",
    "state_id": 1345,
    "state_code": "03",
    "country_id": 174,
    "country_code": "PH",
    "latitude": "14.85906000",
    "longitude": "120.48240000",
    "wikiDataId": null
  },
  {
    "id": 81500,
    "name": "Balucuc",
    "state_id": 1345,
    "state_code": "03",
    "country_id": 174,
    "country_code": "PH",
    "latitude": "14.95282000",
    "longitude": "120.81452000",
    "wikiDataId": null
  },
  {
    "id": 81506,
    "name": "Balut",
    "state_id": 1345,
    "state_code": "03",
    "country_id": 174,
    "country_code": "PH",
    "latitude": "14.68333000",
    "longitude": "120.55000000",
    "wikiDataId": null
  },
  {
    "id": 81508,
    "name": "Balutu",
    "state_id": 1345,
    "state_code": "03",
    "country_id": 174,
    "country_code": "PH",
    "latitude": "15.29875000",
    "longitude": "120.69226000",
    "wikiDataId": null
  },
  {
    "id": 81517,
    "name": "Banawang",
    "state_id": 1345,
    "state_code": "03",
    "country_id": 174,
    "country_code": "PH",
    "latitude": "14.61210000",
    "longitude": "120.39000000",
    "wikiDataId": null
  },
  {
    "id": 81523,
    "name": "Bangad",
    "state_id": 1345,
    "state_code": "03",
    "country_id": 174,
    "country_code": "PH",
    "latitude": "15.50190000",
    "longitude": "121.02750000",
    "wikiDataId": null
  },
  {
    "id": 81562,
    "name": "Baquero Norte",
    "state_id": 1345,
    "state_code": "03",
    "country_id": 174,
    "country_code": "PH",
    "latitude": "15.71620000",
    "longitude": "120.55430000",
    "wikiDataId": null
  },
  {
    "id": 81621,
    "name": "Batasan Bata",
    "state_id": 1345,
    "state_code": "03",
    "country_id": 174,
    "country_code": "PH",
    "latitude": "15.14442000",
    "longitude": "120.94077000",
    "wikiDataId": null
  },
  {
    "id": 81624,
    "name": "Batitang",
    "state_id": 1345,
    "state_code": "03",
    "country_id": 174,
    "country_code": "PH",
    "latitude": "15.40040000",
    "longitude": "120.80276000",
    "wikiDataId": null
  },
  {
    "id": 81655,
    "name": "Bayanan",
    "state_id": 1345,
    "state_code": "03",
    "country_id": 174,
    "country_code": "PH",
    "latitude": "13.35920000",
    "longitude": "121.16990000",
    "wikiDataId": null
  },
  {
    "id": 81674,
    "name": "Beddeng",
    "state_id": 1345,
    "state_code": "03",
    "country_id": 174,
    "country_code": "PH",
    "latitude": "14.97728000",
    "longitude": "120.08493000",
    "wikiDataId": null
  },
  {
    "id": 81686,
    "name": "Biay",
    "state_id": 1345,
    "state_code": "03",
    "country_id": 174,
    "country_code": "PH",
    "latitude": "15.74020000",
    "longitude": "119.90670000",
    "wikiDataId": null
  },
  {
    "id": 81687,
    "name": "Bibiclat",
    "state_id": 1345,
    "state_code": "03",
    "country_id": 174,
    "country_code": "PH",
    "latitude": "15.52186000",
    "longitude": "120.86235000",
    "wikiDataId": null
  },
  {
    "id": 81689,
    "name": "Bicos",
    "state_id": 1345,
    "state_code": "03",
    "country_id": 174,
    "country_code": "PH",
    "latitude": "15.66020000",
    "longitude": "121.04140000",
    "wikiDataId": null
  },
  {
    "id": 81692,
    "name": "Biga",
    "state_id": 1345,
    "state_code": "03",
    "country_id": 174,
    "country_code": "PH",
    "latitude": "13.31060000",
    "longitude": "121.16100000",
    "wikiDataId": null
  },
  {
    "id": 81699,
    "name": "Bilad",
    "state_id": 1345,
    "state_code": "03",
    "country_id": 174,
    "country_code": "PH",
    "latitude": "15.73676000",
    "longitude": "120.43321000",
    "wikiDataId": null
  },
  {
    "id": 81747,
    "name": "Bitu単gol",
    "state_id": 1345,
    "state_code": "03",
    "country_id": 174,
    "country_code": "PH",
    "latitude": "14.88333000",
    "longitude": "121.03333000",
    "wikiDataId": null
  },
  {
    "id": 81755,
    "name": "Bobon Second",
    "state_id": 1345,
    "state_code": "03",
    "country_id": 174,
    "country_code": "PH",
    "latitude": "15.65653000",
    "longitude": "120.38119000",
    "wikiDataId": null
  },
  {
    "id": 81758,
    "name": "Bocaue",
    "state_id": 1345,
    "state_code": "03",
    "country_id": 174,
    "country_code": "PH",
    "latitude": "14.79833000",
    "longitude": "120.92611000",
    "wikiDataId": null
  },
  {
    "id": 81760,
    "name": "Bodega",
    "state_id": 1345,
    "state_code": "03",
    "country_id": 174,
    "country_code": "PH",
    "latitude": "14.92290000",
    "longitude": "120.47982000",
    "wikiDataId": null
  },
  {
    "id": 81773,
    "name": "Bolitoc",
    "state_id": 1345,
    "state_code": "03",
    "country_id": 174,
    "country_code": "PH",
    "latitude": "15.73950000",
    "longitude": "119.87690000",
    "wikiDataId": null
  },
  {
    "id": 81834,
    "name": "Buenlag",
    "state_id": 1345,
    "state_code": "03",
    "country_id": 174,
    "country_code": "PH",
    "latitude": "15.62743000",
    "longitude": "120.58199000",
    "wikiDataId": null
  },
  {
    "id": 81836,
    "name": "Buensuseso",
    "state_id": 1345,
    "state_code": "03",
    "country_id": 174,
    "country_code": "PH",
    "latitude": "15.19333000",
    "longitude": "120.67314000",
    "wikiDataId": null
  },
  {
    "id": 81867,
    "name": "Bulaon",
    "state_id": 1345,
    "state_code": "03",
    "country_id": 174,
    "country_code": "PH",
    "latitude": "15.08262000",
    "longitude": "120.66288000",
    "wikiDataId": null
  },
  {
    "id": 81868,
    "name": "Bularit",
    "state_id": 1345,
    "state_code": "03",
    "country_id": 174,
    "country_code": "PH",
    "latitude": "15.56824000",
    "longitude": "120.62167000",
    "wikiDataId": null
  },
  {
    "id": 81872,
    "name": "Bulawin",
    "state_id": 1345,
    "state_code": "03",
    "country_id": 174,
    "country_code": "PH",
    "latitude": "15.41730000",
    "longitude": "119.95640000",
    "wikiDataId": null
  },
  {
    "id": 81874,
    "name": "Bulihan",
    "state_id": 1345,
    "state_code": "03",
    "country_id": 174,
    "country_code": "PH",
    "latitude": "14.87581000",
    "longitude": "120.89563000",
    "wikiDataId": null
  },
  {
    "id": 81877,
    "name": "Buliran",
    "state_id": 1345,
    "state_code": "03",
    "country_id": 174,
    "country_code": "PH",
    "latitude": "15.54602000",
    "longitude": "120.95959000",
    "wikiDataId": null
  },
  {
    "id": 81878,
    "name": "Buliran Segundo",
    "state_id": 1345,
    "state_code": "03",
    "country_id": 174,
    "country_code": "PH",
    "latitude": "15.26667000",
    "longitude": "120.86667000",
    "wikiDataId": null
  },
  {
    "id": 81885,
    "name": "Bulualto",
    "state_id": 1345,
    "state_code": "03",
    "country_id": 174,
    "country_code": "PH",
    "latitude": "15.22127000",
    "longitude": "120.95326000",
    "wikiDataId": null
  },
  {
    "id": 81893,
    "name": "Bundoc",
    "state_id": 1345,
    "state_code": "03",
    "country_id": 174,
    "country_code": "PH",
    "latitude": "15.48575000",
    "longitude": "120.71743000",
    "wikiDataId": null
  },
  {
    "id": 81901,
    "name": "Bunol",
    "state_id": 1345,
    "state_code": "03",
    "country_id": 174,
    "country_code": "PH",
    "latitude": "15.66710000",
    "longitude": "120.83440000",
    "wikiDataId": null
  },
  {
    "id": 81920,
    "name": "Bustos",
    "state_id": 1345,
    "state_code": "03",
    "country_id": 174,
    "country_code": "PH",
    "latitude": "14.95351780",
    "longitude": "120.91884330",
    "wikiDataId": null
  },
  {
    "id": 81944,
    "name": "Cabanatuan City",
    "state_id": 1345,
    "state_code": "03",
    "country_id": 174,
    "country_code": "PH",
    "latitude": "15.48586000",
    "longitude": "120.96648000",
    "wikiDataId": null
  },
  {
    "id": 81962,
    "name": "Cabayaoasan",
    "state_id": 1345,
    "state_code": "03",
    "country_id": 174,
    "country_code": "PH",
    "latitude": "15.66323000",
    "longitude": "120.55135000",
    "wikiDataId": null
  },
  {
    "id": 81964,
    "name": "Cabcaben",
    "state_id": 1345,
    "state_code": "03",
    "country_id": 174,
    "country_code": "PH",
    "latitude": "14.45400000",
    "longitude": "120.59140000",
    "wikiDataId": null
  },
  {
    "id": 81974,
    "name": "Cabog",
    "state_id": 1345,
    "state_code": "03",
    "country_id": 174,
    "country_code": "PH",
    "latitude": "15.31530000",
    "longitude": "121.37030000",
    "wikiDataId": null
  },
  {
    "id": 81991,
    "name": "Cafe",
    "state_id": 1345,
    "state_code": "03",
    "country_id": 174,
    "country_code": "PH",
    "latitude": "15.33686000",
    "longitude": "120.70623000",
    "wikiDataId": null
  },
  {
    "id": 82006,
    "name": "Calaba",
    "state_id": 1345,
    "state_code": "03",
    "country_id": 174,
    "country_code": "PH",
    "latitude": "15.30050000",
    "longitude": "120.87423000",
    "wikiDataId": null
  },
  {
    "id": 82022,
    "name": "Calancuasan Norte",
    "state_id": 1345,
    "state_code": "03",
    "country_id": 174,
    "country_code": "PH",
    "latitude": "15.80137000",
    "longitude": "120.64102000",
    "wikiDataId": null
  },
  {
    "id": 82023,
    "name": "Calangain",
    "state_id": 1345,
    "state_code": "03",
    "country_id": 174,
    "country_code": "PH",
    "latitude": "14.89815000",
    "longitude": "120.55877000",
    "wikiDataId": null
  },
  {
    "id": 82026,
    "name": "Calantas",
    "state_id": 1345,
    "state_code": "03",
    "country_id": 174,
    "country_code": "PH",
    "latitude": "15.01933000",
    "longitude": "120.51793000",
    "wikiDataId": null
  },
  {
    "id": 82044,
    "name": "Calayaan",
    "state_id": 1345,
    "state_code": "03",
    "country_id": 174,
    "country_code": "PH",
    "latitude": "15.56739000",
    "longitude": "120.51434000",
    "wikiDataId": null
  },
  {
    "id": 82049,
    "name": "Calibungan",
    "state_id": 1345,
    "state_code": "03",
    "country_id": 174,
    "country_code": "PH",
    "latitude": "15.59820000",
    "longitude": "120.72400000",
    "wikiDataId": null
  },
  {
    "id": 82050,
    "name": "Calibutbut",
    "state_id": 1345,
    "state_code": "03",
    "country_id": 174,
    "country_code": "PH",
    "latitude": "15.11494000",
    "longitude": "120.59815000",
    "wikiDataId": null
  },
  {
    "id": 82054,
    "name": "Calingcuan",
    "state_id": 1345,
    "state_code": "03",
    "country_id": 174,
    "country_code": "PH",
    "latitude": "15.33333000",
    "longitude": "120.58333000",
    "wikiDataId": null
  },
  {
    "id": 82072,
    "name": "Calumpang",
    "state_id": 1345,
    "state_code": "03",
    "country_id": 174,
    "country_code": "PH",
    "latitude": "15.17400000",
    "longitude": "121.02490000",
    "wikiDataId": null
  },
  {
    "id": 82073,
    "name": "Calumpit",
    "state_id": 1345,
    "state_code": "03",
    "country_id": 174,
    "country_code": "PH",
    "latitude": "14.91639000",
    "longitude": "120.76583000",
    "wikiDataId": null
  },
  {
    "id": 82075,
    "name": "Cama Juan",
    "state_id": 1345,
    "state_code": "03",
    "country_id": 174,
    "country_code": "PH",
    "latitude": "15.39223000",
    "longitude": "120.76848000",
    "wikiDataId": null
  },
  {
    "id": 82076,
    "name": "Camachile",
    "state_id": 1345,
    "state_code": "03",
    "country_id": 174,
    "country_code": "PH",
    "latitude": "14.64361000",
    "longitude": "120.58083000",
    "wikiDataId": null
  },
  {
    "id": 82088,
    "name": "Camias",
    "state_id": 1345,
    "state_code": "03",
    "country_id": 174,
    "country_code": "PH",
    "latitude": "15.16679000",
    "longitude": "120.97416000",
    "wikiDataId": null
  },
  {
    "id": 82107,
    "name": "Candating",
    "state_id": 1345,
    "state_code": "03",
    "country_id": 174,
    "country_code": "PH",
    "latitude": "15.15056000",
    "longitude": "120.81847000",
    "wikiDataId": null
  },
  {
    "id": 82226,
    "name": "Cavite",
    "state_id": 1345,
    "state_code": "03",
    "country_id": 174,
    "country_code": "PH",
    "latitude": "15.67785000",
    "longitude": "120.76978000",
    "wikiDataId": null
  },
  {
    "id": 82232,
    "name": "Cawayan Bugtong",
    "state_id": 1345,
    "state_code": "03",
    "country_id": 174,
    "country_code": "PH",
    "latitude": "15.63362000",
    "longitude": "120.77695000",
    "wikiDataId": null
  },
  {
    "id": 82265,
    "name": "Comillas",
    "state_id": 1345,
    "state_code": "03",
    "country_id": 174,
    "country_code": "PH",
    "latitude": "15.39833000",
    "longitude": "120.70045000",
    "wikiDataId": null
  },
  {
    "id": 82267,
    "name": "Communal",
    "state_id": 1345,
    "state_code": "03",
    "country_id": 174,
    "country_code": "PH",
    "latitude": "13.25480000",
    "longitude": "121.13660000",
    "wikiDataId": null
  },
  {
    "id": 82288,
    "name": "Conversion",
    "state_id": 1345,
    "state_code": "03",
    "country_id": 174,
    "country_code": "PH",
    "latitude": "15.89840000",
    "longitude": "121.12770000",
    "wikiDataId": null
  },
  {
    "id": 82315,
    "name": "Culianin",
    "state_id": 1345,
    "state_code": "03",
    "country_id": 174,
    "country_code": "PH",
    "latitude": "14.91511000",
    "longitude": "120.89847000",
    "wikiDataId": null
  },
  {
    "id": 82318,
    "name": "Culubasa",
    "state_id": 1345,
    "state_code": "03",
    "country_id": 174,
    "country_code": "PH",
    "latitude": "15.14431000",
    "longitude": "120.65223000",
    "wikiDataId": null
  },
  {
    "id": 82323,
    "name": "Cut-cut Primero",
    "state_id": 1345,
    "state_code": "03",
    "country_id": 174,
    "country_code": "PH",
    "latitude": "15.48277000",
    "longitude": "120.58604000",
    "wikiDataId": null
  },
  {
    "id": 82364,
    "name": "Dampol",
    "state_id": 1345,
    "state_code": "03",
    "country_id": 174,
    "country_code": "PH",
    "latitude": "14.90128000",
    "longitude": "120.82187000",
    "wikiDataId": null
  },
  {
    "id": 82409,
    "name": "Del Pilar",
    "state_id": 1345,
    "state_code": "03",
    "country_id": 174,
    "country_code": "PH",
    "latitude": "15.03601000",
    "longitude": "120.69935000",
    "wikiDataId": null
  },
  {
    "id": 82423,
    "name": "Digdig",
    "state_id": 1345,
    "state_code": "03",
    "country_id": 174,
    "country_code": "PH",
    "latitude": "15.94900000",
    "longitude": "120.97780000",
    "wikiDataId": null
  },
  {
    "id": 82427,
    "name": "Diliman Primero",
    "state_id": 1345,
    "state_code": "03",
    "country_id": 174,
    "country_code": "PH",
    "latitude": "15.02470000",
    "longitude": "120.95208000",
    "wikiDataId": null
  },
  {
    "id": 82437,
    "name": "Dinalupihan",
    "state_id": 1345,
    "state_code": "03",
    "country_id": 174,
    "country_code": "PH",
    "latitude": "14.87827000",
    "longitude": "120.45221000",
    "wikiDataId": null
  },
  {
    "id": 82467,
    "name": "Do単a Remedios Trinidad",
    "state_id": 1345,
    "state_code": "03",
    "country_id": 174,
    "country_code": "PH",
    "latitude": "14.97060360",
    "longitude": "121.06478540",
    "wikiDataId": null
  },
  {
    "id": 82489,
    "name": "Dumarais",
    "state_id": 1345,
    "state_code": "03",
    "country_id": 174,
    "country_code": "PH",
    "latitude": "15.43455000",
    "longitude": "120.69213000",
    "wikiDataId": null
  },
  {
    "id": 82510,
    "name": "Entablado",
    "state_id": 1345,
    "state_code": "03",
    "country_id": 174,
    "country_code": "PH",
    "latitude": "15.28661000",
    "longitude": "120.86302000",
    "wikiDataId": null
  },
  {
    "id": 82526,
    "name": "Estacion",
    "state_id": 1345,
    "state_code": "03",
    "country_id": 174,
    "country_code": "PH",
    "latitude": "15.69944000",
    "longitude": "120.60833000",
    "wikiDataId": null
  },
  {
    "id": 82530,
    "name": "Estipona",
    "state_id": 1345,
    "state_code": "03",
    "country_id": 174,
    "country_code": "PH",
    "latitude": "15.59020000",
    "longitude": "120.63770000",
    "wikiDataId": null
  },
  {
    "id": 82531,
    "name": "Estrella",
    "state_id": 1345,
    "state_code": "03",
    "country_id": 174,
    "country_code": "PH",
    "latitude": "15.75000000",
    "longitude": "121.03333000",
    "wikiDataId": null
  },
  {
    "id": 82617,
    "name": "Gueset",
    "state_id": 1345,
    "state_code": "03",
    "country_id": 174,
    "country_code": "PH",
    "latitude": "15.95000000",
    "longitude": "120.63333000",
    "wikiDataId": null
  },
  {
    "id": 82620,
    "name": "Guiguinto",
    "state_id": 1345,
    "state_code": "03",
    "country_id": 174,
    "country_code": "PH",
    "latitude": "14.83333000",
    "longitude": "120.88333000",
    "wikiDataId": null
  },
  {
    "id": 82647,
    "name": "Guisguis",
    "state_id": 1345,
    "state_code": "03",
    "country_id": 174,
    "country_code": "PH",
    "latitude": "15.79280000",
    "longitude": "119.97660000",
    "wikiDataId": null
  },
  {
    "id": 82659,
    "name": "Gutad",
    "state_id": 1345,
    "state_code": "03",
    "country_id": 174,
    "country_code": "PH",
    "latitude": "14.92740000",
    "longitude": "120.48940000",
    "wikiDataId": null
  },
  {
    "id": 82662,
    "name": "Guyong",
    "state_id": 1345,
    "state_code": "03",
    "country_id": 174,
    "country_code": "PH",
    "latitude": "14.83610000",
    "longitude": "120.97844000",
    "wikiDataId": null
  },
  {
    "id": 82680,
    "name": "Hermosa",
    "state_id": 1345,
    "state_code": "03",
    "country_id": 174,
    "country_code": "PH",
    "latitude": "14.83140000",
    "longitude": "120.50810000",
    "wikiDataId": null
  },
  {
    "id": 82995,
    "name": "Lambakin",
    "state_id": 1345,
    "state_code": "03",
    "country_id": 174,
    "country_code": "PH",
    "latitude": "14.75000000",
    "longitude": "120.86667000",
    "wikiDataId": null
  },
  {
    "id": 83010,
    "name": "Lanat",
    "state_id": 1345,
    "state_code": "03",
    "country_id": 174,
    "country_code": "PH",
    "latitude": "15.79189000",
    "longitude": "120.60461000",
    "wikiDataId": null
  },
  {
    "id": 83049,
    "name": "Laug",
    "state_id": 1345,
    "state_code": "03",
    "country_id": 174,
    "country_code": "PH",
    "latitude": "15.04659000",
    "longitude": "120.75149000",
    "wikiDataId": null
  },
  {
    "id": 83053,
    "name": "Lawang Kupang",
    "state_id": 1345,
    "state_code": "03",
    "country_id": 174,
    "country_code": "PH",
    "latitude": "15.34807000",
    "longitude": "120.85752000",
    "wikiDataId": null
  },
  {
    "id": 83065,
    "name": "Lennec",
    "state_id": 1345,
    "state_code": "03",
    "country_id": 174,
    "country_code": "PH",
    "latitude": "15.68350000",
    "longitude": "120.73380000",
    "wikiDataId": null
  },
  {
    "id": 83101,
    "name": "Liciada",
    "state_id": 1345,
    "state_code": "03",
    "country_id": 174,
    "country_code": "PH",
    "latitude": "14.91484000",
    "longitude": "120.93182000",
    "wikiDataId": null
  },
  {
    "id": 83106,
    "name": "Ligaya",
    "state_id": 1345,
    "state_code": "03",
    "country_id": 174,
    "country_code": "PH",
    "latitude": "15.50910000",
    "longitude": "121.28720000",
    "wikiDataId": null
  },
  {
    "id": 83118,
    "name": "Limay",
    "state_id": 1345,
    "state_code": "03",
    "country_id": 174,
    "country_code": "PH",
    "latitude": "14.56252420",
    "longitude": "120.59495590",
    "wikiDataId": null
  },
  {
    "id": 83145,
    "name": "Liozon",
    "state_id": 1345,
    "state_code": "03",
    "country_id": 174,
    "country_code": "PH",
    "latitude": "15.39930000",
    "longitude": "119.93300000",
    "wikiDataId": null
  },
  {
    "id": 83148,
    "name": "Lipay",
    "state_id": 1345,
    "state_code": "03",
    "country_id": 174,
    "country_code": "PH",
    "latitude": "15.45610000",
    "longitude": "119.92080000",
    "wikiDataId": null
  },
  {
    "id": 83163,
    "name": "Loma de Gato",
    "state_id": 1345,
    "state_code": "03",
    "country_id": 174,
    "country_code": "PH",
    "latitude": "14.78869000",
    "longitude": "120.99889000",
    "wikiDataId": null
  },
  {
    "id": 83166,
    "name": "Lomboy",
    "state_id": 1345,
    "state_code": "03",
    "country_id": 174,
    "country_code": "PH",
    "latitude": "15.49255000",
    "longitude": "120.71723000",
    "wikiDataId": null
  },
  {
    "id": 83187,
    "name": "Lourdes",
    "state_id": 1345,
    "state_code": "03",
    "country_id": 174,
    "country_code": "PH",
    "latitude": "14.96667000",
    "longitude": "120.68333000",
    "wikiDataId": null
  },
  {
    "id": 83197,
    "name": "Lucapon",
    "state_id": 1345,
    "state_code": "03",
    "country_id": 174,
    "country_code": "PH",
    "latitude": "15.69980000",
    "longitude": "119.93200000",
    "wikiDataId": null
  },
  {
    "id": 83264,
    "name": "Mababanaba",
    "state_id": 1345,
    "state_code": "03",
    "country_id": 174,
    "country_code": "PH",
    "latitude": "15.49715000",
    "longitude": "120.46053000",
    "wikiDataId": null
  },
  {
    "id": 83266,
    "name": "Mabalacat City",
    "state_id": 1345,
    "state_code": "03",
    "country_id": 174,
    "country_code": "PH",
    "latitude": "15.22303000",
    "longitude": "120.57117000",
    "wikiDataId": null
  },
  {
    "id": 83269,
    "name": "Mabayo",
    "state_id": 1345,
    "state_code": "03",
    "country_id": 174,
    "country_code": "PH",
    "latitude": "14.73180000",
    "longitude": "120.27810000",
    "wikiDataId": null
  },
  {
    "id": 83270,
    "name": "Mabilang",
    "state_id": 1345,
    "state_code": "03",
    "country_id": 174,
    "country_code": "PH",
    "latitude": "15.67511000",
    "longitude": "120.48835000",
    "wikiDataId": null
  },
  {
    "id": 83273,
    "name": "Mabilog",
    "state_id": 1345,
    "state_code": "03",
    "country_id": 174,
    "country_code": "PH",
    "latitude": "15.39485000",
    "longitude": "120.66573000",
    "wikiDataId": null
  },
  {
    "id": 83279,
    "name": "Mabini",
    "state_id": 1345,
    "state_code": "03",
    "country_id": 174,
    "country_code": "PH",
    "latitude": "15.60000000",
    "longitude": "120.98333000",
    "wikiDataId": null
  },
  {
    "id": 83302,
    "name": "Macapsing",
    "state_id": 1345,
    "state_code": "03",
    "country_id": 174,
    "country_code": "PH",
    "latitude": "15.67830000",
    "longitude": "121.13190000",
    "wikiDataId": null
  },
  {
    "id": 83303,
    "name": "Macarse",
    "state_id": 1345,
    "state_code": "03",
    "country_id": 174,
    "country_code": "PH",
    "latitude": "15.42495000",
    "longitude": "120.77476000",
    "wikiDataId": null
  },
  {
    "id": 83304,
    "name": "Macatbong",
    "state_id": 1345,
    "state_code": "03",
    "country_id": 174,
    "country_code": "PH",
    "latitude": "15.50480000",
    "longitude": "121.07910000",
    "wikiDataId": null
  },
  {
    "id": 83337,
    "name": "Magliman",
    "state_id": 1345,
    "state_code": "03",
    "country_id": 174,
    "country_code": "PH",
    "latitude": "15.03545000",
    "longitude": "120.66421000",
    "wikiDataId": null
  },
  {
    "id": 83348,
    "name": "Magtangol",
    "state_id": 1345,
    "state_code": "03",
    "country_id": 174,
    "country_code": "PH",
    "latitude": "15.75800000",
    "longitude": "120.91560000",
    "wikiDataId": null
  },
  {
    "id": 83351,
    "name": "Maguinao",
    "state_id": 1345,
    "state_code": "03",
    "country_id": 174,
    "country_code": "PH",
    "latitude": "15.02231000",
    "longitude": "120.93409000",
    "wikiDataId": null
  },
  {
    "id": 83386,
    "name": "Malabon",
    "state_id": 1345,
    "state_code": "03",
    "country_id": 174,
    "country_code": "PH",
    "latitude": "15.63610000",
    "longitude": "119.93790000",
    "wikiDataId": null
  },
  {
    "id": 83391,
    "name": "Malacampa",
    "state_id": 1345,
    "state_code": "03",
    "country_id": 174,
    "country_code": "PH",
    "latitude": "15.64335000",
    "longitude": "120.41109000",
    "wikiDataId": null
  },
  {
    "id": 83428,
    "name": "Maligaya",
    "state_id": 1345,
    "state_code": "03",
    "country_id": 174,
    "country_code": "PH",
    "latitude": "15.67470000",
    "longitude": "120.88870000",
    "wikiDataId": null
  },
  {
    "id": 83442,
    "name": "Malino",
    "state_id": 1345,
    "state_code": "03",
    "country_id": 174,
    "country_code": "PH",
    "latitude": "15.12695000",
    "longitude": "120.67431000",
    "wikiDataId": null
  },
  {
    "id": 83454,
    "name": "Malolos",
    "state_id": 1345,
    "state_code": "03",
    "country_id": 174,
    "country_code": "PH",
    "latitude": "14.84430000",
    "longitude": "120.81039000",
    "wikiDataId": null
  },
  {
    "id": 83455,
    "name": "Maloma",
    "state_id": 1345,
    "state_code": "03",
    "country_id": 174,
    "country_code": "PH",
    "latitude": "15.11350000",
    "longitude": "120.06390000",
    "wikiDataId": null
  },
  {
    "id": 83458,
    "name": "Maluid",
    "state_id": 1345,
    "state_code": "03",
    "country_id": 174,
    "country_code": "PH",
    "latitude": "15.54930000",
    "longitude": "120.65280000",
    "wikiDataId": null
  },
  {
    "id": 83461,
    "name": "Malusac",
    "state_id": 1345,
    "state_code": "03",
    "country_id": 174,
    "country_code": "PH",
    "latitude": "14.85842000",
    "longitude": "120.62120000",
    "wikiDataId": null
  },
  {
    "id": 83475,
    "name": "Mambog",
    "state_id": 1345,
    "state_code": "03",
    "country_id": 174,
    "country_code": "PH",
    "latitude": "15.31370000",
    "longitude": "120.03040000",
    "wikiDataId": null
  },
  {
    "id": 83479,
    "name": "Mamonit",
    "state_id": 1345,
    "state_code": "03",
    "country_id": 174,
    "country_code": "PH",
    "latitude": "15.58719000",
    "longitude": "120.39644000",
    "wikiDataId": null
  },
  {
    "id": 83483,
    "name": "Manacsac",
    "state_id": 1345,
    "state_code": "03",
    "country_id": 174,
    "country_code": "PH",
    "latitude": "15.59520000",
    "longitude": "120.79110000",
    "wikiDataId": null
  },
  {
    "id": 83496,
    "name": "Manatal",
    "state_id": 1345,
    "state_code": "03",
    "country_id": 174,
    "country_code": "PH",
    "latitude": "14.87688000",
    "longitude": "120.91639000",
    "wikiDataId": null
  },
  {
    "id": 83506,
    "name": "Mandili",
    "state_id": 1345,
    "state_code": "03",
    "country_id": 174,
    "country_code": "PH",
    "latitude": "15.17912000",
    "longitude": "120.87726000",
    "wikiDataId": null
  },
  {
    "id": 83515,
    "name": "Mangga",
    "state_id": 1345,
    "state_code": "03",
    "country_id": 174,
    "country_code": "PH",
    "latitude": "15.25041000",
    "longitude": "120.90876000",
    "wikiDataId": null
  },
  {
    "id": 83520,
    "name": "Manibaug Pasig",
    "state_id": 1345,
    "state_code": "03",
    "country_id": 174,
    "country_code": "PH",
    "latitude": "15.09621000",
    "longitude": "120.56445000",
    "wikiDataId": null
  },
  {
    "id": 83531,
    "name": "Manogpi",
    "state_id": 1345,
    "state_code": "03",
    "country_id": 174,
    "country_code": "PH",
    "latitude": "13.31080000",
    "longitude": "121.20400000",
    "wikiDataId": null
  },
  {
    "id": 83548,
    "name": "Mapalacsiao",
    "state_id": 1345,
    "state_code": "03",
    "country_id": 174,
    "country_code": "PH",
    "latitude": "15.42831000",
    "longitude": "120.65252000",
    "wikiDataId": null
  },
  {
    "id": 83549,
    "name": "Mapalad",
    "state_id": 1345,
    "state_code": "03",
    "country_id": 174,
    "country_code": "PH",
    "latitude": "15.45133000",
    "longitude": "121.08384000",
    "wikiDataId": null
  },
  {
    "id": 83552,
    "name": "Mapaniqui",
    "state_id": 1345,
    "state_code": "03",
    "country_id": 174,
    "country_code": "PH",
    "latitude": "15.10696000",
    "longitude": "120.92287000",
    "wikiDataId": null
  },
  {
    "id": 83558,
    "name": "Maquiapo",
    "state_id": 1345,
    "state_code": "03",
    "country_id": 174,
    "country_code": "PH",
    "latitude": "14.98561000",
    "longitude": "120.55855000",
    "wikiDataId": null
  },
  {
    "id": 83566,
    "name": "Marawa",
    "state_id": 1345,
    "state_code": "03",
    "country_id": 174,
    "country_code": "PH",
    "latitude": "15.41727000",
    "longitude": "120.83819000",
    "wikiDataId": null
  },
  {
    "id": 83583,
    "name": "Marilao",
    "state_id": 1345,
    "state_code": "03",
    "country_id": 174,
    "country_code": "PH",
    "latitude": "14.75778000",
    "longitude": "120.94833000",
    "wikiDataId": null
  },
  {
    "id": 83586,
    "name": "Mariveles",
    "state_id": 1345,
    "state_code": "03",
    "country_id": 174,
    "country_code": "PH",
    "latitude": "14.43385000",
    "longitude": "120.48569000",
    "wikiDataId": null
  },
  {
    "id": 83593,
    "name": "Masalipit",
    "state_id": 1345,
    "state_code": "03",
    "country_id": 174,
    "country_code": "PH",
    "latitude": "15.14810000",
    "longitude": "121.03730000",
    "wikiDataId": null
  },
  {
    "id": 83622,
    "name": "Matayumtayum",
    "state_id": 1345,
    "state_code": "03",
    "country_id": 174,
    "country_code": "PH",
    "latitude": "15.51660000",
    "longitude": "120.70980000",
    "wikiDataId": null
  },
  {
    "id": 83634,
    "name": "Maturanoc",
    "state_id": 1345,
    "state_code": "03",
    "country_id": 174,
    "country_code": "PH",
    "latitude": "15.65710000",
    "longitude": "120.79210000",
    "wikiDataId": null
  },
  {
    "id": 83664,
    "name": "Meycauayan",
    "state_id": 1345,
    "state_code": "03",
    "country_id": 174,
    "country_code": "PH",
    "latitude": "14.73694000",
    "longitude": "120.96083000",
    "wikiDataId": null
  },
  {
    "id": 83711,
    "name": "Moriones",
    "state_id": 1345,
    "state_code": "03",
    "country_id": 174,
    "country_code": "PH",
    "latitude": "15.46116000",
    "longitude": "120.46579000",
    "wikiDataId": null
  },
  {
    "id": 83716,
    "name": "Motrico",
    "state_id": 1345,
    "state_code": "03",
    "country_id": 174,
    "country_code": "PH",
    "latitude": "15.41355000",
    "longitude": "120.67653000",
    "wikiDataId": null
  },
  {
    "id": 83748,
    "name": "Nagpandayan",
    "state_id": 1345,
    "state_code": "03",
    "country_id": 174,
    "country_code": "PH",
    "latitude": "15.60138000",
    "longitude": "120.76893000",
    "wikiDataId": null
  },
  {
    "id": 83765,
    "name": "Nambalan",
    "state_id": 1345,
    "state_code": "03",
    "country_id": 174,
    "country_code": "PH",
    "latitude": "15.59911000",
    "longitude": "120.46031000",
    "wikiDataId": null
  },
  {
    "id": 83770,
    "name": "Nancamarinan",
    "state_id": 1345,
    "state_code": "03",
    "country_id": 174,
    "country_code": "PH",
    "latitude": "15.67520000",
    "longitude": "120.53640000",
    "wikiDataId": null
  },
  {
    "id": 83815,
    "name": "Nieves",
    "state_id": 1345,
    "state_code": "03",
    "country_id": 174,
    "country_code": "PH",
    "latitude": "15.32842000",
    "longitude": "120.94892000",
    "wikiDataId": null
  },
  {
    "id": 83819,
    "name": "Niugan",
    "state_id": 1345,
    "state_code": "03",
    "country_id": 174,
    "country_code": "PH",
    "latitude": "14.94607000",
    "longitude": "120.96720000",
    "wikiDataId": null
  },
  {
    "id": 83822,
    "name": "Norzagaray",
    "state_id": 1345,
    "state_code": "03",
    "country_id": 174,
    "country_code": "PH",
    "latitude": "14.91090000",
    "longitude": "121.04930000",
    "wikiDataId": null
  },
  {
    "id": 83835,
    "name": "Obando",
    "state_id": 1345,
    "state_code": "03",
    "country_id": 174,
    "country_code": "PH",
    "latitude": "14.70980000",
    "longitude": "120.93620000",
    "wikiDataId": null
  },
  {
    "id": 83857,
    "name": "Orani",
    "state_id": 1345,
    "state_code": "03",
    "country_id": 174,
    "country_code": "PH",
    "latitude": "14.80060000",
    "longitude": "120.53710000",
    "wikiDataId": null
  },
  {
    "id": 83859,
    "name": "Orion",
    "state_id": 1345,
    "state_code": "03",
    "country_id": 174,
    "country_code": "PH",
    "latitude": "14.62157000",
    "longitude": "120.57723170",
    "wikiDataId": null
  },
  {
    "id": 83874,
    "name": "Paco Roman",
    "state_id": 1345,
    "state_code": "03",
    "country_id": 174,
    "country_code": "PH",
    "latitude": "15.65970000",
    "longitude": "121.08770000",
    "wikiDataId": null
  },
  {
    "id": 83878,
    "name": "Padapada",
    "state_id": 1345,
    "state_code": "03",
    "country_id": 174,
    "country_code": "PH",
    "latitude": "15.55170000",
    "longitude": "120.51630000",
    "wikiDataId": null
  },
  {
    "id": 83903,
    "name": "Paitan Norte",
    "state_id": 1345,
    "state_code": "03",
    "country_id": 174,
    "country_code": "PH",
    "latitude": "15.83333000",
    "longitude": "120.74086000",
    "wikiDataId": null
  },
  {
    "id": 83918,
    "name": "Palayan City",
    "state_id": 1345,
    "state_code": "03",
    "country_id": 174,
    "country_code": "PH",
    "latitude": "15.54150000",
    "longitude": "121.08480000",
    "wikiDataId": null
  },
  {
    "id": 83932,
    "name": "Palusapis",
    "state_id": 1345,
    "state_code": "03",
    "country_id": 174,
    "country_code": "PH",
    "latitude": "15.68324000",
    "longitude": "120.86267000",
    "wikiDataId": null
  },
  {
    "id": 83934,
    "name": "Pamatawan",
    "state_id": 1345,
    "state_code": "03",
    "country_id": 174,
    "country_code": "PH",
    "latitude": "14.92779000",
    "longitude": "120.21363000",
    "wikiDataId": null
  },
  {
    "id": 83942,
    "name": "Panabingan",
    "state_id": 1345,
    "state_code": "03",
    "country_id": 174,
    "country_code": "PH",
    "latitude": "15.37732000",
    "longitude": "120.76492000",
    "wikiDataId": null
  },
  {
    "id": 83951,
    "name": "Panan",
    "state_id": 1345,
    "state_code": "03",
    "country_id": 174,
    "country_code": "PH",
    "latitude": "15.21340000",
    "longitude": "120.02720000",
    "wikiDataId": null
  },
  {
    "id": 83956,
    "name": "Pance",
    "state_id": 1345,
    "state_code": "03",
    "country_id": 174,
    "country_code": "PH",
    "latitude": "15.68850000",
    "longitude": "120.62010000",
    "wikiDataId": null
  },
  {
    "id": 83958,
    "name": "Pandacaqui",
    "state_id": 1345,
    "state_code": "03",
    "country_id": 174,
    "country_code": "PH",
    "latitude": "15.17190000",
    "longitude": "120.65457000",
    "wikiDataId": null
  },
  {
    "id": 83965,
    "name": "Pandi",
    "state_id": 1345,
    "state_code": "03",
    "country_id": 174,
    "country_code": "PH",
    "latitude": "14.86500000",
    "longitude": "120.95722000",
    "wikiDataId": null
  },
  {
    "id": 83966,
    "name": "Pando",
    "state_id": 1345,
    "state_code": "03",
    "country_id": 174,
    "country_code": "PH",
    "latitude": "15.39395000",
    "longitude": "120.68473000",
    "wikiDataId": null
  },
  {
    "id": 83994,
    "name": "Panlinlang",
    "state_id": 1345,
    "state_code": "03",
    "country_id": 174,
    "country_code": "PH",
    "latitude": "15.18333000",
    "longitude": "120.70000000",
    "wikiDataId": null
  },
  {
    "id": 84004,
    "name": "Pantubig",
    "state_id": 1345,
    "state_code": "03",
    "country_id": 174,
    "country_code": "PH",
    "latitude": "14.96806000",
    "longitude": "120.95472000",
    "wikiDataId": null
  },
  {
    "id": 84009,
    "name": "Paombong",
    "state_id": 1345,
    "state_code": "03",
    "country_id": 174,
    "country_code": "PH",
    "latitude": "14.83111000",
    "longitude": "120.78917000",
    "wikiDataId": null
  },
  {
    "id": 84010,
    "name": "Papaya",
    "state_id": 1345,
    "state_code": "03",
    "country_id": 174,
    "country_code": "PH",
    "latitude": "15.32016000",
    "longitude": "120.83574000",
    "wikiDataId": null
  },
  {
    "id": 84025,
    "name": "Parista",
    "state_id": 1345,
    "state_code": "03",
    "country_id": 174,
    "country_code": "PH",
    "latitude": "15.85360000",
    "longitude": "120.92820000",
    "wikiDataId": null
  },
  {
    "id": 84056,
    "name": "Pau",
    "state_id": 1345,
    "state_code": "03",
    "country_id": 174,
    "country_code": "PH",
    "latitude": "15.02790000",
    "longitude": "120.72430000",
    "wikiDataId": null
  },
  {
    "id": 84081,
    "name": "Pias",
    "state_id": 1345,
    "state_code": "03",
    "country_id": 174,
    "country_code": "PH",
    "latitude": "15.34525000",
    "longitude": "121.07473000",
    "wikiDataId": null
  },
  {
    "id": 84127,
    "name": "Pi単ahan",
    "state_id": 1345,
    "state_code": "03",
    "country_id": 174,
    "country_code": "PH",
    "latitude": "15.62660000",
    "longitude": "121.06210000",
    "wikiDataId": null
  },
  {
    "id": 84104,
    "name": "Pinambaran",
    "state_id": 1345,
    "state_code": "03",
    "country_id": 174,
    "country_code": "PH",
    "latitude": "15.20233000",
    "longitude": "120.97797000",
    "wikiDataId": null
  },
  {
    "id": 84118,
    "name": "Pio",
    "state_id": 1345,
    "state_code": "03",
    "country_id": 174,
    "country_code": "PH",
    "latitude": "15.04741000",
    "longitude": "120.51891000",
    "wikiDataId": null
  },
  {
    "id": 84137,
    "name": "Poblacion San Felipe",
    "state_id": 1345,
    "state_code": "03",
    "country_id": 174,
    "country_code": "PH",
    "latitude": "15.06222000",
    "longitude": "120.07000000",
    "wikiDataId": null
  },
  {
    "id": 84164,
    "name": "Porais",
    "state_id": 1345,
    "state_code": "03",
    "country_id": 174,
    "country_code": "PH",
    "latitude": "15.75510000",
    "longitude": "121.04270000",
    "wikiDataId": null
  },
  {
    "id": 84171,
    "name": "Prado Siongco",
    "state_id": 1345,
    "state_code": "03",
    "country_id": 174,
    "country_code": "PH",
    "latitude": "14.87900000",
    "longitude": "120.51292000",
    "wikiDataId": null
  },
  {
    "id": 84187,
    "name": "Province of Aurora",
    "state_id": 1345,
    "state_code": "03",
    "country_id": 174,
    "country_code": "PH",
    "latitude": "15.98773000",
    "longitude": "121.58020000",
    "wikiDataId": null
  },
  {
    "id": 84189,
    "name": "Province of Bataan",
    "state_id": 1345,
    "state_code": "03",
    "country_id": 174,
    "country_code": "PH",
    "latitude": "14.66667000",
    "longitude": "120.41667000",
    "wikiDataId": null
  },
  {
    "id": 84194,
    "name": "Province of Bulacan",
    "state_id": 1345,
    "state_code": "03",
    "country_id": 174,
    "country_code": "PH",
    "latitude": "15.00000000",
    "longitude": "121.08333300",
    "wikiDataId": null
  },
  {
    "id": 84229,
    "name": "Province of Nueva Ecija",
    "state_id": 1345,
    "state_code": "03",
    "country_id": 174,
    "country_code": "PH",
    "latitude": "15.58333000",
    "longitude": "121.00000000",
    "wikiDataId": null
  },
  {
    "id": 84232,
    "name": "Province of Pampanga",
    "state_id": 1345,
    "state_code": "03",
    "country_id": 174,
    "country_code": "PH",
    "latitude": "15.06667000",
    "longitude": "120.66667000",
    "wikiDataId": null
  },
  {
    "id": 84248,
    "name": "Province of Tarlac",
    "state_id": 1345,
    "state_code": "03",
    "country_id": 174,
    "country_code": "PH",
    "latitude": "15.50000000",
    "longitude": "120.50000000",
    "wikiDataId": null
  },
  {
    "id": 84250,
    "name": "Province of Zambales",
    "state_id": 1345,
    "state_code": "03",
    "country_id": 174,
    "country_code": "PH",
    "latitude": "15.33333000",
    "longitude": "120.16667000",
    "wikiDataId": null
  },
  {
    "id": 84263,
    "name": "Pulilan",
    "state_id": 1345,
    "state_code": "03",
    "country_id": 174,
    "country_code": "PH",
    "latitude": "14.90167000",
    "longitude": "120.84917000",
    "wikiDataId": null
  },
  {
    "id": 84265,
    "name": "Pulo",
    "state_id": 1345,
    "state_code": "03",
    "country_id": 174,
    "country_code": "PH",
    "latitude": "14.96220000",
    "longitude": "121.01470000",
    "wikiDataId": null
  },
  {
    "id": 84266,
    "name": "Pulong Gubat",
    "state_id": 1345,
    "state_code": "03",
    "country_id": 174,
    "country_code": "PH",
    "latitude": "14.85938000",
    "longitude": "120.90599000",
    "wikiDataId": null
  },
  {
    "id": 84267,
    "name": "Pulong Sampalok",
    "state_id": 1345,
    "state_code": "03",
    "country_id": 174,
    "country_code": "PH",
    "latitude": "14.96110000",
    "longitude": "121.06090000",
    "wikiDataId": null
  },
  {
    "id": 84270,
    "name": "Pulung Santol",
    "state_id": 1345,
    "state_code": "03",
    "country_id": 174,
    "country_code": "PH",
    "latitude": "15.04574000",
    "longitude": "120.56188000",
    "wikiDataId": null
  },
  {
    "id": 84271,
    "name": "Pulungmasle",
    "state_id": 1345,
    "state_code": "03",
    "country_id": 174,
    "country_code": "PH",
    "latitude": "15.00040000",
    "longitude": "120.55774000",
    "wikiDataId": null
  },
  {
    "id": 84276,
    "name": "Puncan",
    "state_id": 1345,
    "state_code": "03",
    "country_id": 174,
    "country_code": "PH",
    "latitude": "15.90710000",
    "longitude": "120.99070000",
    "wikiDataId": null
  },
  {
    "id": 84284,
    "name": "Purac",
    "state_id": 1345,
    "state_code": "03",
    "country_id": 174,
    "country_code": "PH",
    "latitude": "15.25200000",
    "longitude": "120.01690000",
    "wikiDataId": null
  },
  {
    "id": 84292,
    "name": "Putlod",
    "state_id": 1345,
    "state_code": "03",
    "country_id": 174,
    "country_code": "PH",
    "latitude": "15.37060000",
    "longitude": "120.86750000",
    "wikiDataId": null
  },
  {
    "id": 84321,
    "name": "Rajal Norte",
    "state_id": 1345,
    "state_code": "03",
    "country_id": 174,
    "country_code": "PH",
    "latitude": "15.44485000",
    "longitude": "120.86256000",
    "wikiDataId": null
  },
  {
    "id": 84367,
    "name": "Sabang",
    "state_id": 1345,
    "state_code": "03",
    "country_id": 174,
    "country_code": "PH",
    "latitude": "14.69510000",
    "longitude": "120.25070000",
    "wikiDataId": null
  },
  {
    "id": 84381,
    "name": "Sagana",
    "state_id": 1345,
    "state_code": "03",
    "country_id": 174,
    "country_code": "PH",
    "latitude": "15.56890000",
    "longitude": "121.15220000",
    "wikiDataId": null
  },
  {
    "id": 84401,
    "name": "Salapungan",
    "state_id": 1345,
    "state_code": "03",
    "country_id": 174,
    "country_code": "PH",
    "latitude": "15.13390000",
    "longitude": "120.92794000",
    "wikiDataId": null
  },
  {
    "id": 84404,
    "name": "Salaza",
    "state_id": 1345,
    "state_code": "03",
    "country_id": 174,
    "country_code": "PH",
    "latitude": "15.45410000",
    "longitude": "119.95530000",
    "wikiDataId": null
  },
  {
    "id": 84422,
    "name": "Salvacion I",
    "state_id": 1345,
    "state_code": "03",
    "country_id": 174,
    "country_code": "PH",
    "latitude": "15.83960000",
    "longitude": "120.91590000",
    "wikiDataId": null
  },
  {
    "id": 84440,
    "name": "San Alejandro",
    "state_id": 1345,
    "state_code": "03",
    "country_id": 174,
    "country_code": "PH",
    "latitude": "15.56098000",
    "longitude": "120.84896000",
    "wikiDataId": null
  },
  {
    "id": 84445,
    "name": "San Anton",
    "state_id": 1345,
    "state_code": "03",
    "country_id": 174,
    "country_code": "PH",
    "latitude": "15.34780000",
    "longitude": "120.91991000",
    "wikiDataId": null
  },
  {
    "id": 84454,
    "name": "San Basilio",
    "state_id": 1345,
    "state_code": "03",
    "country_id": 174,
    "country_code": "PH",
    "latitude": "15.03341000",
    "longitude": "120.58427000",
    "wikiDataId": null
  },
  {
    "id": 84461,
    "name": "San Casimiro",
    "state_id": 1345,
    "state_code": "03",
    "country_id": 174,
    "country_code": "PH",
    "latitude": "15.55306000",
    "longitude": "120.78083000",
    "wikiDataId": null
  },
  {
    "id": 84464,
    "name": "San Cristobal",
    "state_id": 1345,
    "state_code": "03",
    "country_id": 174,
    "country_code": "PH",
    "latitude": "15.55382000",
    "longitude": "120.76703000",
    "wikiDataId": null
  },
  {
    "id": 84476,
    "name": "San Felipe Old",
    "state_id": 1345,
    "state_code": "03",
    "country_id": 174,
    "country_code": "PH",
    "latitude": "15.50140000",
    "longitude": "120.90780000",
    "wikiDataId": null
  },
  {
    "id": 84523,
    "name": "San Jose del Monte",
    "state_id": 1345,
    "state_code": "03",
    "country_id": 174,
    "country_code": "PH",
    "latitude": "14.81389000",
    "longitude": "121.04528000",
    "wikiDataId": null
  },
  {
    "id": 84532,
    "name": "San Juan de Mata",
    "state_id": 1345,
    "state_code": "03",
    "country_id": 174,
    "country_code": "PH",
    "latitude": "15.53520000",
    "longitude": "120.53020000",
    "wikiDataId": null
  },
  {
    "id": 84581,
    "name": "San Patricio",
    "state_id": 1345,
    "state_code": "03",
    "country_id": 174,
    "country_code": "PH",
    "latitude": "15.09775000",
    "longitude": "120.72876000",
    "wikiDataId": null
  },
  {
    "id": 84610,
    "name": "San Roque Dau First",
    "state_id": 1345,
    "state_code": "03",
    "country_id": 174,
    "country_code": "PH",
    "latitude": "14.97711000",
    "longitude": "120.57688000",
    "wikiDataId": null
  },
  {
    "id": 84626,
    "name": "San Vincente",
    "state_id": 1345,
    "state_code": "03",
    "country_id": 174,
    "country_code": "PH",
    "latitude": "13.40680000",
    "longitude": "121.17500000",
    "wikiDataId": null
  },
  {
    "id": 84673,
    "name": "Santa Ines West",
    "state_id": 1345,
    "state_code": "03",
    "country_id": 174,
    "country_code": "PH",
    "latitude": "15.55694000",
    "longitude": "120.46448000",
    "wikiDataId": null
  },
  {
    "id": 84675,
    "name": "Santa Juliana",
    "state_id": 1345,
    "state_code": "03",
    "country_id": 174,
    "country_code": "PH",
    "latitude": "15.32826000",
    "longitude": "120.42863000",
    "wikiDataId": null
  },
  {
    "id": 84704,
    "name": "Santa Teresa First",
    "state_id": 1345,
    "state_code": "03",
    "country_id": 174,
    "country_code": "PH",
    "latitude": "14.92650000",
    "longitude": "120.55791000",
    "wikiDataId": null
  },
  {
    "id": 84717,
    "name": "Santo Cristo",
    "state_id": 1345,
    "state_code": "03",
    "country_id": 174,
    "country_code": "PH",
    "latitude": "15.29683000",
    "longitude": "120.89025000",
    "wikiDataId": null
  },
  {
    "id": 84729,
    "name": "Santo Rosario",
    "state_id": 1345,
    "state_code": "03",
    "country_id": 174,
    "country_code": "PH",
    "latitude": "15.64470000",
    "longitude": "120.86120000",
    "wikiDataId": null
  },
  {
    "id": 84742,
    "name": "Sapang",
    "state_id": 1345,
    "state_code": "03",
    "country_id": 174,
    "country_code": "PH",
    "latitude": "15.70320000",
    "longitude": "120.52450000",
    "wikiDataId": null
  },
  {
    "id": 84743,
    "name": "Sapang Buho",
    "state_id": 1345,
    "state_code": "03",
    "country_id": 174,
    "country_code": "PH",
    "latitude": "15.59038000",
    "longitude": "121.12454000",
    "wikiDataId": null
  },
  {
    "id": 84746,
    "name": "Sapol",
    "state_id": 1345,
    "state_code": "03",
    "country_id": 174,
    "country_code": "PH",
    "latitude": "13.36500000",
    "longitude": "121.18930000",
    "wikiDataId": null
  },
  {
    "id": 84755,
    "name": "Saysain",
    "state_id": 1345,
    "state_code": "03",
    "country_id": 174,
    "country_code": "PH",
    "latitude": "14.56111000",
    "longitude": "120.39250000",
    "wikiDataId": null
  },
  {
    "id": 84762,
    "name": "Sexmoan",
    "state_id": 1345,
    "state_code": "03",
    "country_id": 174,
    "country_code": "PH",
    "latitude": "14.94380000",
    "longitude": "120.62290000",
    "wikiDataId": null
  },
  {
    "id": 84774,
    "name": "Sibul",
    "state_id": 1345,
    "state_code": "03",
    "country_id": 174,
    "country_code": "PH",
    "latitude": "15.16900000",
    "longitude": "121.06160000",
    "wikiDataId": null
  },
  {
    "id": 84780,
    "name": "Siclong",
    "state_id": 1345,
    "state_code": "03",
    "country_id": 174,
    "country_code": "PH",
    "latitude": "15.58080000",
    "longitude": "121.22390000",
    "wikiDataId": null
  },
  {
    "id": 84815,
    "name": "Sinilian First",
    "state_id": 1345,
    "state_code": "03",
    "country_id": 174,
    "country_code": "PH",
    "latitude": "15.69327000",
    "longitude": "120.45936000",
    "wikiDataId": null
  },
  {
    "id": 84843,
    "name": "Soledad",
    "state_id": 1345,
    "state_code": "03",
    "country_id": 174,
    "country_code": "PH",
    "latitude": "15.42838000",
    "longitude": "120.98355000",
    "wikiDataId": null
  },
  {
    "id": 84863,
    "name": "Suklayin",
    "state_id": 1345,
    "state_code": "03",
    "country_id": 174,
    "country_code": "PH",
    "latitude": "15.75740000",
    "longitude": "121.55030000",
    "wikiDataId": null
  },
  {
    "id": 84864,
    "name": "Sula",
    "state_id": 1345,
    "state_code": "03",
    "country_id": 174,
    "country_code": "PH",
    "latitude": "15.45725000",
    "longitude": "120.39553000",
    "wikiDataId": null
  },
  {
    "id": 84872,
    "name": "Sulucan",
    "state_id": 1345,
    "state_code": "03",
    "country_id": 174,
    "country_code": "PH",
    "latitude": "14.79448000",
    "longitude": "120.92594000",
    "wikiDataId": null
  },
  {
    "id": 84890,
    "name": "Tabacao",
    "state_id": 1345,
    "state_code": "03",
    "country_id": 174,
    "country_code": "PH",
    "latitude": "15.64973000",
    "longitude": "120.94066000",
    "wikiDataId": null
  },
  {
    "id": 84906,
    "name": "Tabon",
    "state_id": 1345,
    "state_code": "03",
    "country_id": 174,
    "country_code": "PH",
    "latitude": "15.27098000",
    "longitude": "120.91273000",
    "wikiDataId": null
  },
  {
    "id": 84912,
    "name": "Tabuating",
    "state_id": 1345,
    "state_code": "03",
    "country_id": 174,
    "country_code": "PH",
    "latitude": "15.39210000",
    "longitude": "120.94084000",
    "wikiDataId": null
  },
  {
    "id": 84957,
    "name": "Tal I Mun Doc",
    "state_id": 1345,
    "state_code": "03",
    "country_id": 174,
    "country_code": "PH",
    "latitude": "15.21210000",
    "longitude": "120.68490000",
    "wikiDataId": null
  },
  {
    "id": 84962,
    "name": "Talaga",
    "state_id": 1345,
    "state_code": "03",
    "country_id": 174,
    "country_code": "PH",
    "latitude": "15.38403000",
    "longitude": "120.58933000",
    "wikiDataId": null
  },
  {
    "id": 84970,
    "name": "Talang",
    "state_id": 1345,
    "state_code": "03",
    "country_id": 174,
    "country_code": "PH",
    "latitude": "15.02488000",
    "longitude": "120.83782000",
    "wikiDataId": null
  },
  {
    "id": 84996,
    "name": "Taltal",
    "state_id": 1345,
    "state_code": "03",
    "country_id": 174,
    "country_code": "PH",
    "latitude": "15.58780000",
    "longitude": "119.94550000",
    "wikiDataId": null
  },
  {
    "id": 85056,
    "name": "Tariji",
    "state_id": 1345,
    "state_code": "03",
    "country_id": 174,
    "country_code": "PH",
    "latitude": "15.52112000",
    "longitude": "120.61442000",
    "wikiDataId": null
  },
  {
    "id": 85061,
    "name": "Tartaro",
    "state_id": 1345,
    "state_code": "03",
    "country_id": 174,
    "country_code": "PH",
    "latitude": "15.16667000",
    "longitude": "121.01667000",
    "wikiDataId": null
  },
  {
    "id": 85070,
    "name": "Tayabo",
    "state_id": 1345,
    "state_code": "03",
    "country_id": 174,
    "country_code": "PH",
    "latitude": "15.83450000",
    "longitude": "121.03090000",
    "wikiDataId": null
  },
  {
    "id": 85086,
    "name": "Telabastagan",
    "state_id": 1345,
    "state_code": "03",
    "country_id": 174,
    "country_code": "PH",
    "latitude": "15.11854000",
    "longitude": "120.60773000",
    "wikiDataId": null
  },
  {
    "id": 85119,
    "name": "Tikiw",
    "state_id": 1345,
    "state_code": "03",
    "country_id": 174,
    "country_code": "PH",
    "latitude": "15.31193000",
    "longitude": "120.86116000",
    "wikiDataId": null
  },
  {
    "id": 85131,
    "name": "Tinang",
    "state_id": 1345,
    "state_code": "03",
    "country_id": 174,
    "country_code": "PH",
    "latitude": "15.37626000",
    "longitude": "120.65343000",
    "wikiDataId": null
  },
  {
    "id": 85166,
    "name": "Tondod",
    "state_id": 1345,
    "state_code": "03",
    "country_id": 174,
    "country_code": "PH",
    "latitude": "15.71820000",
    "longitude": "120.96800000",
    "wikiDataId": null
  },
  {
    "id": 85239,
    "name": "Uacon",
    "state_id": 1345,
    "state_code": "03",
    "country_id": 174,
    "country_code": "PH",
    "latitude": "15.67870000",
    "longitude": "119.94030000",
    "wikiDataId": null
  },
  {
    "id": 85251,
    "name": "Umiray",
    "state_id": 1345,
    "state_code": "03",
    "country_id": 174,
    "country_code": "PH",
    "latitude": "15.22060000",
    "longitude": "121.41110000",
    "wikiDataId": null
  },
  {
    "id": 85264,
    "name": "Upig",
    "state_id": 1345,
    "state_code": "03",
    "country_id": 174,
    "country_code": "PH",
    "latitude": "15.02551000",
    "longitude": "120.99193000",
    "wikiDataId": null
  },
  {
    "id": 85281,
    "name": "Vargas",
    "state_id": 1345,
    "state_code": "03",
    "country_id": 174,
    "country_code": "PH",
    "latitude": "15.59332000",
    "longitude": "120.48709000",
    "wikiDataId": null
  },
  {
    "id": 85292,
    "name": "Villa Aglipay",
    "state_id": 1345,
    "state_code": "03",
    "country_id": 174,
    "country_code": "PH",
    "latitude": "15.46605000",
    "longitude": "120.45273000",
    "wikiDataId": null
  },
  {
    "id": 85293,
    "name": "Villa Isla",
    "state_id": 1345,
    "state_code": "03",
    "country_id": 174,
    "country_code": "PH",
    "latitude": "15.77030000",
    "longitude": "120.86660000",
    "wikiDataId": null
  },
  {
    "id": 85310,
    "name": "Vizal San Pablo",
    "state_id": 1345,
    "state_code": "03",
    "country_id": 174,
    "country_code": "PH",
    "latitude": "15.06247000",
    "longitude": "120.90021000",
    "wikiDataId": null
  },
  {
    "id": 85311,
    "name": "Vizal Santo Ni単o",
    "state_id": 1345,
    "state_code": "03",
    "country_id": 174,
    "country_code": "PH",
    "latitude": "15.02924000",
    "longitude": "120.90505000",
    "wikiDataId": null
  }
]