[
  {
    "id": 3067,
    "name": "Central",
    "country_id": 29,
    "country_code": "BW",
    "state_code": "CE",
    "type": "district",
    "latitude": "-21.47901870",
    "longitude": "26.21541740",
    "iso3166_2": "BW-CE",
    "native": "Central",
    "timezone": "Africa/Gaborone"
  },
  {
    "id": 3061,
    "name": "Ghanzi",
    "country_id": 29,
    "country_code": "BW",
    "state_code": "GH",
    "type": "district",
    "latitude": "-21.69681230",
    "longitude": "21.64570620",
    "iso3166_2": "BW-GH",
    "native": "Pirm",
    "timezone": "Africa/Gaborone"
  },
  {
    "id": 3066,
    "name": "Kgalagadi",
    "country_id": 29,
    "country_code": "BW",
    "state_code": "KG",
    "type": "district",
    "latitude": "-24.84905760",
    "longitude": "21.78833490",
    "iso3166_2": "BW-KG",
    "native": "Kgalagadi",
    "timezone": "Africa/Gaborone"
  },
  {
    "id": 3062,
    "name": "Kgatleng",
    "country_id": 29,
    "country_code": "BW",
    "state_code": "KL",
    "type": "district",
    "latitude": "-24.13408500",
    "longitude": "26.41772460",
    "iso3166_2": "BW-KL",
    "native": "In the world",
    "timezone": "Africa/Gaborone"
  },
  {
    "id": 3069,
    "name": "Kweneng",
    "country_id": 29,
    "country_code": "BW",
    "state_code": "KW",
    "type": "district",
    "latitude": "-23.90281010",
    "longitude": "24.92141220",
    "iso3166_2": "BW-KW",
    "native": "Kweneng",
    "timezone": "Africa/Gaborone"
  },
  {
    "id": 3060,
    "name": "Ngamiland",
    "country_id": 29,
    "country_code": "BW",
    "state_code": "NG",
    "type": "city",
    "latitude": "-19.98755330",
    "longitude": "23.42674680",
    "iso3166_2": "BW-NG",
    "native": "Ngamiland",
    "timezone": "Africa/Gaborone"
  },
  {
    "id": 3068,
    "name": "North-East",
    "country_id": 29,
    "country_code": "BW",
    "state_code": "NE",
    "type": "district",
    "latitude": "-21.02448160",
    "longitude": "27.51475040",
    "iso3166_2": "BW-NE",
    "native": "North-East",
    "timezone": "Africa/Gaborone"
  },
  {
    "id": 3065,
    "name": "North-West",
    "country_id": 29,
    "country_code": "BW",
    "state_code": "NW",
    "type": "district",
    "latitude": "-19.38935290",
    "longitude": "23.26795100",
    "iso3166_2": "BW-NW",
    "native": "North-West",
    "timezone": "Africa/Gaborone"
  },
  {
    "id": 3064,
    "name": "South-East",
    "country_id": 29,
    "country_code": "BW",
    "state_code": "SE",
    "type": "district",
    "latitude": "-24.65638460",
    "longitude": "26.05754290",
    "iso3166_2": "BW-SE",
    "native": "South-East",
    "timezone": "Africa/Gaborone"
  },
  {
    "id": 3063,
    "name": "Southern",
    "country_id": 29,
    "country_code": "BW",
    "state_code": "SO",
    "type": "district",
    "latitude": "-24.79986880",
    "longitude": "24.58006920",
    "iso3166_2": "BW-SO",
    "native": "Southern",
    "timezone": "Africa/Gaborone"
  }
]