[
  {
    "id": 56188,
    "name": "Balaipungut",
    "state_id": 1809,
    "state_code": "RI",
    "country_id": 102,
    "country_code": "ID",
    "latitude": "1.05949000",
    "longitude": "101.29054000",
    "wikiDataId": null
  },
  {
    "id": 56208,
    "name": "Batam",
    "state_id": 1809,
    "state_code": "RI",
    "country_id": 102,
    "country_code": "ID",
    "latitude": "1.14937000",
    "longitude": "104.02491000",
    "wikiDataId": null
  },
  {
    "id": 56270,
    "name": "Dumai",
    "state_id": 1809,
    "state_code": "RI",
    "country_id": 102,
    "country_code": "ID",
    "latitude": "1.66711000",
    "longitude": "101.44316000",
    "wikiDataId": null
  },
  {
    "id": 56354,
    "name": "Kabupaten Bengkalis",
    "state_id": 1809,
    "state_code": "RI",
    "country_id": 102,
    "country_code": "ID",
    "latitude": "0.98380000",
    "longitude": "102.50960000",
    "wikiDataId": null
  },
  {
    "id": 56424,
    "name": "Kabupaten Indragiri Hilir",
    "state_id": 1809,
    "state_code": "RI",
    "country_id": 102,
    "country_code": "ID",
    "latitude": "-0.33333000",
    "longitude": "103.16667000",
    "wikiDataId": null
  },
  {
    "id": 56425,
    "name": "Kabupaten Indragiri Hulu",
    "state_id": 1809,
    "state_code": "RI",
    "country_id": 102,
    "country_code": "ID",
    "latitude": "-0.55000000",
    "longitude": "102.31667000",
    "wikiDataId": null
  },
  {
    "id": 56436,
    "name": "Kabupaten Kampar",
    "state_id": 1809,
    "state_code": "RI",
    "country_id": 102,
    "country_code": "ID",
    "latitude": "0.23440000",
    "longitude": "101.21310000",
    "wikiDataId": null
  },
  {
    "id": 56453,
    "name": "Kabupaten Kepulauan Meranti",
    "state_id": 1809,
    "state_code": "RI",
    "country_id": 102,
    "country_code": "ID",
    "latitude": "0.97488000",
    "longitude": "102.69539000",
    "wikiDataId": null
  },
  {
    "id": 56471,
    "name": "Kabupaten Kuantan Singingi",
    "state_id": 1809,
    "state_code": "RI",
    "country_id": 102,
    "country_code": "ID",
    "latitude": "-0.47532000",
    "longitude": "101.45857000",
    "wikiDataId": null
  },
  {
    "id": 56586,
    "name": "Kabupaten Pelalawan",
    "state_id": 1809,
    "state_code": "RI",
    "country_id": 102,
    "country_code": "ID",
    "latitude": "0.20822000",
    "longitude": "102.18607000",
    "wikiDataId": null
  },
  {
    "id": 56611,
    "name": "Kabupaten Rokan Hilir",
    "state_id": 1809,
    "state_code": "RI",
    "country_id": 102,
    "country_code": "ID",
    "latitude": "2.16599000",
    "longitude": "100.82514000",
    "wikiDataId": null
  },
  {
    "id": 56612,
    "name": "Kabupaten Rokan Hulu",
    "state_id": 1809,
    "state_code": "RI",
    "country_id": 102,
    "country_code": "ID",
    "latitude": "0.88333000",
    "longitude": "100.48333000",
    "wikiDataId": null
  },
  {
    "id": 56626,
    "name": "Kabupaten Siak",
    "state_id": 1809,
    "state_code": "RI",
    "country_id": 102,
    "country_code": "ID",
    "latitude": "0.97453000",
    "longitude": "102.01355000",
    "wikiDataId": null
  },
  {
    "id": 56927,
    "name": "Pekanbaru",
    "state_id": 1809,
    "state_code": "RI",
    "country_id": 102,
    "country_code": "ID",
    "latitude": "0.51667000",
    "longitude": "101.44167000",
    "wikiDataId": null
  }
]