[
  {
    "id": 155046,
    "name": "Bojnik",
    "state_id": 3715,
    "state_code": "23",
    "country_id": 196,
    "country_code": "RS",
    "latitude": "43.03962330",
    "longitude": "21.50229300",
    "wikiDataId": null
  },
  {
    "id": 155050,
    "name": "Crna Trava",
    "state_id": 3715,
    "state_code": "23",
    "country_id": 196,
    "country_code": "RS",
    "latitude": "42.81226490",
    "longitude": "22.26885720",
    "wikiDataId": null
  },
  {
    "id": 97239,
    "name": "Kamenica",
    "state_id": 3715,
    "state_code": "23",
    "country_id": 196,
    "country_code": "RS",
    "latitude": "44.34300000",
    "longitude": "19.72333000",
    "wikiDataId": null
  },
  {
    "id": 155048,
    "name": "Lebane",
    "state_id": 3715,
    "state_code": "23",
    "country_id": 196,
    "country_code": "RS",
    "latitude": "42.92312940",
    "longitude": "21.71589360",
    "wikiDataId": null
  },
  {
    "id": 97272,
    "name": "Leskovac",
    "state_id": 3715,
    "state_code": "23",
    "country_id": 196,
    "country_code": "RS",
    "latitude": "42.99806000",
    "longitude": "21.94611000",
    "wikiDataId": null
  },
  {
    "id": 155049,
    "name": "MedveÄ‘a",
    "state_id": 3715,
    "state_code": "23",
    "country_id": 196,
    "country_code": "RS",
    "latitude": "42.83278560",
    "longitude": "21.53388900",
    "wikiDataId": null
  },
  {
    "id": 155047,
    "name": "Vlasotince",
    "state_id": 3715,
    "state_code": "23",
    "country_id": 196,
    "country_code": "RS",
    "latitude": "42.96648980",
    "longitude": "22.09399660",
    "wikiDataId": null
  }
]