[
  {
    "id": 109331,
    "name": "Askaniya-Nova",
    "state_id": 4684,
    "state_code": "65",
    "country_id": 230,
    "country_code": "UA",
    "latitude": "46.45135000",
    "longitude": "33.86889000",
    "wikiDataId": null
  },
  {
    "id": 109361,
    "name": "Bekhtery",
    "state_id": 4684,
    "state_code": "65",
    "country_id": 230,
    "country_code": "UA",
    "latitude": "46.24790000",
    "longitude": "32.29123000",
    "wikiDataId": null
  },
  {
    "id": 109388,
    "name": "Beryslav",
    "state_id": 4684,
    "state_code": "65",
    "country_id": 230,
    "country_code": "UA",
    "latitude": "46.84152000",
    "longitude": "33.42838000",
    "wikiDataId": null
  },
  {
    "id": 109404,
    "name": "Bilozerka",
    "state_id": 4684,
    "state_code": "65",
    "country_id": 230,
    "country_code": "UA",
    "latitude": "46.62480000",
    "longitude": "32.44251000",
    "wikiDataId": null
  },
  {
    "id": 109454,
    "name": "Brylivka",
    "state_id": 4684,
    "state_code": "65",
    "country_id": 230,
    "country_code": "UA",
    "latitude": "46.42476000",
    "longitude": "33.14721000",
    "wikiDataId": null
  },
  {
    "id": 109472,
    "name": "Chaplynka",
    "state_id": 4684,
    "state_code": "65",
    "country_id": 230,
    "country_code": "UA",
    "latitude": "46.36507000",
    "longitude": "33.54027000",
    "wikiDataId": null
  },
  {
    "id": 109511,
    "name": "Chornobayivka",
    "state_id": 4684,
    "state_code": "65",
    "country_id": 230,
    "country_code": "UA",
    "latitude": "46.69411000",
    "longitude": "32.55371000",
    "wikiDataId": null
  },
  {
    "id": 109516,
    "name": "Chornyanka",
    "state_id": 4684,
    "state_code": "65",
    "country_id": 230,
    "country_code": "UA",
    "latitude": "46.65222000",
    "longitude": "33.35904000",
    "wikiDataId": null
  },
  {
    "id": 109523,
    "name": "Chulakivka",
    "state_id": 4684,
    "state_code": "65",
    "country_id": 230,
    "country_code": "UA",
    "latitude": "46.35763000",
    "longitude": "32.35140000",
    "wikiDataId": null
  },
  {
    "id": 109554,
    "name": "Dnipryany",
    "state_id": 4684,
    "state_code": "65",
    "country_id": 230,
    "country_code": "UA",
    "latitude": "46.74631000",
    "longitude": "33.27288000",
    "wikiDataId": null
  },
  {
    "id": 109587,
    "name": "Dudchany",
    "state_id": 4684,
    "state_code": "65",
    "country_id": 230,
    "country_code": "UA",
    "latitude": "47.18557000",
    "longitude": "33.76390000",
    "wikiDataId": null
  },
  {
    "id": 109628,
    "name": "Heniches’k",
    "state_id": 4684,
    "state_code": "65",
    "country_id": 230,
    "country_code": "UA",
    "latitude": "46.17592000",
    "longitude": "34.80340000",
    "wikiDataId": null
  },
  {
    "id": 109629,
    "name": "Heniches’kyy Rayon",
    "state_id": 4684,
    "state_code": "65",
    "country_id": 230,
    "country_code": "UA",
    "latitude": "46.26451000",
    "longitude": "34.74488000",
    "wikiDataId": null
  },
  {
    "id": 109636,
    "name": "Hola Prystan’",
    "state_id": 4684,
    "state_code": "65",
    "country_id": 230,
    "country_code": "UA",
    "latitude": "46.52719000",
    "longitude": "32.52417000",
    "wikiDataId": null
  },
  {
    "id": 109642,
    "name": "Hornostayivka",
    "state_id": 4684,
    "state_code": "65",
    "country_id": 230,
    "country_code": "UA",
    "latitude": "47.00777000",
    "longitude": "33.72899000",
    "wikiDataId": null
  },
  {
    "id": 109679,
    "name": "Ivanivka",
    "state_id": 4684,
    "state_code": "65",
    "country_id": 230,
    "country_code": "UA",
    "latitude": "46.72082000",
    "longitude": "34.55298000",
    "wikiDataId": null
  },
  {
    "id": 109697,
    "name": "Kakhovka",
    "state_id": 4684,
    "state_code": "65",
    "country_id": 230,
    "country_code": "UA",
    "latitude": "46.81371000",
    "longitude": "33.48698000",
    "wikiDataId": null
  },
  {
    "id": 109698,
    "name": "Kalanchak",
    "state_id": 4684,
    "state_code": "65",
    "country_id": 230,
    "country_code": "UA",
    "latitude": "46.25623000",
    "longitude": "33.29070000",
    "wikiDataId": null
  },
  {
    "id": 109722,
    "name": "Kayiry",
    "state_id": 4684,
    "state_code": "65",
    "country_id": 230,
    "country_code": "UA",
    "latitude": "46.94537000",
    "longitude": "33.70591000",
    "wikiDataId": null
  },
  {
    "id": 109729,
    "name": "Kherson",
    "state_id": 4684,
    "state_code": "65",
    "country_id": 230,
    "country_code": "UA",
    "latitude": "46.65581000",
    "longitude": "32.61780000",
    "wikiDataId": null
  },
  {
    "id": 109786,
    "name": "Komyshany",
    "state_id": 4684,
    "state_code": "65",
    "country_id": 230,
    "country_code": "UA",
    "latitude": "46.63716000",
    "longitude": "32.50719000",
    "wikiDataId": null
  },
  {
    "id": 109823,
    "name": "Kozachi Laheri",
    "state_id": 4684,
    "state_code": "65",
    "country_id": 230,
    "country_code": "UA",
    "latitude": "46.70372000",
    "longitude": "32.97760000",
    "wikiDataId": null
  },
  {
    "id": 109833,
    "name": "Krasne",
    "state_id": 4684,
    "state_code": "65",
    "country_id": 230,
    "country_code": "UA",
    "latitude": "46.13088000",
    "longitude": "32.76910000",
    "wikiDataId": null
  },
  {
    "id": 109907,
    "name": "Lazurne",
    "state_id": 4684,
    "state_code": "65",
    "country_id": 230,
    "country_code": "UA",
    "latitude": "46.08400000",
    "longitude": "32.52955000",
    "wikiDataId": null
  },
  {
    "id": 109967,
    "name": "Lyubymivka",
    "state_id": 4684,
    "state_code": "65",
    "country_id": 230,
    "country_code": "UA",
    "latitude": "46.81063000",
    "longitude": "33.56862000",
    "wikiDataId": null
  },
  {
    "id": 109983,
    "name": "Malokakhovka",
    "state_id": 4684,
    "state_code": "65",
    "country_id": 230,
    "country_code": "UA",
    "latitude": "46.78142000",
    "longitude": "33.44790000",
    "wikiDataId": null
  },
  {
    "id": 110104,
    "name": "Nova Kakhovka",
    "state_id": 4684,
    "state_code": "65",
    "country_id": 230,
    "country_code": "UA",
    "latitude": "46.75451000",
    "longitude": "33.34864000",
    "wikiDataId": null
  },
  {
    "id": 110105,
    "name": "Nova Mayachka",
    "state_id": 4684,
    "state_code": "65",
    "country_id": 230,
    "country_code": "UA",
    "latitude": "46.59996000",
    "longitude": "33.22707000",
    "wikiDataId": null
  },
  {
    "id": 110125,
    "name": "Novofedorivka",
    "state_id": 4684,
    "state_code": "65",
    "country_id": 230,
    "country_code": "UA",
    "latitude": "46.17128000",
    "longitude": "32.31781000",
    "wikiDataId": null
  },
  {
    "id": 110137,
    "name": "Novooleksiyivka",
    "state_id": 4684,
    "state_code": "65",
    "country_id": 230,
    "country_code": "UA",
    "latitude": "46.22472000",
    "longitude": "34.64031000",
    "wikiDataId": null
  },
  {
    "id": 110153,
    "name": "Novovorontsovka",
    "state_id": 4684,
    "state_code": "65",
    "country_id": 230,
    "country_code": "UA",
    "latitude": "47.50035000",
    "longitude": "33.91748000",
    "wikiDataId": null
  },
  {
    "id": 110165,
    "name": "Nyzhni Sirohozy",
    "state_id": 4684,
    "state_code": "65",
    "country_id": 230,
    "country_code": "UA",
    "latitude": "46.84842000",
    "longitude": "34.38044000",
    "wikiDataId": null
  },
  {
    "id": 110227,
    "name": "Partyzany",
    "state_id": 4684,
    "state_code": "65",
    "country_id": 230,
    "country_code": "UA",
    "latitude": "46.33383000",
    "longitude": "34.75314000",
    "wikiDataId": null
  },
  {
    "id": 110336,
    "name": "Radens’k",
    "state_id": 4684,
    "state_code": "65",
    "country_id": 230,
    "country_code": "UA",
    "latitude": "46.54860000",
    "longitude": "32.92787000",
    "wikiDataId": null
  },
  {
    "id": 110466,
    "name": "Skadovs’k",
    "state_id": 4684,
    "state_code": "65",
    "country_id": 230,
    "country_code": "UA",
    "latitude": "46.11610000",
    "longitude": "32.91124000",
    "wikiDataId": null
  },
  {
    "id": 110525,
    "name": "Stanislav",
    "state_id": 4684,
    "state_code": "65",
    "country_id": 230,
    "country_code": "UA",
    "latitude": "46.56909000",
    "longitude": "32.14777000",
    "wikiDataId": null
  },
  {
    "id": 110634,
    "name": "Tsyurupyns’k",
    "state_id": 4684,
    "state_code": "65",
    "country_id": 230,
    "country_code": "UA",
    "latitude": "46.61842000",
    "longitude": "32.71890000",
    "wikiDataId": null
  },
  {
    "id": 110685,
    "name": "Velyka Lepetykha",
    "state_id": 4684,
    "state_code": "65",
    "country_id": 230,
    "country_code": "UA",
    "latitude": "47.17572000",
    "longitude": "33.94362000",
    "wikiDataId": null
  },
  {
    "id": 110687,
    "name": "Velyka Oleksandrivka",
    "state_id": 4684,
    "state_code": "65",
    "country_id": 230,
    "country_code": "UA",
    "latitude": "47.31969000",
    "longitude": "33.30373000",
    "wikiDataId": null
  },
  {
    "id": 110690,
    "name": "Velyki Kopani",
    "state_id": 4684,
    "state_code": "65",
    "country_id": 230,
    "country_code": "UA",
    "latitude": "46.48684000",
    "longitude": "32.97498000",
    "wikiDataId": null
  },
  {
    "id": 110706,
    "name": "Verkhniy Rohachyk",
    "state_id": 4684,
    "state_code": "65",
    "country_id": 230,
    "country_code": "UA",
    "latitude": "47.25053000",
    "longitude": "34.33797000",
    "wikiDataId": null
  },
  {
    "id": 110760,
    "name": "Vynohradove",
    "state_id": 4684,
    "state_code": "65",
    "country_id": 230,
    "country_code": "UA",
    "latitude": "46.36957000",
    "longitude": "32.93980000",
    "wikiDataId": null
  },
  {
    "id": 110767,
    "name": "Vysokopillya",
    "state_id": 4684,
    "state_code": "65",
    "country_id": 230,
    "country_code": "UA",
    "latitude": "47.49187000",
    "longitude": "33.53061000",
    "wikiDataId": null
  },
  {
    "id": 110817,
    "name": "Zaliznyy Port",
    "state_id": 4684,
    "state_code": "65",
    "country_id": 230,
    "country_code": "UA",
    "latitude": "46.12337000",
    "longitude": "32.29892000",
    "wikiDataId": null
  }
]