[
  {
    "id": 31235,
    "name": "Arbatache",
    "state_id": 1125,
    "state_code": "35",
    "country_id": 4,
    "country_code": "DZ",
    "latitude": "36.63773000",
    "longitude": "3.37127000",
    "wikiDataId": null
  },
  {
    "id": 31261,
    "name": "Beni Amrane",
    "state_id": 1125,
    "state_code": "35",
    "country_id": 4,
    "country_code": "DZ",
    "latitude": "36.66774000",
    "longitude": "3.59115000",
    "wikiDataId": null
  },
  {
    "id": 31286,
    "name": "Boudouaou",
    "state_id": 1125,
    "state_code": "35",
    "country_id": 4,
    "country_code": "DZ",
    "latitude": "36.72735000",
    "longitude": "3.40995000",
    "wikiDataId": null
  },
  {
    "id": 31294,
    "name": "Boumerdas",
    "state_id": 1125,
    "state_code": "35",
    "country_id": 4,
    "country_code": "DZ",
    "latitude": "36.76639000",
    "longitude": "3.47717000",
    "wikiDataId": null
  },
  {
    "id": 31299,
    "name": "Chabet el Ameur",
    "state_id": 1125,
    "state_code": "35",
    "country_id": 4,
    "country_code": "DZ",
    "latitude": "36.63709000",
    "longitude": "3.69474000",
    "wikiDataId": null
  },
  {
    "id": 31314,
    "name": "Dellys",
    "state_id": 1125,
    "state_code": "35",
    "country_id": 4,
    "country_code": "DZ",
    "latitude": "36.91716000",
    "longitude": "3.91311000",
    "wikiDataId": null
  },
  {
    "id": 31362,
    "name": "Khemis el Khechna",
    "state_id": 1125,
    "state_code": "35",
    "country_id": 4,
    "country_code": "DZ",
    "latitude": "36.64997000",
    "longitude": "3.33080000",
    "wikiDataId": null
  },
  {
    "id": 31372,
    "name": "Makouda",
    "state_id": 1125,
    "state_code": "35",
    "country_id": 4,
    "country_code": "DZ",
    "latitude": "36.78567000",
    "longitude": "4.06273000",
    "wikiDataId": null
  },
  {
    "id": 31393,
    "name": "Naciria",
    "state_id": 1125,
    "state_code": "35",
    "country_id": 4,
    "country_code": "DZ",
    "latitude": "36.74625000",
    "longitude": "3.83163000",
    "wikiDataId": null
  },
  {
    "id": 31403,
    "name": "Ouled Moussa",
    "state_id": 1125,
    "state_code": "35",
    "country_id": 4,
    "country_code": "DZ",
    "latitude": "36.68394000",
    "longitude": "3.36661000",
    "wikiDataId": null
  },
  {
    "id": 31407,
    "name": "Reghaïa",
    "state_id": 1125,
    "state_code": "35",
    "country_id": 4,
    "country_code": "DZ",
    "latitude": "36.73587000",
    "longitude": "3.34018000",
    "wikiDataId": null
  },
  {
    "id": 31441,
    "name": "Tadmaït",
    "state_id": 1125,
    "state_code": "35",
    "country_id": 4,
    "country_code": "DZ",
    "latitude": "36.74413000",
    "longitude": "3.90045000",
    "wikiDataId": null
  },
  {
    "id": 31447,
    "name": "Thenia",
    "state_id": 1125,
    "state_code": "35",
    "country_id": 4,
    "country_code": "DZ",
    "latitude": "36.72544000",
    "longitude": "3.55665000",
    "wikiDataId": null
  },
  {
    "id": 31456,
    "name": "Tizi Gheniff",
    "state_id": 1125,
    "state_code": "35",
    "country_id": 4,
    "country_code": "DZ",
    "latitude": "36.58839000",
    "longitude": "3.77445000",
    "wikiDataId": null
  }
]