[
  {
    "id": 63233,
    "name": "Akita",
    "state_id": 829,
    "state_code": "05",
    "country_id": 109,
    "country_code": "JP",
    "latitude": "39.71667000",
    "longitude": "140.11667000",
    "wikiDataId": null
  },
  {
    "id": 63234,
    "name": "Akita Shi",
    "state_id": 829,
    "state_code": "05",
    "country_id": 109,
    "country_code": "JP",
    "latitude": "39.71043000",
    "longitude": "140.23207000",
    "wikiDataId": null
  },
  {
    "id": 63318,
    "name": "Daisen",
    "state_id": 829,
    "state_code": "05",
    "country_id": 109,
    "country_code": "JP",
    "latitude": "39.44116000",
    "longitude": "140.48961000",
    "wikiDataId": null
  },
  {
    "id": 63319,
    "name": "Daisen-shi",
    "state_id": 829,
    "state_code": "05",
    "country_id": 109,
    "country_code": "JP",
    "latitude": "39.53710000",
    "longitude": "140.44139000",
    "wikiDataId": null
  },
  {
    "id": 63432,
    "name": "Hanawa",
    "state_id": 829,
    "state_code": "05",
    "country_id": 109,
    "country_code": "JP",
    "latitude": "40.18361000",
    "longitude": "140.78722000",
    "wikiDataId": null
  },
  {
    "id": 63675,
    "name": "Kakunodatemachi",
    "state_id": 829,
    "state_code": "05",
    "country_id": 109,
    "country_code": "JP",
    "latitude": "39.58926000",
    "longitude": "140.56724000",
    "wikiDataId": null
  },
  {
    "id": 63751,
    "name": "Katagami",
    "state_id": 829,
    "state_code": "05",
    "country_id": 109,
    "country_code": "JP",
    "latitude": "39.87869000",
    "longitude": "139.99767000",
    "wikiDataId": null
  },
  {
    "id": 63752,
    "name": "Katagami-shi",
    "state_id": 829,
    "state_code": "05",
    "country_id": 109,
    "country_code": "JP",
    "latitude": "39.87209000",
    "longitude": "140.04910000",
    "wikiDataId": null
  },
  {
    "id": 63780,
    "name": "Kazuno Shi",
    "state_id": 829,
    "state_code": "05",
    "country_id": 109,
    "country_code": "JP",
    "latitude": "40.21035000",
    "longitude": "140.83030000",
    "wikiDataId": null
  },
  {
    "id": 63798,
    "name": "Kitaakita-shi",
    "state_id": 829,
    "state_code": "05",
    "country_id": 109,
    "country_code": "JP",
    "latitude": "40.23446000",
    "longitude": "140.39978000",
    "wikiDataId": null
  },
  {
    "id": 64137,
    "name": "Nikaho-shi",
    "state_id": 829,
    "state_code": "05",
    "country_id": 109,
    "country_code": "JP",
    "latitude": "39.19677000",
    "longitude": "139.97305000",
    "wikiDataId": null
  },
  {
    "id": 64168,
    "name": "Noshiro",
    "state_id": 829,
    "state_code": "05",
    "country_id": 109,
    "country_code": "JP",
    "latitude": "40.20838000",
    "longitude": "140.02740000",
    "wikiDataId": null
  },
  {
    "id": 64169,
    "name": "Noshiro Shi",
    "state_id": 829,
    "state_code": "05",
    "country_id": 109,
    "country_code": "JP",
    "latitude": "40.20289000",
    "longitude": "140.14486000",
    "wikiDataId": null
  },
  {
    "id": 64719,
    "name": "Ōdate",
    "state_id": 829,
    "state_code": "05",
    "country_id": 109,
    "country_code": "JP",
    "latitude": "40.27178000",
    "longitude": "140.55756000",
    "wikiDataId": null
  },
  {
    "id": 64720,
    "name": "Ōdate-shi",
    "state_id": 829,
    "state_code": "05",
    "country_id": 109,
    "country_code": "JP",
    "latitude": "40.30000000",
    "longitude": "140.55000000",
    "wikiDataId": null
  },
  {
    "id": 64185,
    "name": "Oga",
    "state_id": 829,
    "state_code": "05",
    "country_id": 109,
    "country_code": "JP",
    "latitude": "39.87100000",
    "longitude": "139.84926000",
    "wikiDataId": null
  },
  {
    "id": 64186,
    "name": "Oga-shi",
    "state_id": 829,
    "state_code": "05",
    "country_id": 109,
    "country_code": "JP",
    "latitude": "39.93793000",
    "longitude": "139.83611000",
    "wikiDataId": null
  },
  {
    "id": 64736,
    "name": "Ōmagari",
    "state_id": 829,
    "state_code": "05",
    "country_id": 109,
    "country_code": "JP",
    "latitude": "39.45000000",
    "longitude": "140.48333000",
    "wikiDataId": null
  },
  {
    "id": 64299,
    "name": "Semboku-shi",
    "state_id": 829,
    "state_code": "05",
    "country_id": 109,
    "country_code": "JP",
    "latitude": "39.75709000",
    "longitude": "140.66998000",
    "wikiDataId": null
  },
  {
    "id": 64430,
    "name": "Takanosu",
    "state_id": 829,
    "state_code": "05",
    "country_id": 109,
    "country_code": "JP",
    "latitude": "40.22268000",
    "longitude": "140.36611000",
    "wikiDataId": null
  },
  {
    "id": 64482,
    "name": "Tennō",
    "state_id": 829,
    "state_code": "05",
    "country_id": 109,
    "country_code": "JP",
    "latitude": "39.90000000",
    "longitude": "139.96667000",
    "wikiDataId": null
  },
  {
    "id": 64674,
    "name": "Yokote",
    "state_id": 829,
    "state_code": "05",
    "country_id": 109,
    "country_code": "JP",
    "latitude": "39.31691000",
    "longitude": "140.55034000",
    "wikiDataId": null
  },
  {
    "id": 64675,
    "name": "Yokote-shi",
    "state_id": 829,
    "state_code": "05",
    "country_id": 109,
    "country_code": "JP",
    "latitude": "39.28369000",
    "longitude": "140.54432000",
    "wikiDataId": null
  },
  {
    "id": 64698,
    "name": "Yurihonjō",
    "state_id": 829,
    "state_code": "05",
    "country_id": 109,
    "country_code": "JP",
    "latitude": "39.38950000",
    "longitude": "140.05813000",
    "wikiDataId": null
  },
  {
    "id": 64699,
    "name": "Yurihonjō-shi",
    "state_id": 829,
    "state_code": "05",
    "country_id": 109,
    "country_code": "JP",
    "latitude": "39.29336000",
    "longitude": "140.16498000",
    "wikiDataId": null
  },
  {
    "id": 64701,
    "name": "Yuzawa",
    "state_id": 829,
    "state_code": "05",
    "country_id": 109,
    "country_code": "JP",
    "latitude": "39.16667000",
    "longitude": "140.50000000",
    "wikiDataId": null
  },
  {
    "id": 64702,
    "name": "Yuzawa-shi",
    "state_id": 829,
    "state_code": "05",
    "country_id": 109,
    "country_code": "JP",
    "latitude": "39.03658000",
    "longitude": "140.54267000",
    "wikiDataId": null
  }
]