[
  {
    "id": 66582,
    "name": "Anyksciai",
    "state_id": 1621,
    "state_code": "UT",
    "country_id": 126,
    "country_code": "LT",
    "latitude": "55.52557000",
    "longitude": "25.10264000",
    "wikiDataId": null
  },
  {
    "id": 66594,
    "name": "Dūkštas",
    "state_id": 1621,
    "state_code": "UT",
    "country_id": 126,
    "country_code": "LT",
    "latitude": "55.52200000",
    "longitude": "26.32100000",
    "wikiDataId": null
  },
  {
    "id": 66604,
    "name": "Ignalina",
    "state_id": 1621,
    "state_code": "UT",
    "country_id": 126,
    "country_code": "LT",
    "latitude": "55.35000000",
    "longitude": "26.16667000",
    "wikiDataId": null
  },
  {
    "id": 66639,
    "name": "Moletai",
    "state_id": 1621,
    "state_code": "UT",
    "country_id": 126,
    "country_code": "LT",
    "latitude": "55.23333000",
    "longitude": "25.41667000",
    "wikiDataId": null
  },
  {
    "id": 66691,
    "name": "Utena",
    "state_id": 1621,
    "state_code": "UT",
    "country_id": 126,
    "country_code": "LT",
    "latitude": "55.49764000",
    "longitude": "25.59918000",
    "wikiDataId": null
  },
  {
    "id": 66706,
    "name": "Visaginas",
    "state_id": 1621,
    "state_code": "UT",
    "country_id": 126,
    "country_code": "LT",
    "latitude": "55.60000000",
    "longitude": "26.41667000",
    "wikiDataId": null
  },
  {
    "id": 66707,
    "name": "Zarasai",
    "state_id": 1621,
    "state_code": "UT",
    "country_id": 126,
    "country_code": "LT",
    "latitude": "55.73333000",
    "longitude": "26.25000000",
    "wikiDataId": null
  }
]