[
  {
    "id": 603,
    "name": "Berat",
    "country_id": 3,
    "country_code": "AL",
    "state_code": "01",
    "type": "county",
    "latitude": "40.70186360",
    "longitude": "19.95807580",
    "iso3166_2": "AL-01",
    "native": "I rëndë",
    "timezone": "Europe/Tirane"
  },
  {
    "id": 610,
    "name": "Dibër",
    "country_id": 3,
    "country_code": "AL",
    "state_code": "09",
    "type": "county",
    "latitude": "41.62219200",
    "longitude": "20.18081600",
    "iso3166_2": "AL-09",
    "native": "Dibër",
    "timezone": "Europe/Tirane"
  },
  {
    "id": 632,
    "name": "Durrës",
    "country_id": 3,
    "country_code": "AL",
    "state_code": "02",
    "type": "county",
    "latitude": "41.42798630",
    "longitude": "19.53733720",
    "iso3166_2": "AL-02",
    "native": "Durrës",
    "timezone": "Europe/Tirane"
  },
  {
    "id": 598,
    "name": "Elbasan",
    "country_id": 3,
    "country_code": "AL",
    "state_code": "03",
    "type": "county",
    "latitude": "41.05108290",
    "longitude": "20.13985260",
    "iso3166_2": "AL-03",
    "native": "Elbasan",
    "timezone": "Europe/Tirane"
  },
  {
    "id": 631,
    "name": "Fier",
    "country_id": 3,
    "country_code": "AL",
    "state_code": "04",
    "type": "county",
    "latitude": "40.91913920",
    "longitude": "19.66393090",
    "iso3166_2": "AL-04",
    "native": "Hekuros",
    "timezone": "Europe/Tirane"
  },
  {
    "id": 604,
    "name": "Gjirokastër",
    "country_id": 3,
    "country_code": "AL",
    "state_code": "05",
    "type": "county",
    "latitude": "40.07708710",
    "longitude": "20.13933590",
    "iso3166_2": "AL-05",
    "native": "Gjirokastër",
    "timezone": "Europe/Tirane"
  },
  {
    "id": 630,
    "name": "Korçë",
    "country_id": 3,
    "country_code": "AL",
    "state_code": "06",
    "type": "county",
    "latitude": "40.58587530",
    "longitude": "20.73613150",
    "iso3166_2": "AL-06",
    "native": "Korçë",
    "timezone": "Europe/Tirane"
  },
  {
    "id": 601,
    "name": "Kukës",
    "country_id": 3,
    "country_code": "AL",
    "state_code": "07",
    "type": "county",
    "latitude": "42.18856640",
    "longitude": "20.37696330",
    "iso3166_2": "AL-07",
    "native": "Kukës",
    "timezone": "Europe/Tirane"
  },
  {
    "id": 609,
    "name": "Lezhë",
    "country_id": 3,
    "country_code": "AL",
    "state_code": "08",
    "type": "county",
    "latitude": "41.78137590",
    "longitude": "19.80679160",
    "iso3166_2": "AL-08",
    "native": "Lezhë",
    "timezone": "Europe/Tirane"
  },
  {
    "id": 611,
    "name": "Shkodër",
    "country_id": 3,
    "country_code": "AL",
    "state_code": "10",
    "type": "county",
    "latitude": "42.25076770",
    "longitude": "19.59597230",
    "iso3166_2": "AL-10",
    "native": "Shkodër",
    "timezone": "Europe/Tirane"
  },
  {
    "id": 615,
    "name": "Tirana",
    "country_id": 3,
    "country_code": "AL",
    "state_code": "11",
    "type": "county",
    "latitude": "41.25844780",
    "longitude": "19.83026560",
    "iso3166_2": "AL-11",
    "native": "Tiranë",
    "timezone": "Europe/Tirane"
  },
  {
    "id": 634,
    "name": "Vlorë",
    "country_id": 3,
    "country_code": "AL",
    "state_code": "12",
    "type": "county",
    "latitude": "40.15009600",
    "longitude": "19.80679160",
    "iso3166_2": "AL-12",
    "native": "Vlorë",
    "timezone": "Europe/Tirane"
  }
]