[
  {
    "id": 48316,
    "name": "Audlem",
    "state_id": 2506,
    "state_code": "STE",
    "country_id": 232,
    "country_code": "GB",
    "latitude": "52.98956000",
    "longitude": "-2.50706000",
    "wikiDataId": null
  },
  {
    "id": 48317,
    "name": "Audley",
    "state_id": 2506,
    "state_code": "STE",
    "country_id": 232,
    "country_code": "GB",
    "latitude": "53.05000000",
    "longitude": "-2.30000000",
    "wikiDataId": null
  },
  {
    "id": 48388,
    "name": "Barlaston",
    "state_id": 2506,
    "state_code": "STE",
    "country_id": 232,
    "country_code": "GB",
    "latitude": "52.94200000",
    "longitude": "-2.17050000",
    "wikiDataId": null
  },
  {
    "id": 48483,
    "name": "Betley",
    "state_id": 2506,
    "state_code": "STE",
    "country_id": 232,
    "country_code": "GB",
    "latitude": "53.03439000",
    "longitude": "-2.36865000",
    "wikiDataId": null
  },
  {
    "id": 48935,
    "name": "Cheadle",
    "state_id": 2506,
    "state_code": "STE",
    "country_id": 232,
    "country_code": "GB",
    "latitude": "52.98333000",
    "longitude": "-1.98333000",
    "wikiDataId": null
  },
  {
    "id": 48941,
    "name": "Cheddleton",
    "state_id": 2506,
    "state_code": "STE",
    "country_id": 232,
    "country_code": "GB",
    "latitude": "53.06910000",
    "longitude": "-2.04228000",
    "wikiDataId": null
  },
  {
    "id": 50103,
    "name": "Keele",
    "state_id": 2506,
    "state_code": "STE",
    "country_id": 232,
    "country_code": "GB",
    "latitude": "53.00382000",
    "longitude": "-2.28741000",
    "wikiDataId": null
  },
  {
    "id": 50137,
    "name": "Kidsgrove",
    "state_id": 2506,
    "state_code": "STE",
    "country_id": 232,
    "country_code": "GB",
    "latitude": "53.08691000",
    "longitude": "-2.23777000",
    "wikiDataId": null
  },
  {
    "id": 50271,
    "name": "Leek",
    "state_id": 2506,
    "state_code": "STE",
    "country_id": 232,
    "country_code": "GB",
    "latitude": "53.10434000",
    "longitude": "-2.02207000",
    "wikiDataId": null
  },
  {
    "id": 50412,
    "name": "Longton",
    "state_id": 2506,
    "state_code": "STE",
    "country_id": 232,
    "country_code": "GB",
    "latitude": "52.98333000",
    "longitude": "-2.13333000",
    "wikiDataId": null
  },
  {
    "id": 50464,
    "name": "Madeley",
    "state_id": 2506,
    "state_code": "STE",
    "country_id": 232,
    "country_code": "GB",
    "latitude": "53.00000000",
    "longitude": "-2.33333000",
    "wikiDataId": null
  },
  {
    "id": 50709,
    "name": "Newcastle under Lyme",
    "state_id": 2506,
    "state_code": "STE",
    "country_id": 232,
    "country_code": "GB",
    "latitude": "53.00000000",
    "longitude": "-2.23333000",
    "wikiDataId": null
  },
  {
    "id": 51421,
    "name": "Standon",
    "state_id": 2506,
    "state_code": "STE",
    "country_id": 232,
    "country_code": "GB",
    "latitude": "52.91667000",
    "longitude": "-2.28333000",
    "wikiDataId": null
  },
  {
    "id": 51468,
    "name": "Stoke-on-Trent",
    "state_id": 2506,
    "state_code": "STE",
    "country_id": 232,
    "country_code": "GB",
    "latitude": "53.00415000",
    "longitude": "-2.18538000",
    "wikiDataId": null
  },
  {
    "id": 51472,
    "name": "Stone",
    "state_id": 2506,
    "state_code": "STE",
    "country_id": 232,
    "country_code": "GB",
    "latitude": "52.90590000",
    "longitude": "-2.15409000",
    "wikiDataId": null
  },
  {
    "id": 51678,
    "name": "Tunstall",
    "state_id": 2506,
    "state_code": "STE",
    "country_id": 232,
    "country_code": "GB",
    "latitude": "53.05830000",
    "longitude": "-2.21140000",
    "wikiDataId": null
  }
]