[
  {
    "id": 77165,
    "name": "Chichigalpa",
    "state_id": 954,
    "state_code": "CI",
    "country_id": 159,
    "country_code": "NI",
    "latitude": "12.57758000",
    "longitude": "-87.02705000",
    "wikiDataId": null
  },
  {
    "id": 77166,
    "name": "Chinandega",
    "state_id": 954,
    "state_code": "CI",
    "country_id": 159,
    "country_code": "NI",
    "latitude": "12.62937000",
    "longitude": "-87.13105000",
    "wikiDataId": null
  },
  {
    "id": 77167,
    "name": "Cinco Pinos",
    "state_id": 954,
    "state_code": "CI",
    "country_id": 159,
    "country_code": "NI",
    "latitude": "13.22956000",
    "longitude": "-86.86808000",
    "wikiDataId": null
  },
  {
    "id": 77172,
    "name": "Corinto",
    "state_id": 954,
    "state_code": "CI",
    "country_id": 159,
    "country_code": "NI",
    "latitude": "12.48250000",
    "longitude": "-87.17304000",
    "wikiDataId": null
  },
  {
    "id": 77186,
    "name": "El Realejo",
    "state_id": 954,
    "state_code": "CI",
    "country_id": 159,
    "country_code": "NI",
    "latitude": "12.54333000",
    "longitude": "-87.16517000",
    "wikiDataId": null
  },
  {
    "id": 77190,
    "name": "El Viejo",
    "state_id": 954,
    "state_code": "CI",
    "country_id": 159,
    "country_code": "NI",
    "latitude": "12.66348000",
    "longitude": "-87.16663000",
    "wikiDataId": null
  },
  {
    "id": 77196,
    "name": "Jiquilillo",
    "state_id": 954,
    "state_code": "CI",
    "country_id": 159,
    "country_code": "NI",
    "latitude": "12.74593000",
    "longitude": "-87.45160000",
    "wikiDataId": null
  },
  {
    "id": 77232,
    "name": "Municipio de San Francisco del Norte",
    "state_id": 954,
    "state_code": "CI",
    "country_id": 159,
    "country_code": "NI",
    "latitude": "13.21187000",
    "longitude": "-86.77107000",
    "wikiDataId": null
  },
  {
    "id": 77246,
    "name": "Posoltega",
    "state_id": 954,
    "state_code": "CI",
    "country_id": 159,
    "country_code": "NI",
    "latitude": "12.54422000",
    "longitude": "-86.97982000",
    "wikiDataId": null
  },
  {
    "id": 77251,
    "name": "Puerto Morazán",
    "state_id": 954,
    "state_code": "CI",
    "country_id": 159,
    "country_code": "NI",
    "latitude": "12.85042000",
    "longitude": "-87.17167000",
    "wikiDataId": null
  },
  {
    "id": 77278,
    "name": "Santo Tomás del Norte",
    "state_id": 954,
    "state_code": "CI",
    "country_id": 159,
    "country_code": "NI",
    "latitude": "13.18610000",
    "longitude": "-86.92267000",
    "wikiDataId": null
  },
  {
    "id": 77280,
    "name": "Somotillo",
    "state_id": 954,
    "state_code": "CI",
    "country_id": 159,
    "country_code": "NI",
    "latitude": "13.04387000",
    "longitude": "-86.90506000",
    "wikiDataId": null
  }
]