[
  {
    "id": 946,
    "name": "Boaco",
    "country_id": 159,
    "country_code": "NI",
    "state_code": "BO",
    "type": "department",
    "latitude": "12.46928400",
    "longitude": "-85.66146820",
    "iso3166_2": "NI-BO",
    "native": "Reno",
    "timezone": "America/Managua"
  },
  {
    "id": 950,
    "name": "Carazo",
    "country_id": 159,
    "country_code": "NI",
    "state_code": "CA",
    "type": "department",
    "latitude": "11.66199850",
    "longitude": "-86.31256970",
    "iso3166_2": "NI-CA",
    "native": "Carazo",
    "timezone": "America/Managua"
  },
  {
    "id": 954,
    "name": "Chinandega",
    "country_id": 159,
    "country_code": "NI",
    "state_code": "CI",
    "type": "department",
    "latitude": "12.77779620",
    "longitude": "-87.26958400",
    "iso3166_2": "NI-CI",
    "native": "Chinandega",
    "timezone": "America/Managua"
  },
  {
    "id": 940,
    "name": "Chontales",
    "country_id": 159,
    "country_code": "NI",
    "state_code": "CO",
    "type": "department",
    "latitude": "11.98767530",
    "longitude": "-85.18607980",
    "iso3166_2": "NI-CO",
    "native": "Chontales",
    "timezone": "America/Managua"
  },
  {
    "id": 945,
    "name": "Estelí",
    "country_id": 159,
    "country_code": "NI",
    "state_code": "ES",
    "type": "department",
    "latitude": "13.09312410",
    "longitude": "-86.35544360",
    "iso3166_2": "NI-ES",
    "native": "Estelí",
    "timezone": "America/Managua"
  },
  {
    "id": 943,
    "name": "Granada",
    "country_id": 159,
    "country_code": "NI",
    "state_code": "GR",
    "type": "department",
    "latitude": "11.93440730",
    "longitude": "-85.95600050",
    "iso3166_2": "NI-GR",
    "native": "Granada",
    "timezone": "America/Managua"
  },
  {
    "id": 955,
    "name": "Jinotega",
    "country_id": 159,
    "country_code": "NI",
    "state_code": "JI",
    "type": "department",
    "latitude": "13.08839070",
    "longitude": "-85.99939970",
    "iso3166_2": "NI-JI",
    "native": "Jinotega",
    "timezone": "America/Managua"
  },
  {
    "id": 944,
    "name": "León",
    "country_id": 159,
    "country_code": "NI",
    "state_code": "LE",
    "type": "department",
    "latitude": "12.50920370",
    "longitude": "-86.66110830",
    "iso3166_2": "NI-LE",
    "native": "León",
    "timezone": "America/Managua"
  },
  {
    "id": 948,
    "name": "Madriz",
    "country_id": 159,
    "country_code": "NI",
    "state_code": "MD",
    "type": "department",
    "latitude": "13.42728710",
    "longitude": "-86.40162200",
    "iso3166_2": "NI-MD",
    "native": "Madriz",
    "timezone": "America/Managua"
  },
  {
    "id": 941,
    "name": "Managua",
    "country_id": 159,
    "country_code": "NI",
    "state_code": "MN",
    "type": "department",
    "latitude": "12.10805850",
    "longitude": "-86.35058080",
    "iso3166_2": "NI-MN",
    "native": "Gerencia",
    "timezone": "America/Managua"
  },
  {
    "id": 953,
    "name": "Masaya",
    "country_id": 159,
    "country_code": "NI",
    "state_code": "MS",
    "type": "department",
    "latitude": "11.97364740",
    "longitude": "-86.09605470",
    "iso3166_2": "NI-MS",
    "native": "Es divertido",
    "timezone": "America/Managua"
  },
  {
    "id": 947,
    "name": "Matagalpa",
    "country_id": 159,
    "country_code": "NI",
    "state_code": "MT",
    "type": "department",
    "latitude": "12.94032300",
    "longitude": "-85.69609420",
    "iso3166_2": "NI-MT",
    "native": "Matagalpa",
    "timezone": "America/Managua"
  },
  {
    "id": 951,
    "name": "North Caribbean Coast",
    "country_id": 159,
    "country_code": "NI",
    "state_code": "AN",
    "type": "autonomous region",
    "latitude": "14.05574990",
    "longitude": "-83.74757650",
    "iso3166_2": "NI-AN",
    "native": "Costa del Caribe del Norte",
    "timezone": "America/Managua"
  },
  {
    "id": 4964,
    "name": "Nueva Segovia",
    "country_id": 159,
    "country_code": "NI",
    "state_code": "NS",
    "type": "department",
    "latitude": "13.77190230",
    "longitude": "-86.05845420",
    "iso3166_2": "NI-NS",
    "native": "Nueva Segovia",
    "timezone": "America/Managua"
  },
  {
    "id": 949,
    "name": "Río San Juan",
    "country_id": 159,
    "country_code": "NI",
    "state_code": "SJ",
    "type": "department",
    "latitude": "11.30800260",
    "longitude": "-84.75506930",
    "iso3166_2": "NI-SJ",
    "native": "Río San Juan",
    "timezone": "America/Managua"
  },
  {
    "id": 942,
    "name": "Rivas",
    "country_id": 159,
    "country_code": "NI",
    "state_code": "RI",
    "type": "department",
    "latitude": "11.34346870",
    "longitude": "-85.71596240",
    "iso3166_2": "NI-RI",
    "native": "Rivas",
    "timezone": "America/Managua"
  },
  {
    "id": 952,
    "name": "South Caribbean Coast",
    "country_id": 159,
    "country_code": "NI",
    "state_code": "AS",
    "type": "autonomous region",
    "latitude": "12.17932750",
    "longitude": "-83.77740510",
    "iso3166_2": "NI-AS",
    "native": "Costa del Caribe del Sur",
    "timezone": "America/Managua"
  }
]