[
  {
    "id": 81203,
    "name": "Alejal",
    "state_id": 1340,
    "state_code": "11",
    "country_id": 174,
    "country_code": "PH",
    "latitude": "7.38417000",
    "longitude": "125.66000000",
    "wikiDataId": null
  },
  {
    "id": 81261,
    "name": "Andili",
    "state_id": 1340,
    "state_code": "11",
    "country_id": 174,
    "country_code": "PH",
    "latitude": "7.46200000",
    "longitude": "125.97010000",
    "wikiDataId": null
  },
  {
    "id": 81262,
    "name": "Andop",
    "state_id": 1340,
    "state_code": "11",
    "country_id": 174,
    "country_code": "PH",
    "latitude": "7.86111000",
    "longitude": "125.75389000",
    "wikiDataId": null
  },
  {
    "id": 81271,
    "name": "Anibongan",
    "state_id": 1340,
    "state_code": "11",
    "country_id": 174,
    "country_code": "PH",
    "latitude": "7.39333000",
    "longitude": "125.71889000",
    "wikiDataId": null
  },
  {
    "id": 81321,
    "name": "Astorga",
    "state_id": 1340,
    "state_code": "11",
    "country_id": 174,
    "country_code": "PH",
    "latitude": "6.90722000",
    "longitude": "125.45583000",
    "wikiDataId": null
  },
  {
    "id": 81347,
    "name": "Babag",
    "state_id": 1340,
    "state_code": "11",
    "country_id": 174,
    "country_code": "PH",
    "latitude": "7.73309000",
    "longitude": "126.07130000",
    "wikiDataId": null
  },
  {
    "id": 81374,
    "name": "Baculin",
    "state_id": 1340,
    "state_code": "11",
    "country_id": 174,
    "country_code": "PH",
    "latitude": "7.44935030",
    "longitude": "126.58329510",
    "wikiDataId": null
  },
  {
    "id": 81438,
    "name": "Balagunan",
    "state_id": 1340,
    "state_code": "11",
    "country_id": 174,
    "country_code": "PH",
    "latitude": "7.49222000",
    "longitude": "125.52111000",
    "wikiDataId": null
  },
  {
    "id": 81445,
    "name": "Balangonan",
    "state_id": 1340,
    "state_code": "11",
    "country_id": 174,
    "country_code": "PH",
    "latitude": "5.57333000",
    "longitude": "125.35389000",
    "wikiDataId": null
  },
  {
    "id": 81507,
    "name": "Balutakay",
    "state_id": 1340,
    "state_code": "11",
    "country_id": 174,
    "country_code": "PH",
    "latitude": "6.72111000",
    "longitude": "125.35167000",
    "wikiDataId": null
  },
  {
    "id": 81549,
    "name": "Bantacan",
    "state_id": 1340,
    "state_code": "11",
    "country_id": 174,
    "country_code": "PH",
    "latitude": "7.60400000",
    "longitude": "126.12980000",
    "wikiDataId": null
  },
  {
    "id": 81561,
    "name": "Baon",
    "state_id": 1340,
    "state_code": "11",
    "country_id": 174,
    "country_code": "PH",
    "latitude": "6.79562000",
    "longitude": "126.08778000",
    "wikiDataId": null
  },
  {
    "id": 81563,
    "name": "Baracatan",
    "state_id": 1340,
    "state_code": "11",
    "country_id": 174,
    "country_code": "PH",
    "latitude": "6.96750000",
    "longitude": "125.41583000",
    "wikiDataId": null
  },
  {
    "id": 81603,
    "name": "Basiawan",
    "state_id": 1340,
    "state_code": "11",
    "country_id": 174,
    "country_code": "PH",
    "latitude": "6.53417000",
    "longitude": "125.48694000",
    "wikiDataId": null
  },
  {
    "id": 81623,
    "name": "Batiano",
    "state_id": 1340,
    "state_code": "11",
    "country_id": 174,
    "country_code": "PH",
    "latitude": "7.55340000",
    "longitude": "126.49070000",
    "wikiDataId": null
  },
  {
    "id": 81633,
    "name": "Batobato",
    "state_id": 1340,
    "state_code": "11",
    "country_id": 174,
    "country_code": "PH",
    "latitude": "6.82522000",
    "longitude": "126.08458000",
    "wikiDataId": null
  },
  {
    "id": 81665,
    "name": "Baylo",
    "state_id": 1340,
    "state_code": "11",
    "country_id": 174,
    "country_code": "PH",
    "latitude": "7.85514000",
    "longitude": "126.05563000",
    "wikiDataId": null
  },
  {
    "id": 81684,
    "name": "Biao",
    "state_id": 1340,
    "state_code": "11",
    "country_id": 174,
    "country_code": "PH",
    "latitude": "7.16333000",
    "longitude": "125.52111000",
    "wikiDataId": null
  },
  {
    "id": 81716,
    "name": "Bincoñgan",
    "state_id": 1340,
    "state_code": "11",
    "country_id": 174,
    "country_code": "PH",
    "latitude": "7.36667000",
    "longitude": "125.75000000",
    "wikiDataId": null
  },
  {
    "id": 81743,
    "name": "Bitaogan",
    "state_id": 1340,
    "state_code": "11",
    "country_id": 174,
    "country_code": "PH",
    "latitude": "6.76842000",
    "longitude": "126.07738000",
    "wikiDataId": null
  },
  {
    "id": 81768,
    "name": "Bolila",
    "state_id": 1340,
    "state_code": "11",
    "country_id": 174,
    "country_code": "PH",
    "latitude": "6.37167000",
    "longitude": "125.57139000",
    "wikiDataId": null
  },
  {
    "id": 81825,
    "name": "Buclad",
    "state_id": 1340,
    "state_code": "11",
    "country_id": 174,
    "country_code": "PH",
    "latitude": "7.52778000",
    "longitude": "125.75056000",
    "wikiDataId": null
  },
  {
    "id": 81852,
    "name": "Buhangin",
    "state_id": 1340,
    "state_code": "11",
    "country_id": 174,
    "country_code": "PH",
    "latitude": "6.49111000",
    "longitude": "125.54750000",
    "wikiDataId": null
  },
  {
    "id": 81858,
    "name": "Bukid",
    "state_id": 1340,
    "state_code": "11",
    "country_id": 174,
    "country_code": "PH",
    "latitude": "5.57167000",
    "longitude": "125.40556000",
    "wikiDataId": null
  },
  {
    "id": 81861,
    "name": "Bulacan",
    "state_id": 1340,
    "state_code": "11",
    "country_id": 174,
    "country_code": "PH",
    "latitude": "6.56750000",
    "longitude": "125.42111000",
    "wikiDataId": null
  },
  {
    "id": 81895,
    "name": "Bungabon",
    "state_id": 1340,
    "state_code": "11",
    "country_id": 174,
    "country_code": "PH",
    "latitude": "7.22210000",
    "longitude": "125.87310000",
    "wikiDataId": null
  },
  {
    "id": 81927,
    "name": "Butulan",
    "state_id": 1340,
    "state_code": "11",
    "country_id": 174,
    "country_code": "PH",
    "latitude": "5.61444000",
    "longitude": "125.43167000",
    "wikiDataId": null
  },
  {
    "id": 81961,
    "name": "Cabayangan",
    "state_id": 1340,
    "state_code": "11",
    "country_id": 174,
    "country_code": "PH",
    "latitude": "7.40722000",
    "longitude": "125.73306000",
    "wikiDataId": null
  },
  {
    "id": 81969,
    "name": "Cabinuangan",
    "state_id": 1340,
    "state_code": "11",
    "country_id": 174,
    "country_code": "PH",
    "latitude": "7.68333000",
    "longitude": "126.03333000",
    "wikiDataId": null
  },
  {
    "id": 81984,
    "name": "Caburan",
    "state_id": 1340,
    "state_code": "11",
    "country_id": 174,
    "country_code": "PH",
    "latitude": "5.91806000",
    "longitude": "125.64111000",
    "wikiDataId": null
  },
  {
    "id": 82086,
    "name": "Cambanugoy",
    "state_id": 1340,
    "state_code": "11",
    "country_id": 174,
    "country_code": "PH",
    "latitude": "7.54130000",
    "longitude": "125.75530000",
    "wikiDataId": null
  },
  {
    "id": 82097,
    "name": "Camudmud",
    "state_id": 1340,
    "state_code": "11",
    "country_id": 174,
    "country_code": "PH",
    "latitude": "7.17611000",
    "longitude": "125.69333000",
    "wikiDataId": null
  },
  {
    "id": 82255,
    "name": "Cogon",
    "state_id": 1340,
    "state_code": "11",
    "country_id": 174,
    "country_code": "PH",
    "latitude": "7.15083000",
    "longitude": "125.71722000",
    "wikiDataId": null
  },
  {
    "id": 82270,
    "name": "Compostela Valley",
    "state_id": 1340,
    "state_code": "11",
    "country_id": 174,
    "country_code": "PH",
    "latitude": "7.68333000",
    "longitude": "126.11667000",
    "wikiDataId": null
  },
  {
    "id": 82294,
    "name": "Corocotan",
    "state_id": 1340,
    "state_code": "11",
    "country_id": 174,
    "country_code": "PH",
    "latitude": "7.39980000",
    "longitude": "125.77270000",
    "wikiDataId": null
  },
  {
    "id": 82296,
    "name": "Coronon",
    "state_id": 1340,
    "state_code": "11",
    "country_id": 174,
    "country_code": "PH",
    "latitude": "6.87917000",
    "longitude": "125.44889000",
    "wikiDataId": null
  },
  {
    "id": 82305,
    "name": "Cuambog",
    "state_id": 1340,
    "state_code": "11",
    "country_id": 174,
    "country_code": "PH",
    "latitude": "7.30861000",
    "longitude": "125.84806000",
    "wikiDataId": null
  },
  {
    "id": 82311,
    "name": "Culaman",
    "state_id": 1340,
    "state_code": "11",
    "country_id": 174,
    "country_code": "PH",
    "latitude": "5.96028000",
    "longitude": "125.65861000",
    "wikiDataId": null
  },
  {
    "id": 82328,
    "name": "Dacudao",
    "state_id": 1340,
    "state_code": "11",
    "country_id": 174,
    "country_code": "PH",
    "latitude": "7.21528000",
    "longitude": "125.47139000",
    "wikiDataId": null
  },
  {
    "id": 82395,
    "name": "Davan",
    "state_id": 1340,
    "state_code": "11",
    "country_id": 174,
    "country_code": "PH",
    "latitude": "6.91487000",
    "longitude": "126.15323000",
    "wikiDataId": null
  },
  {
    "id": 82396,
    "name": "Davao",
    "state_id": 1340,
    "state_code": "11",
    "country_id": 174,
    "country_code": "PH",
    "latitude": "7.07306000",
    "longitude": "125.61278000",
    "wikiDataId": null
  },
  {
    "id": 82411,
    "name": "Del Pilar",
    "state_id": 1340,
    "state_code": "11",
    "country_id": 174,
    "country_code": "PH",
    "latitude": "7.56306000",
    "longitude": "125.82667000",
    "wikiDataId": null
  },
  {
    "id": 82450,
    "name": "Dolo",
    "state_id": 1340,
    "state_code": "11",
    "country_id": 174,
    "country_code": "PH",
    "latitude": "6.81028000",
    "longitude": "125.19167000",
    "wikiDataId": null
  },
  {
    "id": 82493,
    "name": "Dumlan",
    "state_id": 1340,
    "state_code": "11",
    "country_id": 174,
    "country_code": "PH",
    "latitude": "7.42750000",
    "longitude": "125.88190000",
    "wikiDataId": null
  },
  {
    "id": 82547,
    "name": "Gabi",
    "state_id": 1340,
    "state_code": "11",
    "country_id": 174,
    "country_code": "PH",
    "latitude": "7.62150000",
    "longitude": "126.09200000",
    "wikiDataId": null
  },
  {
    "id": 82550,
    "name": "Gabuyan",
    "state_id": 1340,
    "state_code": "11",
    "country_id": 174,
    "country_code": "PH",
    "latitude": "7.60806000",
    "longitude": "125.66889000",
    "wikiDataId": null
  },
  {
    "id": 82606,
    "name": "Goma",
    "state_id": 1340,
    "state_code": "11",
    "country_id": 174,
    "country_code": "PH",
    "latitude": "6.79194000",
    "longitude": "125.32083000",
    "wikiDataId": null
  },
  {
    "id": 82621,
    "name": "Guihing Proper",
    "state_id": 1340,
    "state_code": "11",
    "country_id": 174,
    "country_code": "PH",
    "latitude": "6.68444000",
    "longitude": "125.35250000",
    "wikiDataId": null
  },
  {
    "id": 82654,
    "name": "Gumalang",
    "state_id": 1340,
    "state_code": "11",
    "country_id": 174,
    "country_code": "PH",
    "latitude": "7.20833000",
    "longitude": "125.40361000",
    "wikiDataId": null
  },
  {
    "id": 82657,
    "name": "Gupitan",
    "state_id": 1340,
    "state_code": "11",
    "country_id": 174,
    "country_code": "PH",
    "latitude": "7.77583000",
    "longitude": "125.64056000",
    "wikiDataId": null
  },
  {
    "id": 82684,
    "name": "Hiju Maco",
    "state_id": 1340,
    "state_code": "11",
    "country_id": 174,
    "country_code": "PH",
    "latitude": "7.38541000",
    "longitude": "125.82822000",
    "wikiDataId": null
  },
  {
    "id": 82720,
    "name": "Ignit",
    "state_id": 1340,
    "state_code": "11",
    "country_id": 174,
    "country_code": "PH",
    "latitude": "6.70083000",
    "longitude": "125.29194000",
    "wikiDataId": null
  },
  {
    "id": 82724,
    "name": "Ilangay",
    "state_id": 1340,
    "state_code": "11",
    "country_id": 174,
    "country_code": "PH",
    "latitude": "6.91284000",
    "longitude": "126.05008000",
    "wikiDataId": null
  },
  {
    "id": 82743,
    "name": "Inawayan",
    "state_id": 1340,
    "state_code": "11",
    "country_id": 174,
    "country_code": "PH",
    "latitude": "6.96083000",
    "longitude": "125.47333000",
    "wikiDataId": null
  },
  {
    "id": 82814,
    "name": "Jovellar",
    "state_id": 1340,
    "state_code": "11",
    "country_id": 174,
    "country_code": "PH",
    "latitude": "7.06350000",
    "longitude": "126.45558000",
    "wikiDataId": null
  },
  {
    "id": 82846,
    "name": "Kalbay",
    "state_id": 1340,
    "state_code": "11",
    "country_id": 174,
    "country_code": "PH",
    "latitude": "5.72333000",
    "longitude": "125.49861000",
    "wikiDataId": null
  },
  {
    "id": 82848,
    "name": "Kalian",
    "state_id": 1340,
    "state_code": "11",
    "country_id": 174,
    "country_code": "PH",
    "latitude": "6.12306000",
    "longitude": "125.70028000",
    "wikiDataId": null
  },
  {
    "id": 82851,
    "name": "Kaligutan",
    "state_id": 1340,
    "state_code": "11",
    "country_id": 174,
    "country_code": "PH",
    "latitude": "7.70306000",
    "longitude": "125.81306000",
    "wikiDataId": null
  },
  {
    "id": 82866,
    "name": "Kapalong",
    "state_id": 1340,
    "state_code": "11",
    "country_id": 174,
    "country_code": "PH",
    "latitude": "7.77056000",
    "longitude": "125.55861000",
    "wikiDataId": null
  },
  {
    "id": 82905,
    "name": "Kinablangan",
    "state_id": 1340,
    "state_code": "11",
    "country_id": 174,
    "country_code": "PH",
    "latitude": "7.69131260",
    "longitude": "126.55159320",
    "wikiDataId": null
  },
  {
    "id": 82908,
    "name": "Kinamayan",
    "state_id": 1340,
    "state_code": "11",
    "country_id": 174,
    "country_code": "PH",
    "latitude": "7.49944000",
    "longitude": "125.67361000",
    "wikiDataId": null
  },
  {
    "id": 82909,
    "name": "Kinangan",
    "state_id": 1340,
    "state_code": "11",
    "country_id": 174,
    "country_code": "PH",
    "latitude": "6.30139000",
    "longitude": "125.58500000",
    "wikiDataId": null
  },
  {
    "id": 82954,
    "name": "La Union",
    "state_id": 1340,
    "state_code": "11",
    "country_id": 174,
    "country_code": "PH",
    "latitude": "6.70413000",
    "longitude": "126.08798000",
    "wikiDataId": null
  },
  {
    "id": 82969,
    "name": "Lacaron",
    "state_id": 1340,
    "state_code": "11",
    "country_id": 174,
    "country_code": "PH",
    "latitude": "6.44889000",
    "longitude": "125.57917000",
    "wikiDataId": null
  },
  {
    "id": 82972,
    "name": "Lacson",
    "state_id": 1340,
    "state_code": "11",
    "country_id": 174,
    "country_code": "PH",
    "latitude": "7.21194000",
    "longitude": "125.44222000",
    "wikiDataId": null
  },
  {
    "id": 82983,
    "name": "Lais",
    "state_id": 1340,
    "state_code": "11",
    "country_id": 174,
    "country_code": "PH",
    "latitude": "6.33278000",
    "longitude": "125.64639000",
    "wikiDataId": null
  },
  {
    "id": 83038,
    "name": "Lapuan",
    "state_id": 1340,
    "state_code": "11",
    "country_id": 174,
    "country_code": "PH",
    "latitude": "6.14444000",
    "longitude": "125.70083000",
    "wikiDataId": null
  },
  {
    "id": 83047,
    "name": "Lasang",
    "state_id": 1340,
    "state_code": "11",
    "country_id": 174,
    "country_code": "PH",
    "latitude": "7.26694000",
    "longitude": "125.66500000",
    "wikiDataId": null
  },
  {
    "id": 83098,
    "name": "Libuganon",
    "state_id": 1340,
    "state_code": "11",
    "country_id": 174,
    "country_code": "PH",
    "latitude": "7.34880000",
    "longitude": "125.77820000",
    "wikiDataId": null
  },
  {
    "id": 83116,
    "name": "Limao",
    "state_id": 1340,
    "state_code": "11",
    "country_id": 174,
    "country_code": "PH",
    "latitude": "7.07917000",
    "longitude": "125.67361000",
    "wikiDataId": null
  },
  {
    "id": 83125,
    "name": "Limot",
    "state_id": 1340,
    "state_code": "11",
    "country_id": 174,
    "country_code": "PH",
    "latitude": "7.04050000",
    "longitude": "126.27268000",
    "wikiDataId": null
  },
  {
    "id": 83133,
    "name": "Linao",
    "state_id": 1340,
    "state_code": "11",
    "country_id": 174,
    "country_code": "PH",
    "latitude": "7.01720000",
    "longitude": "125.99200000",
    "wikiDataId": null
  },
  {
    "id": 83143,
    "name": "Linoan",
    "state_id": 1340,
    "state_code": "11",
    "country_id": 174,
    "country_code": "PH",
    "latitude": "7.62600000",
    "longitude": "125.97410000",
    "wikiDataId": null
  },
  {
    "id": 83210,
    "name": "Lukatan",
    "state_id": 1340,
    "state_code": "11",
    "country_id": 174,
    "country_code": "PH",
    "latitude": "7.00960000",
    "longitude": "126.42118000",
    "wikiDataId": null
  },
  {
    "id": 83239,
    "name": "Lungaog",
    "state_id": 1340,
    "state_code": "11",
    "country_id": 174,
    "country_code": "PH",
    "latitude": "7.52944000",
    "longitude": "125.68778000",
    "wikiDataId": null
  },
  {
    "id": 83253,
    "name": "Luzon",
    "state_id": 1340,
    "state_code": "11",
    "country_id": 174,
    "country_code": "PH",
    "latitude": "6.51904000",
    "longitude": "126.09408000",
    "wikiDataId": null
  },
  {
    "id": 83277,
    "name": "Mabini",
    "state_id": 1340,
    "state_code": "11",
    "country_id": 174,
    "country_code": "PH",
    "latitude": "7.31139000",
    "longitude": "125.85278000",
    "wikiDataId": null
  },
  {
    "id": 83287,
    "name": "Mabuhay",
    "state_id": 1340,
    "state_code": "11",
    "country_id": 174,
    "country_code": "PH",
    "latitude": "7.33306000",
    "longitude": "125.54750000",
    "wikiDataId": null
  },
  {
    "id": 83315,
    "name": "Maduao",
    "state_id": 1340,
    "state_code": "11",
    "country_id": 174,
    "country_code": "PH",
    "latitude": "7.29417000",
    "longitude": "125.62583000",
    "wikiDataId": null
  },
  {
    "id": 83328,
    "name": "Magatos",
    "state_id": 1340,
    "state_code": "11",
    "country_id": 174,
    "country_code": "PH",
    "latitude": "7.55556000",
    "longitude": "125.72667000",
    "wikiDataId": null
  },
  {
    "id": 83335,
    "name": "Magdug",
    "state_id": 1340,
    "state_code": "11",
    "country_id": 174,
    "country_code": "PH",
    "latitude": "6.54764000",
    "longitude": "126.09508000",
    "wikiDataId": null
  },
  {
    "id": 83338,
    "name": "Magnaga",
    "state_id": 1340,
    "state_code": "11",
    "country_id": 174,
    "country_code": "PH",
    "latitude": "7.16940000",
    "longitude": "125.89310000",
    "wikiDataId": null
  },
  {
    "id": 83349,
    "name": "Magugpo Poblacion",
    "state_id": 1340,
    "state_code": "11",
    "country_id": 174,
    "country_code": "PH",
    "latitude": "7.44723330",
    "longitude": "125.80438970",
    "wikiDataId": null
  },
  {
    "id": 83357,
    "name": "Mahanob",
    "state_id": 1340,
    "state_code": "11",
    "country_id": 174,
    "country_code": "PH",
    "latitude": "7.57326000",
    "longitude": "126.50684000",
    "wikiDataId": null
  },
  {
    "id": 83393,
    "name": "Malagos",
    "state_id": 1340,
    "state_code": "11",
    "country_id": 174,
    "country_code": "PH",
    "latitude": "7.18500000",
    "longitude": "125.42222000",
    "wikiDataId": null
  },
  {
    "id": 83436,
    "name": "Malinao",
    "state_id": 1340,
    "state_code": "11",
    "country_id": 174,
    "country_code": "PH",
    "latitude": "6.65917000",
    "longitude": "125.28667000",
    "wikiDataId": null
  },
  {
    "id": 83445,
    "name": "Malita",
    "state_id": 1340,
    "state_code": "11",
    "country_id": 174,
    "country_code": "PH",
    "latitude": "6.41500000",
    "longitude": "125.61167000",
    "wikiDataId": null
  },
  {
    "id": 83471,
    "name": "Mambago",
    "state_id": 1340,
    "state_code": "11",
    "country_id": 174,
    "country_code": "PH",
    "latitude": "7.10556000",
    "longitude": "125.69444000",
    "wikiDataId": null
  },
  {
    "id": 83484,
    "name": "Managa",
    "state_id": 1340,
    "state_code": "11",
    "country_id": 174,
    "country_code": "PH",
    "latitude": "6.74611000",
    "longitude": "125.26806000",
    "wikiDataId": null
  },
  {
    "id": 83487,
    "name": "Manaloal",
    "state_id": 1340,
    "state_code": "11",
    "country_id": 174,
    "country_code": "PH",
    "latitude": "7.36611000",
    "longitude": "125.66028000",
    "wikiDataId": null
  },
  {
    "id": 83495,
    "name": "Manat",
    "state_id": 1340,
    "state_code": "11",
    "country_id": 174,
    "country_code": "PH",
    "latitude": "7.53270000",
    "longitude": "126.01730000",
    "wikiDataId": null
  },
  {
    "id": 83517,
    "name": "Mangili",
    "state_id": 1340,
    "state_code": "11",
    "country_id": 174,
    "country_code": "PH",
    "latitude": "6.00333000",
    "longitude": "125.68389000",
    "wikiDataId": null
  },
  {
    "id": 83523,
    "name": "Manikling",
    "state_id": 1340,
    "state_code": "11",
    "country_id": 174,
    "country_code": "PH",
    "latitude": "6.87907000",
    "longitude": "126.06063000",
    "wikiDataId": null
  },
  {
    "id": 83626,
    "name": "Matiao",
    "state_id": 1340,
    "state_code": "11",
    "country_id": 174,
    "country_code": "PH",
    "latitude": "7.08280000",
    "longitude": "125.93620000",
    "wikiDataId": null
  },
  {
    "id": 83632,
    "name": "Matti",
    "state_id": 1340,
    "state_code": "11",
    "country_id": 174,
    "country_code": "PH",
    "latitude": "6.77056000",
    "longitude": "125.30861000",
    "wikiDataId": null
  },
  {
    "id": 83651,
    "name": "Mayo",
    "state_id": 1340,
    "state_code": "11",
    "country_id": 174,
    "country_code": "PH",
    "latitude": "7.00211000",
    "longitude": "126.33198000",
    "wikiDataId": null
  },
  {
    "id": 83772,
    "name": "Nangan",
    "state_id": 1340,
    "state_code": "11",
    "country_id": 174,
    "country_code": "PH",
    "latitude": "6.47264000",
    "longitude": "126.12438000",
    "wikiDataId": null
  },
  {
    "id": 83775,
    "name": "Nanyo",
    "state_id": 1340,
    "state_code": "11",
    "country_id": 174,
    "country_code": "PH",
    "latitude": "7.33306000",
    "longitude": "125.63778000",
    "wikiDataId": null
  },
  {
    "id": 83801,
    "name": "New Baclayon",
    "state_id": 1340,
    "state_code": "11",
    "country_id": 174,
    "country_code": "PH",
    "latitude": "6.58417000",
    "longitude": "125.36944000",
    "wikiDataId": null
  },
  {
    "id": 83803,
    "name": "New Bohol",
    "state_id": 1340,
    "state_code": "11",
    "country_id": 174,
    "country_code": "PH",
    "latitude": "7.52330000",
    "longitude": "125.83630000",
    "wikiDataId": null
  },
  {
    "id": 83808,
    "name": "New Leyte",
    "state_id": 1340,
    "state_code": "11",
    "country_id": 174,
    "country_code": "PH",
    "latitude": "7.53829990",
    "longitude": "125.75385400",
    "wikiDataId": null
  },
  {
    "id": 83811,
    "name": "New Sibonga",
    "state_id": 1340,
    "state_code": "11",
    "country_id": 174,
    "country_code": "PH",
    "latitude": "7.56090000",
    "longitude": "125.92980000",
    "wikiDataId": null
  },
  {
    "id": 83812,
    "name": "New Visayas",
    "state_id": 1340,
    "state_code": "11",
    "country_id": 174,
    "country_code": "PH",
    "latitude": "7.52333000",
    "longitude": "125.62333000",
    "wikiDataId": null
  },
  {
    "id": 83830,
    "name": "Nuing",
    "state_id": 1340,
    "state_code": "11",
    "country_id": 174,
    "country_code": "PH",
    "latitude": "5.63278000",
    "longitude": "125.43528000",
    "wikiDataId": null
  },
  {
    "id": 83886,
    "name": "Pag-asa",
    "state_id": 1340,
    "state_code": "11",
    "country_id": 174,
    "country_code": "PH",
    "latitude": "7.57556000",
    "longitude": "125.68389000",
    "wikiDataId": null
  },
  {
    "id": 83894,
    "name": "Pagsabangan",
    "state_id": 1340,
    "state_code": "11",
    "country_id": 174,
    "country_code": "PH",
    "latitude": "7.48111000",
    "longitude": "125.74944000",
    "wikiDataId": null
  },
  {
    "id": 83926,
    "name": "Palma Gil",
    "state_id": 1340,
    "state_code": "11",
    "country_id": 174,
    "country_code": "PH",
    "latitude": "7.64222000",
    "longitude": "125.62917000",
    "wikiDataId": null
  },
  {
    "id": 83964,
    "name": "Pandasan",
    "state_id": 1340,
    "state_code": "11",
    "country_id": 174,
    "country_code": "PH",
    "latitude": "7.28380000",
    "longitude": "125.85350000",
    "wikiDataId": null
  },
  {
    "id": 83977,
    "name": "Pangian",
    "state_id": 1340,
    "state_code": "11",
    "country_id": 174,
    "country_code": "PH",
    "latitude": "6.46278000",
    "longitude": "125.54528000",
    "wikiDataId": null
  },
  {
    "id": 83985,
    "name": "Panikian",
    "state_id": 1340,
    "state_code": "11",
    "country_id": 174,
    "country_code": "PH",
    "latitude": "7.01070000",
    "longitude": "126.02418000",
    "wikiDataId": null
  },
  {
    "id": 84028,
    "name": "Pasian",
    "state_id": 1340,
    "state_code": "11",
    "country_id": 174,
    "country_code": "PH",
    "latitude": "7.92806000",
    "longitude": "126.06722000",
    "wikiDataId": null
  },
  {
    "id": 84156,
    "name": "Pondaguitan",
    "state_id": 1340,
    "state_code": "11",
    "country_id": 174,
    "country_code": "PH",
    "latitude": "6.36115000",
    "longitude": "126.17778000",
    "wikiDataId": null
  },
  {
    "id": 84205,
    "name": "Province of Davao del Norte",
    "state_id": 1340,
    "state_code": "11",
    "country_id": 174,
    "country_code": "PH",
    "latitude": "7.45099000",
    "longitude": "125.81543000",
    "wikiDataId": null
  },
  {
    "id": 84206,
    "name": "Province of Davao del Sur",
    "state_id": 1340,
    "state_code": "11",
    "country_id": 174,
    "country_code": "PH",
    "latitude": "6.79281000",
    "longitude": "125.30182000",
    "wikiDataId": null
  },
  {
    "id": 84204,
    "name": "Province of Davao Oriental",
    "state_id": 1340,
    "state_code": "11",
    "country_id": 174,
    "country_code": "PH",
    "latitude": "7.16667000",
    "longitude": "126.33333000",
    "wikiDataId": null
  },
  {
    "id": 84277,
    "name": "Pung-Pang",
    "state_id": 1340,
    "state_code": "11",
    "country_id": 174,
    "country_code": "PH",
    "latitude": "6.49750000",
    "longitude": "125.46333000",
    "wikiDataId": null
  },
  {
    "id": 84434,
    "name": "Sampao",
    "state_id": 1340,
    "state_code": "11",
    "country_id": 174,
    "country_code": "PH",
    "latitude": "7.59389000",
    "longitude": "125.66111000",
    "wikiDataId": null
  },
  {
    "id": 84441,
    "name": "San Alfonso",
    "state_id": 1340,
    "state_code": "11",
    "country_id": 174,
    "country_code": "PH",
    "latitude": "7.78028000",
    "longitude": "126.42028000",
    "wikiDataId": null
  },
  {
    "id": 84496,
    "name": "San Ignacio",
    "state_id": 1340,
    "state_code": "11",
    "country_id": 174,
    "country_code": "PH",
    "latitude": "7.11890000",
    "longitude": "126.48838000",
    "wikiDataId": null
  },
  {
    "id": 84749,
    "name": "Sarangani",
    "state_id": 1340,
    "state_code": "11",
    "country_id": 174,
    "country_code": "PH",
    "latitude": "5.40333000",
    "longitude": "125.46361000",
    "wikiDataId": null
  },
  {
    "id": 84784,
    "name": "Sigaboy",
    "state_id": 1340,
    "state_code": "11",
    "country_id": 174,
    "country_code": "PH",
    "latitude": "6.65413000",
    "longitude": "126.07268000",
    "wikiDataId": null
  },
  {
    "id": 84803,
    "name": "Simod",
    "state_id": 1340,
    "state_code": "11",
    "country_id": 174,
    "country_code": "PH",
    "latitude": "7.47583000",
    "longitude": "125.34083000",
    "wikiDataId": null
  },
  {
    "id": 84811,
    "name": "Sinawilan",
    "state_id": 1340,
    "state_code": "11",
    "country_id": 174,
    "country_code": "PH",
    "latitude": "6.75444000",
    "longitude": "125.24639000",
    "wikiDataId": null
  },
  {
    "id": 84812,
    "name": "Sinayawan",
    "state_id": 1340,
    "state_code": "11",
    "country_id": 174,
    "country_code": "PH",
    "latitude": "6.71250000",
    "longitude": "125.30944000",
    "wikiDataId": null
  },
  {
    "id": 84829,
    "name": "Sirib",
    "state_id": 1340,
    "state_code": "11",
    "country_id": 174,
    "country_code": "PH",
    "latitude": "7.13333000",
    "longitude": "125.40722000",
    "wikiDataId": null
  },
  {
    "id": 84858,
    "name": "Sugal",
    "state_id": 1340,
    "state_code": "11",
    "country_id": 174,
    "country_code": "PH",
    "latitude": "5.66222000",
    "longitude": "125.46167000",
    "wikiDataId": null
  },
  {
    "id": 84883,
    "name": "Surup",
    "state_id": 1340,
    "state_code": "11",
    "country_id": 174,
    "country_code": "PH",
    "latitude": "6.39035000",
    "longitude": "126.14558000",
    "wikiDataId": null
  },
  {
    "id": 84887,
    "name": "Suz-on",
    "state_id": 1340,
    "state_code": "11",
    "country_id": 174,
    "country_code": "PH",
    "latitude": "7.66278000",
    "longitude": "125.63833000",
    "wikiDataId": null
  },
  {
    "id": 84926,
    "name": "Tagakpan",
    "state_id": 1340,
    "state_code": "11",
    "country_id": 174,
    "country_code": "PH",
    "latitude": "7.11278000",
    "longitude": "125.42917000",
    "wikiDataId": null
  },
  {
    "id": 84941,
    "name": "Tagdanua",
    "state_id": 1340,
    "state_code": "11",
    "country_id": 174,
    "country_code": "PH",
    "latitude": "7.20430000",
    "longitude": "125.88410000",
    "wikiDataId": null
  },
  {
    "id": 84943,
    "name": "Tagnanan",
    "state_id": 1340,
    "state_code": "11",
    "country_id": 174,
    "country_code": "PH",
    "latitude": "7.28361000",
    "longitude": "125.84222000",
    "wikiDataId": null
  },
  {
    "id": 84956,
    "name": "Takub",
    "state_id": 1340,
    "state_code": "11",
    "country_id": 174,
    "country_code": "PH",
    "latitude": "6.85639000",
    "longitude": "125.42250000",
    "wikiDataId": null
  },
  {
    "id": 84964,
    "name": "Talagutong",
    "state_id": 1340,
    "state_code": "11",
    "country_id": 174,
    "country_code": "PH",
    "latitude": "6.26444000",
    "longitude": "125.66778000",
    "wikiDataId": null
  },
  {
    "id": 84991,
    "name": "Talomo",
    "state_id": 1340,
    "state_code": "11",
    "country_id": 174,
    "country_code": "PH",
    "latitude": "7.52861000",
    "longitude": "125.72278000",
    "wikiDataId": null
  },
  {
    "id": 85003,
    "name": "Tamayong",
    "state_id": 1340,
    "state_code": "11",
    "country_id": 174,
    "country_code": "PH",
    "latitude": "7.13306000",
    "longitude": "125.37972000",
    "wikiDataId": null
  },
  {
    "id": 85011,
    "name": "Tambo",
    "state_id": 1340,
    "state_code": "11",
    "country_id": 174,
    "country_code": "PH",
    "latitude": "7.15694000",
    "longitude": "125.69917000",
    "wikiDataId": null
  },
  {
    "id": 85015,
    "name": "Tamisan",
    "state_id": 1340,
    "state_code": "11",
    "country_id": 174,
    "country_code": "PH",
    "latitude": "6.84372000",
    "longitude": "126.29838000",
    "wikiDataId": null
  },
  {
    "id": 85027,
    "name": "Tamugan",
    "state_id": 1340,
    "state_code": "11",
    "country_id": 174,
    "country_code": "PH",
    "latitude": "7.23083000",
    "longitude": "125.37639000",
    "wikiDataId": null
  },
  {
    "id": 85040,
    "name": "Tanlad",
    "state_id": 1340,
    "state_code": "11",
    "country_id": 174,
    "country_code": "PH",
    "latitude": "6.60222000",
    "longitude": "125.44500000",
    "wikiDataId": null
  },
  {
    "id": 85050,
    "name": "Tapia",
    "state_id": 1340,
    "state_code": "11",
    "country_id": 174,
    "country_code": "PH",
    "latitude": "7.75417000",
    "longitude": "126.01194000",
    "wikiDataId": null
  },
  {
    "id": 85067,
    "name": "Tawan tawan",
    "state_id": 1340,
    "state_code": "11",
    "country_id": 174,
    "country_code": "PH",
    "latitude": "7.16917000",
    "longitude": "125.37278000",
    "wikiDataId": null
  },
  {
    "id": 85078,
    "name": "Taytayan",
    "state_id": 1340,
    "state_code": "11",
    "country_id": 174,
    "country_code": "PH",
    "latitude": "7.73389000",
    "longitude": "126.50194000",
    "wikiDataId": null
  },
  {
    "id": 85093,
    "name": "Tibagon",
    "state_id": 1340,
    "state_code": "11",
    "country_id": 174,
    "country_code": "PH",
    "latitude": "7.23270000",
    "longitude": "125.86280000",
    "wikiDataId": null
  },
  {
    "id": 85094,
    "name": "Tibanbang",
    "state_id": 1340,
    "state_code": "11",
    "country_id": 174,
    "country_code": "PH",
    "latitude": "6.63153000",
    "longitude": "126.10548000",
    "wikiDataId": null
  },
  {
    "id": 85097,
    "name": "Tiblawan",
    "state_id": 1340,
    "state_code": "11",
    "country_id": 174,
    "country_code": "PH",
    "latitude": "6.47834000",
    "longitude": "126.10828000",
    "wikiDataId": null
  },
  {
    "id": 85163,
    "name": "Tombongon",
    "state_id": 1340,
    "state_code": "11",
    "country_id": 174,
    "country_code": "PH",
    "latitude": "7.07920000",
    "longitude": "125.94860000",
    "wikiDataId": null
  },
  {
    "id": 85182,
    "name": "Tubalan",
    "state_id": 1340,
    "state_code": "11",
    "country_id": 174,
    "country_code": "PH",
    "latitude": "6.49500000",
    "longitude": "125.56611000",
    "wikiDataId": null
  },
  {
    "id": 85184,
    "name": "Tuban",
    "state_id": 1340,
    "state_code": "11",
    "country_id": 174,
    "country_code": "PH",
    "latitude": "6.82278000",
    "longitude": "125.38694000",
    "wikiDataId": null
  },
  {
    "id": 85206,
    "name": "Tuganay",
    "state_id": 1340,
    "state_code": "11",
    "country_id": 174,
    "country_code": "PH",
    "latitude": "7.36889000",
    "longitude": "125.72306000",
    "wikiDataId": null
  },
  {
    "id": 85217,
    "name": "Tuli",
    "state_id": 1340,
    "state_code": "11",
    "country_id": 174,
    "country_code": "PH",
    "latitude": "7.23333000",
    "longitude": "125.41667000",
    "wikiDataId": null
  },
  {
    "id": 85245,
    "name": "Ula",
    "state_id": 1340,
    "state_code": "11",
    "country_id": 174,
    "country_code": "PH",
    "latitude": "7.13222000",
    "longitude": "125.49222000",
    "wikiDataId": null
  },
  {
    "id": 85315,
    "name": "Wañgan",
    "state_id": 1340,
    "state_code": "11",
    "country_id": 174,
    "country_code": "PH",
    "latitude": "7.15972000",
    "longitude": "125.44528000",
    "wikiDataId": null
  },
  {
    "id": 85316,
    "name": "Wines",
    "state_id": 1340,
    "state_code": "11",
    "country_id": 174,
    "country_code": "PH",
    "latitude": "7.19389000",
    "longitude": "125.38917000",
    "wikiDataId": null
  }
]