[
  {
    "id": 67407,
    "name": "Crnilište",
    "state_id": 675,
    "state_code": "27",
    "country_id": 129,
    "country_code": "MK",
    "latitude": "41.53025000",
    "longitude": "21.41416000",
    "wikiDataId": null
  },
  {
    "id": 67412,
    "name": "Desovo",
    "state_id": 675,
    "state_code": "27",
    "country_id": 129,
    "country_code": "MK",
    "latitude": "41.46278000",
    "longitude": "21.49111000",
    "wikiDataId": null
  },
  {
    "id": 67418,
    "name": "Dolneni",
    "state_id": 675,
    "state_code": "27",
    "country_id": 129,
    "country_code": "MK",
    "latitude": "41.42579000",
    "longitude": "21.45402000",
    "wikiDataId": null
  },
  {
    "id": 67468,
    "name": "Lažani",
    "state_id": 675,
    "state_code": "27",
    "country_id": 129,
    "country_code": "MK",
    "latitude": "41.44222000",
    "longitude": "21.31583000",
    "wikiDataId": null
  },
  {
    "id": 67572,
    "name": "Žitoše",
    "state_id": 675,
    "state_code": "27",
    "country_id": 129,
    "country_code": "MK",
    "latitude": "41.41991000",
    "longitude": "21.29078000",
    "wikiDataId": null
  }
]