[
  {
    "id": 76683,
    "name": "Boboye Department",
    "state_id": 68,
    "state_code": "3",
    "country_id": 160,
    "country_code": "NE",
    "latitude": "13.08167000",
    "longitude": "2.91083000",
    "wikiDataId": null
  },
  {
    "id": 76695,
    "name": "Département de Dogondoutchi",
    "state_id": 68,
    "state_code": "3",
    "country_id": 160,
    "country_code": "NE",
    "latitude": "13.50000000",
    "longitude": "4.00000000",
    "wikiDataId": null
  },
  {
    "id": 76696,
    "name": "Département de Dosso",
    "state_id": 68,
    "state_code": "3",
    "country_id": 160,
    "country_code": "NE",
    "latitude": "12.83333000",
    "longitude": "3.33333000",
    "wikiDataId": null
  },
  {
    "id": 76698,
    "name": "Département de Gaya",
    "state_id": 68,
    "state_code": "3",
    "country_id": 160,
    "country_code": "NE",
    "latitude": "11.95970000",
    "longitude": "3.46045000",
    "wikiDataId": null
  },
  {
    "id": 76702,
    "name": "Département de Loga",
    "state_id": 68,
    "state_code": "3",
    "country_id": 160,
    "country_code": "NE",
    "latitude": "13.63333000",
    "longitude": "3.50000000",
    "wikiDataId": null
  },
  {
    "id": 76687,
    "name": "Dogondoutchi",
    "state_id": 68,
    "state_code": "3",
    "country_id": 160,
    "country_code": "NE",
    "latitude": "13.64030000",
    "longitude": "4.02649000",
    "wikiDataId": null
  },
  {
    "id": 76688,
    "name": "Dosso",
    "state_id": 68,
    "state_code": "3",
    "country_id": 160,
    "country_code": "NE",
    "latitude": "13.04900000",
    "longitude": "3.19370000",
    "wikiDataId": null
  },
  {
    "id": 76716,
    "name": "Gaya",
    "state_id": 68,
    "state_code": "3",
    "country_id": 160,
    "country_code": "NE",
    "latitude": "11.88435000",
    "longitude": "3.44919000",
    "wikiDataId": null
  }
]