[
  {
    "id": 20721,
    "name": "Colón",
    "state_id": 2896,
    "state_code": "PUT",
    "country_id": 48,
    "country_code": "CO",
    "latitude": "1.19034000",
    "longitude": "-76.97369000",
    "wikiDataId": null
  },
  {
    "id": 21089,
    "name": "Mocoa",
    "state_id": 2896,
    "state_code": "PUT",
    "country_id": 48,
    "country_code": "CO",
    "latitude": "1.15284000",
    "longitude": "-76.65208000",
    "wikiDataId": null
  },
  {
    "id": 21152,
    "name": "Orito",
    "state_id": 2896,
    "state_code": "PUT",
    "country_id": 48,
    "country_code": "CO",
    "latitude": "0.66749000",
    "longitude": "-76.87297000",
    "wikiDataId": null
  },
  {
    "id": 21233,
    "name": "Puerto Asís",
    "state_id": 2896,
    "state_code": "PUT",
    "country_id": 48,
    "country_code": "CO",
    "latitude": "0.50514000",
    "longitude": "-76.49571000",
    "wikiDataId": null
  },
  {
    "id": 149248,
    "name": "Puerto Caicedo",
    "state_id": 2896,
    "state_code": "PUT",
    "country_id": 48,
    "country_code": "CO",
    "latitude": "0.68555555",
    "longitude": "-76.60444444",
    "wikiDataId": null
  },
  {
    "id": 21243,
    "name": "Puerto Guzmán",
    "state_id": 2896,
    "state_code": "PUT",
    "country_id": 48,
    "country_code": "CO",
    "latitude": "0.97028000",
    "longitude": "-76.58583000",
    "wikiDataId": null
  },
  {
    "id": 21244,
    "name": "Puerto Leguízamo",
    "state_id": 2896,
    "state_code": "PUT",
    "country_id": 48,
    "country_code": "CO",
    "latitude": "-0.19337000",
    "longitude": "-74.78189000",
    "wikiDataId": null
  },
  {
    "id": 21356,
    "name": "San Francisco",
    "state_id": 2896,
    "state_code": "PUT",
    "country_id": 48,
    "country_code": "CO",
    "latitude": "1.17644000",
    "longitude": "-76.87838000",
    "wikiDataId": null
  },
  {
    "id": 21389,
    "name": "San Miguel",
    "state_id": 2896,
    "state_code": "PUT",
    "country_id": 48,
    "country_code": "CO",
    "latitude": "0.34361111",
    "longitude": "-76.91083333",
    "wikiDataId": null
  },
  {
    "id": 21435,
    "name": "Santiago",
    "state_id": 2896,
    "state_code": "PUT",
    "country_id": 48,
    "country_code": "CO",
    "latitude": "1.14844000",
    "longitude": "-77.00450000",
    "wikiDataId": null
  },
  {
    "id": 21454,
    "name": "Sibundoy",
    "state_id": 2896,
    "state_code": "PUT",
    "country_id": 48,
    "country_code": "CO",
    "latitude": "1.20296000",
    "longitude": "-76.92275000",
    "wikiDataId": null
  },
  {
    "id": 21581,
    "name": "Valle del Guamuez",
    "state_id": 2896,
    "state_code": "PUT",
    "country_id": 48,
    "country_code": "CO",
    "latitude": "0.45250000",
    "longitude": "-76.91917000",
    "wikiDataId": null
  },
  {
    "id": 21602,
    "name": "Villagarzón",
    "state_id": 2896,
    "state_code": "PUT",
    "country_id": 48,
    "country_code": "CO",
    "latitude": "0.89663000",
    "longitude": "-76.72794000",
    "wikiDataId": null
  }
]