[
  {
    "id": 148866,
    "name": "`Ajmiyah",
    "state_id": 2851,
    "state_code": "03",
    "country_id": 194,
    "country_code": "SA",
    "latitude": "24.21670000",
    "longitude": "38.50000000",
    "wikiDataId": null
  },
  {
    "id": 148867,
    "name": "`Alya'",
    "state_id": 2851,
    "state_code": "03",
    "country_id": 194,
    "country_code": "SA",
    "latitude": "23.82360000",
    "longitude": "38.88330000",
    "wikiDataId": null
  },
  {
    "id": 148868,
    "name": "`Ushash",
    "state_id": 2851,
    "state_code": "03",
    "country_id": 194,
    "country_code": "SA",
    "latitude": "23.50000000",
    "longitude": "38.91670000",
    "wikiDataId": null
  },
  {
    "id": 148869,
    "name": "`Ushayrah",
    "state_id": 2851,
    "state_code": "03",
    "country_id": 194,
    "country_code": "SA",
    "latitude": "24.01860000",
    "longitude": "39.67310000",
    "wikiDataId": null
  },
  {
    "id": 148804,
    "name": "Abū Shayţānah",
    "state_id": 2851,
    "state_code": "03",
    "country_id": 194,
    "country_code": "SA",
    "latitude": "23.86670000",
    "longitude": "38.36670000",
    "wikiDataId": null
  },
  {
    "id": 148803,
    "name": "Abyar 'Ali",
    "state_id": 2851,
    "state_code": "03",
    "country_id": 194,
    "country_code": "SA",
    "latitude": "24.41666667",
    "longitude": "39.55000000",
    "wikiDataId": null
  },
  {
    "id": 148805,
    "name": "Ad Dulu`",
    "state_id": 2851,
    "state_code": "03",
    "country_id": 194,
    "country_code": "SA",
    "latitude": "24.76670000",
    "longitude": "39.53330000",
    "wikiDataId": null
  },
  {
    "id": 148823,
    "name": "Al `Awali",
    "state_id": 2851,
    "state_code": "03",
    "country_id": 194,
    "country_code": "SA",
    "latitude": "24.45000000",
    "longitude": "39.61670000",
    "wikiDataId": null
  },
  {
    "id": 148824,
    "name": "Al `Uqul",
    "state_id": 2851,
    "state_code": "03",
    "country_id": 194,
    "country_code": "SA",
    "latitude": "24.50000000",
    "longitude": "39.81670000",
    "wikiDataId": null
  },
  {
    "id": 148806,
    "name": "Al Akhal",
    "state_id": 2851,
    "state_code": "03",
    "country_id": 194,
    "country_code": "SA",
    "latitude": "23.31560000",
    "longitude": "39.85940000",
    "wikiDataId": null
  },
  {
    "id": 148807,
    "name": "Al Bardiyah",
    "state_id": 2851,
    "state_code": "03",
    "country_id": 194,
    "country_code": "SA",
    "latitude": "24.04390000",
    "longitude": "39.60610000",
    "wikiDataId": null
  },
  {
    "id": 148808,
    "name": "Al Biqa'",
    "state_id": 2851,
    "state_code": "03",
    "country_id": 194,
    "country_code": "SA",
    "latitude": "24.38861111",
    "longitude": "38.59888889",
    "wikiDataId": null
  },
  {
    "id": 148809,
    "name": "Al Bustan",
    "state_id": 2851,
    "state_code": "03",
    "country_id": 194,
    "country_code": "SA",
    "latitude": "23.27830000",
    "longitude": "39.24280000",
    "wikiDataId": null
  },
  {
    "id": 148810,
    "name": "Al Faqirah",
    "state_id": 2851,
    "state_code": "03",
    "country_id": 194,
    "country_code": "SA",
    "latitude": "23.42170000",
    "longitude": "39.70970000",
    "wikiDataId": null
  },
  {
    "id": 148811,
    "name": "Al Furaysh",
    "state_id": 2851,
    "state_code": "03",
    "country_id": 194,
    "country_code": "SA",
    "latitude": "24.22000000",
    "longitude": "39.28140000",
    "wikiDataId": null
  },
  {
    "id": 148813,
    "name": "Al Jabriyah",
    "state_id": 2851,
    "state_code": "03",
    "country_id": 194,
    "country_code": "SA",
    "latitude": "24.25000000",
    "longitude": "38.51670000",
    "wikiDataId": null
  },
  {
    "id": 148814,
    "name": "Al Jissah",
    "state_id": 2851,
    "state_code": "03",
    "country_id": 194,
    "country_code": "SA",
    "latitude": "23.33330000",
    "longitude": "40.30000000",
    "wikiDataId": null
  },
  {
    "id": 148815,
    "name": "Al Kharma'",
    "state_id": 2851,
    "state_code": "03",
    "country_id": 194,
    "country_code": "SA",
    "latitude": "23.90000000",
    "longitude": "38.90000000",
    "wikiDataId": null
  },
  {
    "id": 148817,
    "name": "Al Malbanah",
    "state_id": 2851,
    "state_code": "03",
    "country_id": 194,
    "country_code": "SA",
    "latitude": "23.18330000",
    "longitude": "39.51670000",
    "wikiDataId": null
  },
  {
    "id": 148818,
    "name": "Al Mufrihat",
    "state_id": 2851,
    "state_code": "03",
    "country_id": 194,
    "country_code": "SA",
    "latitude": "24.35000000",
    "longitude": "39.41670000",
    "wikiDataId": null
  },
  {
    "id": 148819,
    "name": "Al Multasa",
    "state_id": 2851,
    "state_code": "03",
    "country_id": 194,
    "country_code": "SA",
    "latitude": "24.08330000",
    "longitude": "38.15000000",
    "wikiDataId": null
  },
  {
    "id": 148820,
    "name": "Al Musayjid",
    "state_id": 2851,
    "state_code": "03",
    "country_id": 194,
    "country_code": "SA",
    "latitude": "24.08330000",
    "longitude": "39.10000000",
    "wikiDataId": null
  },
  {
    "id": 148822,
    "name": "Al Wuday",
    "state_id": 2851,
    "state_code": "03",
    "country_id": 194,
    "country_code": "SA",
    "latitude": "24.17890000",
    "longitude": "39.54810000",
    "wikiDataId": null
  },
  {
    "id": 148825,
    "name": "Al-Jafr",
    "state_id": 2851,
    "state_code": "03",
    "country_id": 194,
    "country_code": "SA",
    "latitude": "25.41666667",
    "longitude": "49.61666667",
    "wikiDataId": null
  },
  {
    "id": 102839,
    "name": "Al-Ula",
    "state_id": 2851,
    "state_code": "03",
    "country_id": 194,
    "country_code": "SA",
    "latitude": "26.60853000",
    "longitude": "37.92316000",
    "wikiDataId": null
  },
  {
    "id": 148827,
    "name": "As Sadayir",
    "state_id": 2851,
    "state_code": "03",
    "country_id": 194,
    "country_code": "SA",
    "latitude": "24.25000000",
    "longitude": "39.18330000",
    "wikiDataId": null
  },
  {
    "id": 148828,
    "name": "As Safra'",
    "state_id": 2851,
    "state_code": "03",
    "country_id": 194,
    "country_code": "SA",
    "latitude": "24.01277778",
    "longitude": "38.92277778",
    "wikiDataId": null
  },
  {
    "id": 148829,
    "name": "As Sumariyah",
    "state_id": 2851,
    "state_code": "03",
    "country_id": 194,
    "country_code": "SA",
    "latitude": "24.92140000",
    "longitude": "39.61780000",
    "wikiDataId": null
  },
  {
    "id": 148830,
    "name": "As Suwayriqiyah",
    "state_id": 2851,
    "state_code": "03",
    "country_id": 194,
    "country_code": "SA",
    "latitude": "23.35000000",
    "longitude": "40.31670000",
    "wikiDataId": null
  },
  {
    "id": 148831,
    "name": "Ash Shufayyah",
    "state_id": 2851,
    "state_code": "03",
    "country_id": 194,
    "country_code": "SA",
    "latitude": "23.81670000",
    "longitude": "39.15000000",
    "wikiDataId": null
  },
  {
    "id": 148832,
    "name": "Asira",
    "state_id": 2851,
    "state_code": "03",
    "country_id": 194,
    "country_code": "SA",
    "latitude": "24.33330000",
    "longitude": "38.63330000",
    "wikiDataId": null
  },
  {
    "id": 148833,
    "name": "Baq`a'",
    "state_id": 2851,
    "state_code": "03",
    "country_id": 194,
    "country_code": "SA",
    "latitude": "24.21666667",
    "longitude": "38.71666667",
    "wikiDataId": null
  },
  {
    "id": 148834,
    "name": "Bartiyah",
    "state_id": 2851,
    "state_code": "03",
    "country_id": 194,
    "country_code": "SA",
    "latitude": "24.28330000",
    "longitude": "38.58330000",
    "wikiDataId": null
  },
  {
    "id": 148835,
    "name": "Bi'r al Mashi",
    "state_id": 2851,
    "state_code": "03",
    "country_id": 194,
    "country_code": "SA",
    "latitude": "24.21666667",
    "longitude": "39.55000000",
    "wikiDataId": null
  },
  {
    "id": 148836,
    "name": "Birkah",
    "state_id": 2851,
    "state_code": "03",
    "country_id": 194,
    "country_code": "SA",
    "latitude": "23.82030000",
    "longitude": "38.85970000",
    "wikiDataId": null
  },
  {
    "id": 148839,
    "name": "Far`",
    "state_id": 2851,
    "state_code": "03",
    "country_id": 194,
    "country_code": "SA",
    "latitude": "23.81670000",
    "longitude": "38.86670000",
    "wikiDataId": null
  },
  {
    "id": 148840,
    "name": "Fiji",
    "state_id": 2851,
    "state_code": "03",
    "country_id": 194,
    "country_code": "SA",
    "latitude": "24.26666667",
    "longitude": "38.56666667",
    "wikiDataId": null
  },
  {
    "id": 148841,
    "name": "Harthiyah",
    "state_id": 2851,
    "state_code": "03",
    "country_id": 194,
    "country_code": "SA",
    "latitude": "24.25000000",
    "longitude": "38.55000000",
    "wikiDataId": null
  },
  {
    "id": 148843,
    "name": "Haylat Radi al Baham",
    "state_id": 2851,
    "state_code": "03",
    "country_id": 194,
    "country_code": "SA",
    "latitude": "24.08390000",
    "longitude": "39.72500000",
    "wikiDataId": null
  },
  {
    "id": 148844,
    "name": "Husayniyah",
    "state_id": 2851,
    "state_code": "03",
    "country_id": 194,
    "country_code": "SA",
    "latitude": "23.86666667",
    "longitude": "38.90000000",
    "wikiDataId": null
  },
  {
    "id": 148845,
    "name": "Jadidah",
    "state_id": 2851,
    "state_code": "03",
    "country_id": 194,
    "country_code": "SA",
    "latitude": "23.81670000",
    "longitude": "38.83330000",
    "wikiDataId": null
  },
  {
    "id": 148846,
    "name": "Khayf Fadil",
    "state_id": 2851,
    "state_code": "03",
    "country_id": 194,
    "country_code": "SA",
    "latitude": "24.26670000",
    "longitude": "38.56670000",
    "wikiDataId": null
  },
  {
    "id": 148847,
    "name": "Madsus",
    "state_id": 2851,
    "state_code": "03",
    "country_id": 194,
    "country_code": "SA",
    "latitude": "24.35000000",
    "longitude": "38.55000000",
    "wikiDataId": null
  },
  {
    "id": 148848,
    "name": "Mahattat al Hafah",
    "state_id": 2851,
    "state_code": "03",
    "country_id": 194,
    "country_code": "SA",
    "latitude": "23.75000000",
    "longitude": "39.30000000",
    "wikiDataId": null
  },
  {
    "id": 148849,
    "name": "Maqrah",
    "state_id": 2851,
    "state_code": "03",
    "country_id": 194,
    "country_code": "SA",
    "latitude": "24.41670000",
    "longitude": "38.70000000",
    "wikiDataId": null
  },
  {
    "id": 148850,
    "name": "Maqshush",
    "state_id": 2851,
    "state_code": "03",
    "country_id": 194,
    "country_code": "SA",
    "latitude": "23.58330000",
    "longitude": "38.60000000",
    "wikiDataId": null
  },
  {
    "id": 148851,
    "name": "Masahili",
    "state_id": 2851,
    "state_code": "03",
    "country_id": 194,
    "country_code": "SA",
    "latitude": "24.03330000",
    "longitude": "38.23330000",
    "wikiDataId": null
  },
  {
    "id": 148853,
    "name": "Mawarah",
    "state_id": 2851,
    "state_code": "03",
    "country_id": 194,
    "country_code": "SA",
    "latitude": "24.20000000",
    "longitude": "38.43330000",
    "wikiDataId": null
  },
  {
    "id": 102865,
    "name": "Medina",
    "state_id": 2851,
    "state_code": "03",
    "country_id": 194,
    "country_code": "SA",
    "latitude": "24.46861000",
    "longitude": "39.61417000",
    "wikiDataId": null
  },
  {
    "id": 148854,
    "name": "Milhah",
    "state_id": 2851,
    "state_code": "03",
    "country_id": 194,
    "country_code": "SA",
    "latitude": "24.05000000",
    "longitude": "38.30000000",
    "wikiDataId": null
  },
  {
    "id": 148855,
    "name": "Nujayl",
    "state_id": 2851,
    "state_code": "03",
    "country_id": 194,
    "country_code": "SA",
    "latitude": "24.26670000",
    "longitude": "38.65000000",
    "wikiDataId": null
  },
  {
    "id": 148856,
    "name": "Qaba'",
    "state_id": 2851,
    "state_code": "03",
    "country_id": 194,
    "country_code": "SA",
    "latitude": "24.40000000",
    "longitude": "39.65000000",
    "wikiDataId": null
  },
  {
    "id": 148858,
    "name": "Rayyis",
    "state_id": 2851,
    "state_code": "03",
    "country_id": 194,
    "country_code": "SA",
    "latitude": "23.56670000",
    "longitude": "38.60000000",
    "wikiDataId": null
  },
  {
    "id": 148859,
    "name": "Sha`tha'",
    "state_id": 2851,
    "state_code": "03",
    "country_id": 194,
    "country_code": "SA",
    "latitude": "24.23333333",
    "longitude": "38.53333333",
    "wikiDataId": null
  },
  {
    "id": 148860,
    "name": "Sidi Hamzah",
    "state_id": 2851,
    "state_code": "03",
    "country_id": 194,
    "country_code": "SA",
    "latitude": "24.50000000",
    "longitude": "39.61670000",
    "wikiDataId": null
  },
  {
    "id": 148861,
    "name": "Suq Suwayq",
    "state_id": 2851,
    "state_code": "03",
    "country_id": 194,
    "country_code": "SA",
    "latitude": "24.36670000",
    "longitude": "38.45000000",
    "wikiDataId": null
  },
  {
    "id": 148862,
    "name": "Suqubiya",
    "state_id": 2851,
    "state_code": "03",
    "country_id": 194,
    "country_code": "SA",
    "latitude": "24.23330000",
    "longitude": "38.50000000",
    "wikiDataId": null
  },
  {
    "id": 148863,
    "name": "Suwadah",
    "state_id": 2851,
    "state_code": "03",
    "country_id": 194,
    "country_code": "SA",
    "latitude": "24.03330000",
    "longitude": "38.20000000",
    "wikiDataId": null
  },
  {
    "id": 148865,
    "name": "Wasitah",
    "state_id": 2851,
    "state_code": "03",
    "country_id": 194,
    "country_code": "SA",
    "latitude": "23.88330000",
    "longitude": "38.90000000",
    "wikiDataId": null
  },
  {
    "id": 102892,
    "name": "Yanbu",
    "state_id": 2851,
    "state_code": "03",
    "country_id": 194,
    "country_code": "SA",
    "latitude": "24.08954000",
    "longitude": "38.06180000",
    "wikiDataId": null
  }
]