[
  {
    "id": 85332,
    "name": "Ahmadpur Sial",
    "state_id": 3176,
    "state_code": "PB",
    "country_id": 167,
    "country_code": "PK",
    "latitude": "30.67791000",
    "longitude": "71.74344000",
    "wikiDataId": null
  },
  {
    "id": 85331,
    "name": "Ahmedpur East",
    "state_id": 3176,
    "state_code": "PB",
    "country_id": 167,
    "country_code": "PK",
    "latitude": "29.14269000",
    "longitude": "71.25771000",
    "wikiDataId": null
  },
  {
    "id": 85335,
    "name": "Alipur Chatha",
    "state_id": 3176,
    "state_code": "PB",
    "country_id": 167,
    "country_code": "PK",
    "latitude": "29.38242000",
    "longitude": "70.91106000",
    "wikiDataId": null
  },
  {
    "id": 85339,
    "name": "Arifwala",
    "state_id": 3176,
    "state_code": "PB",
    "country_id": 167,
    "country_code": "PK",
    "latitude": "30.29058000",
    "longitude": "73.06574000",
    "wikiDataId": null
  },
  {
    "id": 85341,
    "name": "Attock Tehsil",
    "state_id": 3176,
    "state_code": "PB",
    "country_id": 167,
    "country_code": "PK",
    "latitude": "33.76671000",
    "longitude": "72.35977000",
    "wikiDataId": null
  },
  {
    "id": 85343,
    "name": "Baddomalhi",
    "state_id": 3176,
    "state_code": "PB",
    "country_id": 167,
    "country_code": "PK",
    "latitude": "31.99042000",
    "longitude": "74.66410000",
    "wikiDataId": null
  },
  {
    "id": 85347,
    "name": "Bahawalnagar",
    "state_id": 3176,
    "state_code": "PB",
    "country_id": 167,
    "country_code": "PK",
    "latitude": "29.99835000",
    "longitude": "73.25272000",
    "wikiDataId": null
  },
  {
    "id": 85348,
    "name": "Bahawalpur",
    "state_id": 3176,
    "state_code": "PB",
    "country_id": 167,
    "country_code": "PK",
    "latitude": "29.39779000",
    "longitude": "71.67520000",
    "wikiDataId": null
  },
  {
    "id": 85349,
    "name": "Bakhri Ahmad Khan",
    "state_id": 3176,
    "state_code": "PB",
    "country_id": 167,
    "country_code": "PK",
    "latitude": "30.73586000",
    "longitude": "70.83796000",
    "wikiDataId": null
  },
  {
    "id": 85354,
    "name": "Basirpur",
    "state_id": 3176,
    "state_code": "PB",
    "country_id": 167,
    "country_code": "PK",
    "latitude": "30.57759000",
    "longitude": "73.83912000",
    "wikiDataId": null
  },
  {
    "id": 85355,
    "name": "Basti Dosa",
    "state_id": 3176,
    "state_code": "PB",
    "country_id": 167,
    "country_code": "PK",
    "latitude": "30.78769000",
    "longitude": "70.86853000",
    "wikiDataId": null
  },
  {
    "id": 85359,
    "name": "Begowala",
    "state_id": 3176,
    "state_code": "PB",
    "country_id": 167,
    "country_code": "PK",
    "latitude": "32.43816000",
    "longitude": "74.26794000",
    "wikiDataId": null
  },
  {
    "id": 85363,
    "name": "Bhakkar",
    "state_id": 3176,
    "state_code": "PB",
    "country_id": 167,
    "country_code": "PK",
    "latitude": "31.62685000",
    "longitude": "71.06471000",
    "wikiDataId": null
  },
  {
    "id": 85364,
    "name": "Bhalwal",
    "state_id": 3176,
    "state_code": "PB",
    "country_id": 167,
    "country_code": "PK",
    "latitude": "32.26576000",
    "longitude": "72.89809000",
    "wikiDataId": null
  },
  {
    "id": 85366,
    "name": "Bhawana",
    "state_id": 3176,
    "state_code": "PB",
    "country_id": 167,
    "country_code": "PK",
    "latitude": "31.56884000",
    "longitude": "72.64917000",
    "wikiDataId": null
  },
  {
    "id": 85367,
    "name": "Bhera",
    "state_id": 3176,
    "state_code": "PB",
    "country_id": 167,
    "country_code": "PK",
    "latitude": "32.48206000",
    "longitude": "72.90865000",
    "wikiDataId": null
  },
  {
    "id": 85371,
    "name": "Bhopalwala",
    "state_id": 3176,
    "state_code": "PB",
    "country_id": 167,
    "country_code": "PK",
    "latitude": "32.42968000",
    "longitude": "74.36350000",
    "wikiDataId": null
  },
  {
    "id": 85376,
    "name": "Burewala",
    "state_id": 3176,
    "state_code": "PB",
    "country_id": 167,
    "country_code": "PK",
    "latitude": "30.16667000",
    "longitude": "72.65000000",
    "wikiDataId": null
  },
  {
    "id": 85378,
    "name": "Chak Azam Saffo",
    "state_id": 3176,
    "state_code": "PB",
    "country_id": 167,
    "country_code": "PK",
    "latitude": "30.75202000",
    "longitude": "73.02834000",
    "wikiDataId": null
  },
  {
    "id": 85380,
    "name": "Chak Jhumra",
    "state_id": 3176,
    "state_code": "PB",
    "country_id": 167,
    "country_code": "PK",
    "latitude": "31.56808000",
    "longitude": "73.18317000",
    "wikiDataId": null
  },
  {
    "id": 85381,
    "name": "Chak One Hundred Twenty Nine Left",
    "state_id": 3176,
    "state_code": "PB",
    "country_id": 167,
    "country_code": "PK",
    "latitude": "30.42919000",
    "longitude": "73.04522000",
    "wikiDataId": null
  },
  {
    "id": 85382,
    "name": "Chak Thirty-one -Eleven Left",
    "state_id": 3176,
    "state_code": "PB",
    "country_id": 167,
    "country_code": "PK",
    "latitude": "30.42388000",
    "longitude": "72.69737000",
    "wikiDataId": null
  },
  {
    "id": 85383,
    "name": "Chak Two Hundred Forty-Nine TDA",
    "state_id": 3176,
    "state_code": "PB",
    "country_id": 167,
    "country_code": "PK",
    "latitude": "31.17772000",
    "longitude": "71.20480000",
    "wikiDataId": null
  },
  {
    "id": 85384,
    "name": "Chakwal",
    "state_id": 3176,
    "state_code": "PB",
    "country_id": 167,
    "country_code": "PK",
    "latitude": "32.93286000",
    "longitude": "72.85394000",
    "wikiDataId": null
  },
  {
    "id": 85388,
    "name": "Chawinda",
    "state_id": 3176,
    "state_code": "PB",
    "country_id": 167,
    "country_code": "PK",
    "latitude": "32.34434000",
    "longitude": "74.70507000",
    "wikiDataId": null
  },
  {
    "id": 85392,
    "name": "Chichawatni",
    "state_id": 3176,
    "state_code": "PB",
    "country_id": 167,
    "country_code": "PK",
    "latitude": "30.53010000",
    "longitude": "72.69155000",
    "wikiDataId": null
  },
  {
    "id": 85393,
    "name": "Chiniot",
    "state_id": 3176,
    "state_code": "PB",
    "country_id": 167,
    "country_code": "PK",
    "latitude": "31.72091000",
    "longitude": "72.97836000",
    "wikiDataId": null
  },
  {
    "id": 85394,
    "name": "Chishtian",
    "state_id": 3176,
    "state_code": "PB",
    "country_id": 167,
    "country_code": "PK",
    "latitude": "29.79713000",
    "longitude": "72.85772000",
    "wikiDataId": null
  },
  {
    "id": 85396,
    "name": "Choa Saidanshah",
    "state_id": 3176,
    "state_code": "PB",
    "country_id": 167,
    "country_code": "PK",
    "latitude": "32.71962000",
    "longitude": "72.98625000",
    "wikiDataId": null
  },
  {
    "id": 143765,
    "name": "Chuhar Kana",
    "state_id": 3176,
    "state_code": "PB",
    "country_id": 167,
    "country_code": "PK",
    "latitude": "31.75000000",
    "longitude": "73.80000000",
    "wikiDataId": null
  },
  {
    "id": 85400,
    "name": "Chunian",
    "state_id": 3176,
    "state_code": "PB",
    "country_id": 167,
    "country_code": "PK",
    "latitude": "30.96621000",
    "longitude": "73.97908000",
    "wikiDataId": null
  },
  {
    "id": 85404,
    "name": "Daira Din Panah",
    "state_id": 3176,
    "state_code": "PB",
    "country_id": 167,
    "country_code": "PK",
    "latitude": "30.57053000",
    "longitude": "70.93722000",
    "wikiDataId": null
  },
  {
    "id": 85405,
    "name": "Dajal",
    "state_id": 3176,
    "state_code": "PB",
    "country_id": 167,
    "country_code": "PK",
    "latitude": "29.55769000",
    "longitude": "70.37614000",
    "wikiDataId": null
  },
  {
    "id": 85407,
    "name": "Dandot RS",
    "state_id": 3176,
    "state_code": "PB",
    "country_id": 167,
    "country_code": "PK",
    "latitude": "32.64167000",
    "longitude": "72.97500000",
    "wikiDataId": null
  },
  {
    "id": 85409,
    "name": "Darya Khan",
    "state_id": 3176,
    "state_code": "PB",
    "country_id": 167,
    "country_code": "PK",
    "latitude": "31.78447000",
    "longitude": "71.10197000",
    "wikiDataId": null
  },
  {
    "id": 85411,
    "name": "Daska",
    "state_id": 3176,
    "state_code": "PB",
    "country_id": 167,
    "country_code": "PK",
    "latitude": "32.32422000",
    "longitude": "74.35039000",
    "wikiDataId": null
  },
  {
    "id": 143767,
    "name": "Daud Khel",
    "state_id": 3176,
    "state_code": "PB",
    "country_id": 167,
    "country_code": "PK",
    "latitude": "32.87498000",
    "longitude": "71.57013000",
    "wikiDataId": null
  },
  {
    "id": 85414,
    "name": "Daultala",
    "state_id": 3176,
    "state_code": "PB",
    "country_id": 167,
    "country_code": "PK",
    "latitude": "33.19282000",
    "longitude": "73.14099000",
    "wikiDataId": null
  },
  {
    "id": 85418,
    "name": "Dera Ghazi Khan",
    "state_id": 3176,
    "state_code": "PB",
    "country_id": 167,
    "country_code": "PK",
    "latitude": "30.04587000",
    "longitude": "70.64029000",
    "wikiDataId": null
  },
  {
    "id": 85421,
    "name": "Dhanot",
    "state_id": 3176,
    "state_code": "PB",
    "country_id": 167,
    "country_code": "PK",
    "latitude": "29.57991000",
    "longitude": "71.75213000",
    "wikiDataId": null
  },
  {
    "id": 85422,
    "name": "Dhaunkal",
    "state_id": 3176,
    "state_code": "PB",
    "country_id": 167,
    "country_code": "PK",
    "latitude": "32.40613000",
    "longitude": "74.13706000",
    "wikiDataId": null
  },
  {
    "id": 143766,
    "name": "Dhok Awan",
    "state_id": 3176,
    "state_code": "PB",
    "country_id": 167,
    "country_code": "PK",
    "latitude": "32.84452000",
    "longitude": "72.52357000",
    "wikiDataId": null
  },
  {
    "id": 85425,
    "name": "Dijkot",
    "state_id": 3176,
    "state_code": "PB",
    "country_id": 167,
    "country_code": "PK",
    "latitude": "31.21735000",
    "longitude": "72.99621000",
    "wikiDataId": null
  },
  {
    "id": 85426,
    "name": "Dinan Bashnoian Wala",
    "state_id": 3176,
    "state_code": "PB",
    "country_id": 167,
    "country_code": "PK",
    "latitude": "29.76584000",
    "longitude": "73.26557000",
    "wikiDataId": null
  },
  {
    "id": 85427,
    "name": "Dinga",
    "state_id": 3176,
    "state_code": "PB",
    "country_id": 167,
    "country_code": "PK",
    "latitude": "32.64101000",
    "longitude": "73.72039000",
    "wikiDataId": null
  },
  {
    "id": 85428,
    "name": "Dipalpur",
    "state_id": 3176,
    "state_code": "PB",
    "country_id": 167,
    "country_code": "PK",
    "latitude": "30.66984000",
    "longitude": "73.65306000",
    "wikiDataId": null
  },
  {
    "id": 85433,
    "name": "Dullewala",
    "state_id": 3176,
    "state_code": "PB",
    "country_id": 167,
    "country_code": "PK",
    "latitude": "31.83439000",
    "longitude": "71.43639000",
    "wikiDataId": null
  },
  {
    "id": 85434,
    "name": "Dunga Bunga",
    "state_id": 3176,
    "state_code": "PB",
    "country_id": 167,
    "country_code": "PK",
    "latitude": "29.74975000",
    "longitude": "73.24294000",
    "wikiDataId": null
  },
  {
    "id": 85435,
    "name": "Dunyapur",
    "state_id": 3176,
    "state_code": "PB",
    "country_id": 167,
    "country_code": "PK",
    "latitude": "29.80275000",
    "longitude": "71.74344000",
    "wikiDataId": null
  },
  {
    "id": 85436,
    "name": "Eminabad",
    "state_id": 3176,
    "state_code": "PB",
    "country_id": 167,
    "country_code": "PK",
    "latitude": "32.04237000",
    "longitude": "74.25996000",
    "wikiDataId": null
  },
  {
    "id": 85437,
    "name": "Faisalabad",
    "state_id": 3176,
    "state_code": "PB",
    "country_id": 167,
    "country_code": "PK",
    "latitude": "31.41554000",
    "longitude": "73.08969000",
    "wikiDataId": null
  },
  {
    "id": 85438,
    "name": "Faqirwali",
    "state_id": 3176,
    "state_code": "PB",
    "country_id": 167,
    "country_code": "PK",
    "latitude": "29.46799000",
    "longitude": "73.03489000",
    "wikiDataId": null
  },
  {
    "id": 85439,
    "name": "Faruka",
    "state_id": 3176,
    "state_code": "PB",
    "country_id": 167,
    "country_code": "PK",
    "latitude": "31.88642000",
    "longitude": "72.41362000",
    "wikiDataId": null
  },
  {
    "id": 85440,
    "name": "Fazilpur",
    "state_id": 3176,
    "state_code": "PB",
    "country_id": 167,
    "country_code": "PK",
    "latitude": "32.17629000",
    "longitude": "75.06583000",
    "wikiDataId": null
  },
  {
    "id": 143768,
    "name": "Ferozewala",
    "state_id": 3176,
    "state_code": "PB",
    "country_id": 167,
    "country_code": "PK",
    "latitude": "29.30000000",
    "longitude": "70.43333333",
    "wikiDataId": null
  },
  {
    "id": 85441,
    "name": "Fort Abbas",
    "state_id": 3176,
    "state_code": "PB",
    "country_id": 167,
    "country_code": "PK",
    "latitude": "29.19344000",
    "longitude": "72.85525000",
    "wikiDataId": null
  },
  {
    "id": 85444,
    "name": "Garh Maharaja",
    "state_id": 3176,
    "state_code": "PB",
    "country_id": 167,
    "country_code": "PK",
    "latitude": "30.83383000",
    "longitude": "71.90491000",
    "wikiDataId": null
  },
  {
    "id": 85451,
    "name": "Gojra",
    "state_id": 3176,
    "state_code": "PB",
    "country_id": 167,
    "country_code": "PK",
    "latitude": "31.14926000",
    "longitude": "72.68323000",
    "wikiDataId": null
  },
  {
    "id": 85455,
    "name": "Gujar Khan",
    "state_id": 3176,
    "state_code": "PB",
    "country_id": 167,
    "country_code": "PK",
    "latitude": "33.25411000",
    "longitude": "73.30433000",
    "wikiDataId": null
  },
  {
    "id": 85456,
    "name": "Gujranwala",
    "state_id": 3176,
    "state_code": "PB",
    "country_id": 167,
    "country_code": "PK",
    "latitude": "32.15567000",
    "longitude": "74.18705000",
    "wikiDataId": null
  },
  {
    "id": 143769,
    "name": "Gujranwala Division",
    "state_id": 3176,
    "state_code": "PB",
    "country_id": 167,
    "country_code": "PK",
    "latitude": "32.45000000",
    "longitude": "74.13333000",
    "wikiDataId": null
  },
  {
    "id": 85457,
    "name": "Gujrat",
    "state_id": 3176,
    "state_code": "PB",
    "country_id": 167,
    "country_code": "PK",
    "latitude": "32.57420000",
    "longitude": "74.07542000",
    "wikiDataId": null
  },
  {
    "id": 85460,
    "name": "Hadali",
    "state_id": 3176,
    "state_code": "PB",
    "country_id": 167,
    "country_code": "PK",
    "latitude": "32.64043000",
    "longitude": "74.56898000",
    "wikiDataId": null
  },
  {
    "id": 85461,
    "name": "Hafizabad",
    "state_id": 3176,
    "state_code": "PB",
    "country_id": 167,
    "country_code": "PK",
    "latitude": "32.07095000",
    "longitude": "73.68802000",
    "wikiDataId": null
  },
  {
    "id": 85466,
    "name": "Harnoli",
    "state_id": 3176,
    "state_code": "PB",
    "country_id": 167,
    "country_code": "PK",
    "latitude": "32.27871000",
    "longitude": "71.55429000",
    "wikiDataId": null
  },
  {
    "id": 85467,
    "name": "Harunabad",
    "state_id": 3176,
    "state_code": "PB",
    "country_id": 167,
    "country_code": "PK",
    "latitude": "29.61206000",
    "longitude": "73.13802000",
    "wikiDataId": null
  },
  {
    "id": 143770,
    "name": "Hasan Abdal",
    "state_id": 3176,
    "state_code": "PB",
    "country_id": 167,
    "country_code": "PK",
    "latitude": "33.81948611",
    "longitude": "72.68902778",
    "wikiDataId": null
  },
  {
    "id": 85468,
    "name": "Hasilpur",
    "state_id": 3176,
    "state_code": "PB",
    "country_id": 167,
    "country_code": "PK",
    "latitude": "29.69221000",
    "longitude": "72.54566000",
    "wikiDataId": null
  },
  {
    "id": 85469,
    "name": "Haveli Lakha",
    "state_id": 3176,
    "state_code": "PB",
    "country_id": 167,
    "country_code": "PK",
    "latitude": "30.45097000",
    "longitude": "73.69371000",
    "wikiDataId": null
  },
  {
    "id": 85471,
    "name": "Hazro",
    "state_id": 3176,
    "state_code": "PB",
    "country_id": 167,
    "country_code": "PK",
    "latitude": "33.90990000",
    "longitude": "72.49179000",
    "wikiDataId": null
  },
  {
    "id": 85473,
    "name": "Hujra Shah Muqeem",
    "state_id": 3176,
    "state_code": "PB",
    "country_id": 167,
    "country_code": "PK",
    "latitude": "30.74168000",
    "longitude": "73.82327000",
    "wikiDataId": null
  },
  {
    "id": 85478,
    "name": "Jahanian Shah",
    "state_id": 3176,
    "state_code": "PB",
    "country_id": 167,
    "country_code": "PK",
    "latitude": "31.80541000",
    "longitude": "72.27740000",
    "wikiDataId": null
  },
  {
    "id": 85479,
    "name": "Jalalpur Jattan",
    "state_id": 3176,
    "state_code": "PB",
    "country_id": 167,
    "country_code": "PK",
    "latitude": "32.64118000",
    "longitude": "74.20561000",
    "wikiDataId": null
  },
  {
    "id": 85480,
    "name": "Jalalpur Pirwala",
    "state_id": 3176,
    "state_code": "PB",
    "country_id": 167,
    "country_code": "PK",
    "latitude": "29.50510000",
    "longitude": "71.22202000",
    "wikiDataId": null
  },
  {
    "id": 85481,
    "name": "Jampur",
    "state_id": 3176,
    "state_code": "PB",
    "country_id": 167,
    "country_code": "PK",
    "latitude": "29.64235000",
    "longitude": "70.59518000",
    "wikiDataId": null
  },
  {
    "id": 85483,
    "name": "Jand",
    "state_id": 3176,
    "state_code": "PB",
    "country_id": 167,
    "country_code": "PK",
    "latitude": "33.43304000",
    "longitude": "72.01877000",
    "wikiDataId": null
  },
  {
    "id": 85484,
    "name": "Jandiala Sher Khan",
    "state_id": 3176,
    "state_code": "PB",
    "country_id": 167,
    "country_code": "PK",
    "latitude": "31.82098000",
    "longitude": "73.91815000",
    "wikiDataId": null
  },
  {
    "id": 85485,
    "name": "Jaranwala",
    "state_id": 3176,
    "state_code": "PB",
    "country_id": 167,
    "country_code": "PK",
    "latitude": "31.33320000",
    "longitude": "73.41868000",
    "wikiDataId": null
  },
  {
    "id": 85487,
    "name": "Jatoi Shimali",
    "state_id": 3176,
    "state_code": "PB",
    "country_id": 167,
    "country_code": "PK",
    "latitude": "29.51827000",
    "longitude": "70.84474000",
    "wikiDataId": null
  },
  {
    "id": 85488,
    "name": "Jauharabad",
    "state_id": 3176,
    "state_code": "PB",
    "country_id": 167,
    "country_code": "PK",
    "latitude": "32.29016000",
    "longitude": "72.28182000",
    "wikiDataId": null
  },
  {
    "id": 85490,
    "name": "Jhang",
    "state_id": 3176,
    "state_code": "PB",
    "country_id": 167,
    "country_code": "PK",
    "latitude": "31.30568000",
    "longitude": "72.32594000",
    "wikiDataId": null
  },
  {
    "id": 85491,
    "name": "Jhang Sadar",
    "state_id": 3176,
    "state_code": "PB",
    "country_id": 167,
    "country_code": "PK",
    "latitude": "31.26981000",
    "longitude": "72.31687000",
    "wikiDataId": null
  },
  {
    "id": 85492,
    "name": "Jhawarian",
    "state_id": 3176,
    "state_code": "PB",
    "country_id": 167,
    "country_code": "PK",
    "latitude": "32.36192000",
    "longitude": "72.62275000",
    "wikiDataId": null
  },
  {
    "id": 85493,
    "name": "Jhelum",
    "state_id": 3176,
    "state_code": "PB",
    "country_id": 167,
    "country_code": "PK",
    "latitude": "32.93448000",
    "longitude": "73.73102000",
    "wikiDataId": null
  },
  {
    "id": 85499,
    "name": "Kabirwala",
    "state_id": 3176,
    "state_code": "PB",
    "country_id": 167,
    "country_code": "PK",
    "latitude": "30.40472000",
    "longitude": "71.86269000",
    "wikiDataId": null
  },
  {
    "id": 85501,
    "name": "Kahna Nau",
    "state_id": 3176,
    "state_code": "PB",
    "country_id": 167,
    "country_code": "PK",
    "latitude": "31.36709000",
    "longitude": "74.36899000",
    "wikiDataId": null
  },
  {
    "id": 85503,
    "name": "Kahuta",
    "state_id": 3176,
    "state_code": "PB",
    "country_id": 167,
    "country_code": "PK",
    "latitude": "33.59183000",
    "longitude": "73.38736000",
    "wikiDataId": null
  },
  {
    "id": 85505,
    "name": "Kalabagh",
    "state_id": 3176,
    "state_code": "PB",
    "country_id": 167,
    "country_code": "PK",
    "latitude": "32.96164000",
    "longitude": "71.54638000",
    "wikiDataId": null
  },
  {
    "id": 85506,
    "name": "Kalaswala",
    "state_id": 3176,
    "state_code": "PB",
    "country_id": 167,
    "country_code": "PK",
    "latitude": "32.20081000",
    "longitude": "74.64858000",
    "wikiDataId": null
  },
  {
    "id": 85508,
    "name": "Kaleke Mandi",
    "state_id": 3176,
    "state_code": "PB",
    "country_id": 167,
    "country_code": "PK",
    "latitude": "31.97597000",
    "longitude": "73.59999000",
    "wikiDataId": null
  },
  {
    "id": 85509,
    "name": "Kallar Kahar",
    "state_id": 3176,
    "state_code": "PB",
    "country_id": 167,
    "country_code": "PK",
    "latitude": "32.77998000",
    "longitude": "72.69793000",
    "wikiDataId": null
  },
  {
    "id": 85510,
    "name": "Kalur Kot",
    "state_id": 3176,
    "state_code": "PB",
    "country_id": 167,
    "country_code": "PK",
    "latitude": "32.15512000",
    "longitude": "71.26631000",
    "wikiDataId": null
  },
  {
    "id": 85512,
    "name": "Kamalia",
    "state_id": 3176,
    "state_code": "PB",
    "country_id": 167,
    "country_code": "PK",
    "latitude": "30.72708000",
    "longitude": "72.64607000",
    "wikiDataId": null
  },
  {
    "id": 85513,
    "name": "Kamar Mushani",
    "state_id": 3176,
    "state_code": "PB",
    "country_id": 167,
    "country_code": "PK",
    "latitude": "32.84318000",
    "longitude": "71.36192000",
    "wikiDataId": null
  },
  {
    "id": 85515,
    "name": "Kamoke",
    "state_id": 3176,
    "state_code": "PB",
    "country_id": 167,
    "country_code": "PK",
    "latitude": "31.97526000",
    "longitude": "74.22304000",
    "wikiDataId": null
  },
  {
    "id": 85516,
    "name": "Kamra",
    "state_id": 3176,
    "state_code": "PB",
    "country_id": 167,
    "country_code": "PK",
    "latitude": "33.74698000",
    "longitude": "73.51229000",
    "wikiDataId": null
  },
  {
    "id": 85520,
    "name": "Kanganpur",
    "state_id": 3176,
    "state_code": "PB",
    "country_id": 167,
    "country_code": "PK",
    "latitude": "30.76468000",
    "longitude": "74.12286000",
    "wikiDataId": null
  },
  {
    "id": 85525,
    "name": "Karor",
    "state_id": 3176,
    "state_code": "PB",
    "country_id": 167,
    "country_code": "PK",
    "latitude": "31.22460000",
    "longitude": "70.95153000",
    "wikiDataId": null
  },
  {
    "id": 85527,
    "name": "Kasur",
    "state_id": 3176,
    "state_code": "PB",
    "country_id": 167,
    "country_code": "PK",
    "latitude": "31.11866000",
    "longitude": "74.45025000",
    "wikiDataId": null
  },
  {
    "id": 85528,
    "name": "Keshupur",
    "state_id": 3176,
    "state_code": "PB",
    "country_id": 167,
    "country_code": "PK",
    "latitude": "32.26000000",
    "longitude": "72.50000000",
    "wikiDataId": null
  },
  {
    "id": 85535,
    "name": "Khairpur Tamiwali",
    "state_id": 3176,
    "state_code": "PB",
    "country_id": 167,
    "country_code": "PK",
    "latitude": "29.58139000",
    "longitude": "72.23804000",
    "wikiDataId": null
  },
  {
    "id": 85537,
    "name": "Khandowa",
    "state_id": 3176,
    "state_code": "PB",
    "country_id": 167,
    "country_code": "PK",
    "latitude": "32.74255000",
    "longitude": "72.73478000",
    "wikiDataId": null
  },
  {
    "id": 85538,
    "name": "Khanewal",
    "state_id": 3176,
    "state_code": "PB",
    "country_id": 167,
    "country_code": "PK",
    "latitude": "30.30173000",
    "longitude": "71.93212000",
    "wikiDataId": null
  },
  {
    "id": 85539,
    "name": "Khanga Dogran",
    "state_id": 3176,
    "state_code": "PB",
    "country_id": 167,
    "country_code": "PK",
    "latitude": "31.83294000",
    "longitude": "73.62213000",
    "wikiDataId": null
  },
  {
    "id": 85540,
    "name": "Khangarh",
    "state_id": 3176,
    "state_code": "PB",
    "country_id": 167,
    "country_code": "PK",
    "latitude": "29.91446000",
    "longitude": "71.16067000",
    "wikiDataId": null
  },
  {
    "id": 85541,
    "name": "Khanpur",
    "state_id": 3176,
    "state_code": "PB",
    "country_id": 167,
    "country_code": "PK",
    "latitude": "28.64739000",
    "longitude": "70.65694000",
    "wikiDataId": null
  },
  {
    "id": 85544,
    "name": "Kharian",
    "state_id": 3176,
    "state_code": "PB",
    "country_id": 167,
    "country_code": "PK",
    "latitude": "32.81612000",
    "longitude": "73.88697000",
    "wikiDataId": null
  },
  {
    "id": 85545,
    "name": "Khewra",
    "state_id": 3176,
    "state_code": "PB",
    "country_id": 167,
    "country_code": "PK",
    "latitude": "32.64910000",
    "longitude": "73.01059000",
    "wikiDataId": null
  },
  {
    "id": 85546,
    "name": "Khurrianwala",
    "state_id": 3176,
    "state_code": "PB",
    "country_id": 167,
    "country_code": "PK",
    "latitude": "31.49936000",
    "longitude": "73.26763000",
    "wikiDataId": null
  },
  {
    "id": 85547,
    "name": "Khushab",
    "state_id": 3176,
    "state_code": "PB",
    "country_id": 167,
    "country_code": "PK",
    "latitude": "32.29667000",
    "longitude": "72.35250000",
    "wikiDataId": null
  },
  {
    "id": 143771,
    "name": "Kohror Pakka",
    "state_id": 3176,
    "state_code": "PB",
    "country_id": 167,
    "country_code": "PK",
    "latitude": "29.62382000",
    "longitude": "71.91673000",
    "wikiDataId": null
  },
  {
    "id": 85553,
    "name": "Kot Addu Tehsil",
    "state_id": 3176,
    "state_code": "PB",
    "country_id": 167,
    "country_code": "PK",
    "latitude": "30.46907000",
    "longitude": "70.96699000",
    "wikiDataId": null
  },
  {
    "id": 85555,
    "name": "Kot Ghulam Muhammad",
    "state_id": 3176,
    "state_code": "PB",
    "country_id": 167,
    "country_code": "PK",
    "latitude": "32.33311000",
    "longitude": "74.54694000",
    "wikiDataId": null
  },
  {
    "id": 85557,
    "name": "Kot Mumin",
    "state_id": 3176,
    "state_code": "PB",
    "country_id": 167,
    "country_code": "PK",
    "latitude": "32.18843000",
    "longitude": "73.02987000",
    "wikiDataId": null
  },
  {
    "id": 85558,
    "name": "Kot Radha Kishan",
    "state_id": 3176,
    "state_code": "PB",
    "country_id": 167,
    "country_code": "PK",
    "latitude": "31.17068000",
    "longitude": "74.10126000",
    "wikiDataId": null
  },
  {
    "id": 85559,
    "name": "Kot Rajkour",
    "state_id": 3176,
    "state_code": "PB",
    "country_id": 167,
    "country_code": "PK",
    "latitude": "32.41208000",
    "longitude": "74.62855000",
    "wikiDataId": null
  },
  {
    "id": 85560,
    "name": "Kot Samaba",
    "state_id": 3176,
    "state_code": "PB",
    "country_id": 167,
    "country_code": "PK",
    "latitude": "28.55207000",
    "longitude": "70.46837000",
    "wikiDataId": null
  },
  {
    "id": 85561,
    "name": "Kot Sultan",
    "state_id": 3176,
    "state_code": "PB",
    "country_id": 167,
    "country_code": "PK",
    "latitude": "30.77370000",
    "longitude": "70.93125000",
    "wikiDataId": null
  },
  {
    "id": 85564,
    "name": "Kotli Loharan",
    "state_id": 3176,
    "state_code": "PB",
    "country_id": 167,
    "country_code": "PK",
    "latitude": "32.58893000",
    "longitude": "74.49466000",
    "wikiDataId": null
  },
  {
    "id": 85567,
    "name": "Kundian",
    "state_id": 3176,
    "state_code": "PB",
    "country_id": 167,
    "country_code": "PK",
    "latitude": "32.45775000",
    "longitude": "71.47892000",
    "wikiDataId": null
  },
  {
    "id": 85568,
    "name": "Kunjah",
    "state_id": 3176,
    "state_code": "PB",
    "country_id": 167,
    "country_code": "PK",
    "latitude": "32.52982000",
    "longitude": "73.97486000",
    "wikiDataId": null
  },
  {
    "id": 85571,
    "name": "Ladhewala Waraich",
    "state_id": 3176,
    "state_code": "PB",
    "country_id": 167,
    "country_code": "PK",
    "latitude": "32.15692000",
    "longitude": "74.11564000",
    "wikiDataId": null
  },
  {
    "id": 85572,
    "name": "Lahore",
    "state_id": 3176,
    "state_code": "PB",
    "country_id": 167,
    "country_code": "PK",
    "latitude": "31.55800000",
    "longitude": "74.35071000",
    "wikiDataId": null
  },
  {
    "id": 85575,
    "name": "Lala Musa",
    "state_id": 3176,
    "state_code": "PB",
    "country_id": 167,
    "country_code": "PK",
    "latitude": "32.70138000",
    "longitude": "73.95746000",
    "wikiDataId": null
  },
  {
    "id": 85576,
    "name": "Lalian",
    "state_id": 3176,
    "state_code": "PB",
    "country_id": 167,
    "country_code": "PK",
    "latitude": "31.82462000",
    "longitude": "72.80116000",
    "wikiDataId": null
  },
  {
    "id": 85580,
    "name": "Layyah",
    "state_id": 3176,
    "state_code": "PB",
    "country_id": 167,
    "country_code": "PK",
    "latitude": "30.96128000",
    "longitude": "70.93904000",
    "wikiDataId": null
  },
  {
    "id": 85581,
    "name": "Layyah District",
    "state_id": 3176,
    "state_code": "PB",
    "country_id": 167,
    "country_code": "PK",
    "latitude": "30.96800000",
    "longitude": "70.94300000",
    "wikiDataId": null
  },
  {
    "id": 85582,
    "name": "Liliani",
    "state_id": 3176,
    "state_code": "PB",
    "country_id": 167,
    "country_code": "PK",
    "latitude": "32.20393000",
    "longitude": "72.95120000",
    "wikiDataId": null
  },
  {
    "id": 85583,
    "name": "Lodhran",
    "state_id": 3176,
    "state_code": "PB",
    "country_id": 167,
    "country_code": "PK",
    "latitude": "29.53390000",
    "longitude": "71.63244000",
    "wikiDataId": null
  },
  {
    "id": 85588,
    "name": "Mailsi",
    "state_id": 3176,
    "state_code": "PB",
    "country_id": 167,
    "country_code": "PK",
    "latitude": "29.80123000",
    "longitude": "72.17398000",
    "wikiDataId": null
  },
  {
    "id": 85589,
    "name": "Malakwal",
    "state_id": 3176,
    "state_code": "PB",
    "country_id": 167,
    "country_code": "PK",
    "latitude": "32.55449000",
    "longitude": "73.21274000",
    "wikiDataId": null
  },
  {
    "id": 85592,
    "name": "Mamu Kanjan",
    "state_id": 3176,
    "state_code": "PB",
    "country_id": 167,
    "country_code": "PK",
    "latitude": "30.83044000",
    "longitude": "72.79943000",
    "wikiDataId": null
  },
  {
    "id": 85593,
    "name": "Mananwala",
    "state_id": 3176,
    "state_code": "PB",
    "country_id": 167,
    "country_code": "PK",
    "latitude": "31.58803000",
    "longitude": "73.68927000",
    "wikiDataId": null
  },
  {
    "id": 85594,
    "name": "Mandi Bahauddin",
    "state_id": 3176,
    "state_code": "PB",
    "country_id": 167,
    "country_code": "PK",
    "latitude": "32.58704000",
    "longitude": "73.49123000",
    "wikiDataId": null
  },
  {
    "id": 143772,
    "name": "Mandi Bahauddin District",
    "state_id": 3176,
    "state_code": "PB",
    "country_id": 167,
    "country_code": "PK",
    "latitude": "32.58333333",
    "longitude": "73.50000000",
    "wikiDataId": null
  },
  {
    "id": 85595,
    "name": "Mangla",
    "state_id": 3176,
    "state_code": "PB",
    "country_id": 167,
    "country_code": "PK",
    "latitude": "31.89306000",
    "longitude": "72.38167000",
    "wikiDataId": null
  },
  {
    "id": 85596,
    "name": "Mankera",
    "state_id": 3176,
    "state_code": "PB",
    "country_id": 167,
    "country_code": "PK",
    "latitude": "31.38771000",
    "longitude": "71.44047000",
    "wikiDataId": null
  },
  {
    "id": 85604,
    "name": "Mehmand Chak",
    "state_id": 3176,
    "state_code": "PB",
    "country_id": 167,
    "country_code": "PK",
    "latitude": "32.78518000",
    "longitude": "73.82306000",
    "wikiDataId": null
  },
  {
    "id": 85606,
    "name": "Mian Channun",
    "state_id": 3176,
    "state_code": "PB",
    "country_id": 167,
    "country_code": "PK",
    "latitude": "30.44067000",
    "longitude": "72.35679000",
    "wikiDataId": null
  },
  {
    "id": 85607,
    "name": "Mianke Mor",
    "state_id": 3176,
    "state_code": "PB",
    "country_id": 167,
    "country_code": "PK",
    "latitude": "31.20240000",
    "longitude": "73.94857000",
    "wikiDataId": null
  },
  {
    "id": 85608,
    "name": "Mianwali",
    "state_id": 3176,
    "state_code": "PB",
    "country_id": 167,
    "country_code": "PK",
    "latitude": "32.57756000",
    "longitude": "71.52847000",
    "wikiDataId": null
  },
  {
    "id": 85609,
    "name": "Minchinabad",
    "state_id": 3176,
    "state_code": "PB",
    "country_id": 167,
    "country_code": "PK",
    "latitude": "30.16356000",
    "longitude": "73.56858000",
    "wikiDataId": null
  },
  {
    "id": 85619,
    "name": "Mitha Tiwana",
    "state_id": 3176,
    "state_code": "PB",
    "country_id": 167,
    "country_code": "PK",
    "latitude": "32.24540000",
    "longitude": "72.10615000",
    "wikiDataId": null
  },
  {
    "id": 85622,
    "name": "Moza Shahwala",
    "state_id": 3176,
    "state_code": "PB",
    "country_id": 167,
    "country_code": "PK",
    "latitude": "30.80563000",
    "longitude": "70.84911000",
    "wikiDataId": null
  },
  {
    "id": 85623,
    "name": "Multan",
    "state_id": 3176,
    "state_code": "PB",
    "country_id": 167,
    "country_code": "PK",
    "latitude": "30.19679000",
    "longitude": "71.47824000",
    "wikiDataId": null
  },
  {
    "id": 143773,
    "name": "Multan District",
    "state_id": 3176,
    "state_code": "PB",
    "country_id": 167,
    "country_code": "PK",
    "latitude": "30.08333333",
    "longitude": "71.66666667",
    "wikiDataId": null
  },
  {
    "id": 85624,
    "name": "Muridke",
    "state_id": 3176,
    "state_code": "PB",
    "country_id": 167,
    "country_code": "PK",
    "latitude": "31.80258000",
    "longitude": "74.25772000",
    "wikiDataId": null
  },
  {
    "id": 85625,
    "name": "Murree",
    "state_id": 3176,
    "state_code": "PB",
    "country_id": 167,
    "country_code": "PK",
    "latitude": "33.90836000",
    "longitude": "73.39030000",
    "wikiDataId": null
  },
  {
    "id": 85626,
    "name": "Mustafabad",
    "state_id": 3176,
    "state_code": "PB",
    "country_id": 167,
    "country_code": "PK",
    "latitude": "30.89222000",
    "longitude": "73.49889000",
    "wikiDataId": null
  },
  {
    "id": 85627,
    "name": "Muzaffargarh",
    "state_id": 3176,
    "state_code": "PB",
    "country_id": 167,
    "country_code": "PK",
    "latitude": "30.07258000",
    "longitude": "71.19379000",
    "wikiDataId": null
  },
  {
    "id": 85631,
    "name": "Nankana Sahib",
    "state_id": 3176,
    "state_code": "PB",
    "country_id": 167,
    "country_code": "PK",
    "latitude": "31.45010000",
    "longitude": "73.70653000",
    "wikiDataId": null
  },
  {
    "id": 85632,
    "name": "Narang Mandi",
    "state_id": 3176,
    "state_code": "PB",
    "country_id": 167,
    "country_code": "PK",
    "latitude": "31.90376000",
    "longitude": "74.51587000",
    "wikiDataId": null
  },
  {
    "id": 85633,
    "name": "Narowal",
    "state_id": 3176,
    "state_code": "PB",
    "country_id": 167,
    "country_code": "PK",
    "latitude": "32.10197000",
    "longitude": "74.87303000",
    "wikiDataId": null
  },
  {
    "id": 85638,
    "name": "Naushahra Virkan",
    "state_id": 3176,
    "state_code": "PB",
    "country_id": 167,
    "country_code": "PK",
    "latitude": "31.96258000",
    "longitude": "73.97117000",
    "wikiDataId": null
  },
  {
    "id": 85641,
    "name": "Nazir Town",
    "state_id": 3176,
    "state_code": "PB",
    "country_id": 167,
    "country_code": "PK",
    "latitude": "33.30614000",
    "longitude": "73.48330000",
    "wikiDataId": null
  },
  {
    "id": 85650,
    "name": "Okara",
    "state_id": 3176,
    "state_code": "PB",
    "country_id": 167,
    "country_code": "PK",
    "latitude": "30.81029000",
    "longitude": "73.45155000",
    "wikiDataId": null
  },
  {
    "id": 143774,
    "name": "Pakki Shagwanwali",
    "state_id": 3176,
    "state_code": "PB",
    "country_id": 167,
    "country_code": "PK",
    "latitude": "30.79033000",
    "longitude": "70.87139000",
    "wikiDataId": null
  },
  {
    "id": 85655,
    "name": "Pakpattan",
    "state_id": 3176,
    "state_code": "PB",
    "country_id": 167,
    "country_code": "PK",
    "latitude": "30.34314000",
    "longitude": "73.38944000",
    "wikiDataId": null
  },
  {
    "id": 85659,
    "name": "Pasrur",
    "state_id": 3176,
    "state_code": "PB",
    "country_id": 167,
    "country_code": "PK",
    "latitude": "32.26286000",
    "longitude": "74.66327000",
    "wikiDataId": null
  },
  {
    "id": 85660,
    "name": "Pattoki",
    "state_id": 3176,
    "state_code": "PB",
    "country_id": 167,
    "country_code": "PK",
    "latitude": "31.02021000",
    "longitude": "73.85333000",
    "wikiDataId": null
  },
  {
    "id": 85662,
    "name": "Phalia",
    "state_id": 3176,
    "state_code": "PB",
    "country_id": 167,
    "country_code": "PK",
    "latitude": "32.43104000",
    "longitude": "73.57900000",
    "wikiDataId": null
  },
  {
    "id": 85663,
    "name": "Pind Dadan Khan",
    "state_id": 3176,
    "state_code": "PB",
    "country_id": 167,
    "country_code": "PK",
    "latitude": "32.58662000",
    "longitude": "73.04456000",
    "wikiDataId": null
  },
  {
    "id": 85664,
    "name": "Pindi Bhattian",
    "state_id": 3176,
    "state_code": "PB",
    "country_id": 167,
    "country_code": "PK",
    "latitude": "31.89844000",
    "longitude": "73.27339000",
    "wikiDataId": null
  },
  {
    "id": 85665,
    "name": "Pindi Gheb",
    "state_id": 3176,
    "state_code": "PB",
    "country_id": 167,
    "country_code": "PK",
    "latitude": "33.24095000",
    "longitude": "72.26480000",
    "wikiDataId": null
  },
  {
    "id": 85667,
    "name": "Pir Mahal",
    "state_id": 3176,
    "state_code": "PB",
    "country_id": 167,
    "country_code": "PK",
    "latitude": "30.76663000",
    "longitude": "72.43455000",
    "wikiDataId": null
  },
  {
    "id": 85670,
    "name": "Qadirpur Ran",
    "state_id": 3176,
    "state_code": "PB",
    "country_id": 167,
    "country_code": "PK",
    "latitude": "30.29184000",
    "longitude": "71.67164000",
    "wikiDataId": null
  },
  {
    "id": 143775,
    "name": "Qila Didar Singh",
    "state_id": 3176,
    "state_code": "PB",
    "country_id": 167,
    "country_code": "PK",
    "latitude": "32.80000000",
    "longitude": "74.10000000",
    "wikiDataId": null
  },
  {
    "id": 85389,
    "name": "Rabwah",
    "state_id": 3176,
    "state_code": "PB",
    "country_id": 167,
    "country_code": "PK",
    "latitude": "31.75511000",
    "longitude": "72.91403000",
    "wikiDataId": null
  },
  {
    "id": 85674,
    "name": "Rahim Yar Khan",
    "state_id": 3176,
    "state_code": "PB",
    "country_id": 167,
    "country_code": "PK",
    "latitude": "28.41987000",
    "longitude": "70.30345000",
    "wikiDataId": null
  },
  {
    "id": 143776,
    "name": "Rahimyar Khan District",
    "state_id": 3176,
    "state_code": "PB",
    "country_id": 167,
    "country_code": "PK",
    "latitude": "28.46020000",
    "longitude": "70.52837000",
    "wikiDataId": null
  },
  {
    "id": 85675,
    "name": "Raiwind",
    "state_id": 3176,
    "state_code": "PB",
    "country_id": 167,
    "country_code": "PK",
    "latitude": "31.24895000",
    "longitude": "74.21534000",
    "wikiDataId": null
  },
  {
    "id": 85676,
    "name": "Raja Jang",
    "state_id": 3176,
    "state_code": "PB",
    "country_id": 167,
    "country_code": "PK",
    "latitude": "31.22078000",
    "longitude": "74.25483000",
    "wikiDataId": null
  },
  {
    "id": 85677,
    "name": "Rajanpur",
    "state_id": 3176,
    "state_code": "PB",
    "country_id": 167,
    "country_code": "PK",
    "latitude": "29.10408000",
    "longitude": "70.32969000",
    "wikiDataId": null
  },
  {
    "id": 85680,
    "name": "Rasulnagar",
    "state_id": 3176,
    "state_code": "PB",
    "country_id": 167,
    "country_code": "PK",
    "latitude": "32.32794000",
    "longitude": "73.78040000",
    "wikiDataId": null
  },
  {
    "id": 85683,
    "name": "Rawalpindi",
    "state_id": 3176,
    "state_code": "PB",
    "country_id": 167,
    "country_code": "PK",
    "latitude": "33.59733000",
    "longitude": "73.04790000",
    "wikiDataId": null
  },
  {
    "id": 85684,
    "name": "Rawalpindi District",
    "state_id": 3176,
    "state_code": "PB",
    "country_id": 167,
    "country_code": "PK",
    "latitude": "33.42987000",
    "longitude": "73.23092000",
    "wikiDataId": null
  },
  {
    "id": 85685,
    "name": "Renala Khurd",
    "state_id": 3176,
    "state_code": "PB",
    "country_id": 167,
    "country_code": "PK",
    "latitude": "30.87878000",
    "longitude": "73.59857000",
    "wikiDataId": null
  },
  {
    "id": 85688,
    "name": "Rojhan",
    "state_id": 3176,
    "state_code": "PB",
    "country_id": 167,
    "country_code": "PK",
    "latitude": "28.68735000",
    "longitude": "69.95350000",
    "wikiDataId": null
  },
  {
    "id": 85690,
    "name": "Sadiqabad",
    "state_id": 3176,
    "state_code": "PB",
    "country_id": 167,
    "country_code": "PK",
    "latitude": "28.30910000",
    "longitude": "70.12652000",
    "wikiDataId": null
  },
  {
    "id": 85691,
    "name": "Sahiwal",
    "state_id": 3176,
    "state_code": "PB",
    "country_id": 167,
    "country_code": "PK",
    "latitude": "30.66595000",
    "longitude": "73.10186000",
    "wikiDataId": null
  },
  {
    "id": 85694,
    "name": "Sambrial",
    "state_id": 3176,
    "state_code": "PB",
    "country_id": 167,
    "country_code": "PK",
    "latitude": "32.47835000",
    "longitude": "74.35338000",
    "wikiDataId": null
  },
  {
    "id": 85696,
    "name": "Sangla Hill",
    "state_id": 3176,
    "state_code": "PB",
    "country_id": 167,
    "country_code": "PK",
    "latitude": "31.71667000",
    "longitude": "73.38333000",
    "wikiDataId": null
  },
  {
    "id": 85697,
    "name": "Sanjwal",
    "state_id": 3176,
    "state_code": "PB",
    "country_id": 167,
    "country_code": "PK",
    "latitude": "33.76105000",
    "longitude": "72.43315000",
    "wikiDataId": null
  },
  {
    "id": 85699,
    "name": "Sarai Alamgir",
    "state_id": 3176,
    "state_code": "PB",
    "country_id": 167,
    "country_code": "PK",
    "latitude": "32.90495000",
    "longitude": "73.75518000",
    "wikiDataId": null
  },
  {
    "id": 85701,
    "name": "Sarai Sidhu",
    "state_id": 3176,
    "state_code": "PB",
    "country_id": 167,
    "country_code": "PK",
    "latitude": "30.59476000",
    "longitude": "71.96990000",
    "wikiDataId": null
  },
  {
    "id": 85702,
    "name": "Sargodha",
    "state_id": 3176,
    "state_code": "PB",
    "country_id": 167,
    "country_code": "PK",
    "latitude": "32.08586000",
    "longitude": "72.67418000",
    "wikiDataId": null
  },
  {
    "id": 143777,
    "name": "Shahkot Tehsil",
    "state_id": 3176,
    "state_code": "PB",
    "country_id": 167,
    "country_code": "PK",
    "latitude": "31.56166667",
    "longitude": "73.48750000",
    "wikiDataId": null
  },
  {
    "id": 85709,
    "name": "Shahpur",
    "state_id": 3176,
    "state_code": "PB",
    "country_id": 167,
    "country_code": "PK",
    "latitude": "32.26820000",
    "longitude": "72.46884000",
    "wikiDataId": null
  },
  {
    "id": 85711,
    "name": "Shahr Sultan",
    "state_id": 3176,
    "state_code": "PB",
    "country_id": 167,
    "country_code": "PK",
    "latitude": "29.57517000",
    "longitude": "71.02209000",
    "wikiDataId": null
  },
  {
    "id": 85712,
    "name": "Shakargarh",
    "state_id": 3176,
    "state_code": "PB",
    "country_id": 167,
    "country_code": "PK",
    "latitude": "32.26361000",
    "longitude": "75.16008000",
    "wikiDataId": null
  },
  {
    "id": 85713,
    "name": "Sharqpur",
    "state_id": 3176,
    "state_code": "PB",
    "country_id": 167,
    "country_code": "PK",
    "latitude": "31.46116000",
    "longitude": "74.10091000",
    "wikiDataId": null
  },
  {
    "id": 85714,
    "name": "Sheikhupura",
    "state_id": 3176,
    "state_code": "PB",
    "country_id": 167,
    "country_code": "PK",
    "latitude": "31.71287000",
    "longitude": "73.98556000",
    "wikiDataId": null
  },
  {
    "id": 85708,
    "name": "Shorkot",
    "state_id": 3176,
    "state_code": "PB",
    "country_id": 167,
    "country_code": "PK",
    "latitude": "30.50000000",
    "longitude": "72.40000000",
    "wikiDataId": null
  },
  {
    "id": 85719,
    "name": "Shujaabad",
    "state_id": 3176,
    "state_code": "PB",
    "country_id": 167,
    "country_code": "PK",
    "latitude": "29.88092000",
    "longitude": "71.29344000",
    "wikiDataId": null
  },
  {
    "id": 85720,
    "name": "Sialkot",
    "state_id": 3176,
    "state_code": "PB",
    "country_id": 167,
    "country_code": "PK",
    "latitude": "32.49268000",
    "longitude": "74.53134000",
    "wikiDataId": null
  },
  {
    "id": 85722,
    "name": "Sillanwali",
    "state_id": 3176,
    "state_code": "PB",
    "country_id": 167,
    "country_code": "PK",
    "latitude": "31.82539000",
    "longitude": "72.54064000",
    "wikiDataId": null
  },
  {
    "id": 85726,
    "name": "Sodhra",
    "state_id": 3176,
    "state_code": "PB",
    "country_id": 167,
    "country_code": "PK",
    "latitude": "32.46211000",
    "longitude": "74.18207000",
    "wikiDataId": null
  },
  {
    "id": 85729,
    "name": "Sukheke Mandi",
    "state_id": 3176,
    "state_code": "PB",
    "country_id": 167,
    "country_code": "PK",
    "latitude": "31.86541000",
    "longitude": "73.50875000",
    "wikiDataId": null
  },
  {
    "id": 85732,
    "name": "Surkhpur",
    "state_id": 3176,
    "state_code": "PB",
    "country_id": 167,
    "country_code": "PK",
    "latitude": "32.71816000",
    "longitude": "74.44773000",
    "wikiDataId": null
  },
  {
    "id": 85735,
    "name": "Talagang",
    "state_id": 3176,
    "state_code": "PB",
    "country_id": 167,
    "country_code": "PK",
    "latitude": "32.92766000",
    "longitude": "72.41594000",
    "wikiDataId": null
  },
  {
    "id": 85736,
    "name": "Talamba",
    "state_id": 3176,
    "state_code": "PB",
    "country_id": 167,
    "country_code": "PK",
    "latitude": "30.52693000",
    "longitude": "72.24079000",
    "wikiDataId": null
  },
  {
    "id": 85738,
    "name": "Tandlianwala",
    "state_id": 3176,
    "state_code": "PB",
    "country_id": 167,
    "country_code": "PK",
    "latitude": "31.03359000",
    "longitude": "73.13268000",
    "wikiDataId": null
  },
  {
    "id": 85748,
    "name": "Taunsa",
    "state_id": 3176,
    "state_code": "PB",
    "country_id": 167,
    "country_code": "PK",
    "latitude": "30.70358000",
    "longitude": "70.65054000",
    "wikiDataId": null
  },
  {
    "id": 85753,
    "name": "Toba Tek Singh",
    "state_id": 3176,
    "state_code": "PB",
    "country_id": 167,
    "country_code": "PK",
    "latitude": "30.97127000",
    "longitude": "72.48275000",
    "wikiDataId": null
  },
  {
    "id": 143778,
    "name": "Umerkot",
    "state_id": 3176,
    "state_code": "PB",
    "country_id": 167,
    "country_code": "PK",
    "latitude": "25.36138889",
    "longitude": "69.73611111",
    "wikiDataId": null
  },
  {
    "id": 85763,
    "name": "Vihari",
    "state_id": 3176,
    "state_code": "PB",
    "country_id": 167,
    "country_code": "PK",
    "latitude": "30.04450000",
    "longitude": "72.35560000",
    "wikiDataId": null
  },
  {
    "id": 143779,
    "name": "Wah",
    "state_id": 3176,
    "state_code": "PB",
    "country_id": 167,
    "country_code": "PK",
    "latitude": "33.81000000",
    "longitude": "72.70972222",
    "wikiDataId": null
  },
  {
    "id": 143780,
    "name": "Warburton",
    "state_id": 3176,
    "state_code": "PB",
    "country_id": 167,
    "country_code": "PK",
    "latitude": "31.55000000",
    "longitude": "73.83330000",
    "wikiDataId": null
  },
  {
    "id": 85766,
    "name": "Wazirabad",
    "state_id": 3176,
    "state_code": "PB",
    "country_id": 167,
    "country_code": "PK",
    "latitude": "32.44324000",
    "longitude": "74.12000000",
    "wikiDataId": null
  },
  {
    "id": 143781,
    "name": "West Punjab",
    "state_id": 3176,
    "state_code": "PB",
    "country_id": 167,
    "country_code": "PK",
    "latitude": "31.00000000",
    "longitude": "72.00000000",
    "wikiDataId": null
  },
  {
    "id": 85767,
    "name": "Yazman",
    "state_id": 3176,
    "state_code": "PB",
    "country_id": 167,
    "country_code": "PK",
    "latitude": "29.12122000",
    "longitude": "71.74459000",
    "wikiDataId": null
  },
  {
    "id": 85768,
    "name": "Zafarwal",
    "state_id": 3176,
    "state_code": "PB",
    "country_id": 167,
    "country_code": "PK",
    "latitude": "32.34464000",
    "longitude": "74.89990000",
    "wikiDataId": null
  },
  {
    "id": 85769,
    "name": "Zahir Pir",
    "state_id": 3176,
    "state_code": "PB",
    "country_id": 167,
    "country_code": "PK",
    "latitude": "28.81284000",
    "longitude": "70.52341000",
    "wikiDataId": null
  }
]