[
  {
    "id": 48179,
    "name": "Abernethy",
    "state_id": 2479,
    "state_code": "FIF",
    "country_id": 232,
    "country_code": "GB",
    "latitude": "56.33247000",
    "longitude": "-3.31226000",
    "wikiDataId": null
  },
  {
    "id": 48258,
    "name": "Anstruther",
    "state_id": 2479,
    "state_code": "FIF",
    "country_id": 232,
    "country_code": "GB",
    "latitude": "56.22315000",
    "longitude": "-2.70229000",
    "wikiDataId": null
  },
  {
    "id": 48314,
    "name": "Auchtermuchty",
    "state_id": 2479,
    "state_code": "FIF",
    "country_id": 232,
    "country_code": "GB",
    "latitude": "56.29158000",
    "longitude": "-3.23428000",
    "wikiDataId": null
  },
  {
    "id": 48361,
    "name": "Balmullo",
    "state_id": 2479,
    "state_code": "FIF",
    "country_id": 232,
    "country_code": "GB",
    "latitude": "56.37694000",
    "longitude": "-2.92940000",
    "wikiDataId": null
  },
  {
    "id": 48681,
    "name": "Bridge of Earn",
    "state_id": 2479,
    "state_code": "FIF",
    "country_id": 232,
    "country_code": "GB",
    "latitude": "56.34842000",
    "longitude": "-3.40650000",
    "wikiDataId": null
  },
  {
    "id": 48745,
    "name": "Buckhaven",
    "state_id": 2479,
    "state_code": "FIF",
    "country_id": 232,
    "country_code": "GB",
    "latitude": "56.17149000",
    "longitude": "-3.03377000",
    "wikiDataId": null
  },
  {
    "id": 49046,
    "name": "Coaltown of Balgonie",
    "state_id": 2479,
    "state_code": "FIF",
    "country_id": 232,
    "country_code": "GB",
    "latitude": "56.18474000",
    "longitude": "-3.12578000",
    "wikiDataId": null
  },
  {
    "id": 49140,
    "name": "Crail",
    "state_id": 2479,
    "state_code": "FIF",
    "country_id": 232,
    "country_code": "GB",
    "latitude": "56.26042000",
    "longitude": "-2.62676000",
    "wikiDataId": null
  },
  {
    "id": 49209,
    "name": "Cupar",
    "state_id": 2479,
    "state_code": "FIF",
    "country_id": 232,
    "country_code": "GB",
    "latitude": "56.31876000",
    "longitude": "-3.01204000",
    "wikiDataId": null
  },
  {
    "id": 49413,
    "name": "East Wemyss",
    "state_id": 2479,
    "state_code": "FIF",
    "country_id": 232,
    "country_code": "GB",
    "latitude": "56.16018000",
    "longitude": "-3.06422000",
    "wikiDataId": null
  },
  {
    "id": 49482,
    "name": "Errol",
    "state_id": 2479,
    "state_code": "FIF",
    "country_id": 232,
    "country_code": "GB",
    "latitude": "56.39234000",
    "longitude": "-3.21275000",
    "wikiDataId": null
  },
  {
    "id": 49522,
    "name": "Falkland",
    "state_id": 2479,
    "state_code": "FIF",
    "country_id": 232,
    "country_code": "GB",
    "latitude": "56.25255000",
    "longitude": "-3.20389000",
    "wikiDataId": null
  },
  {
    "id": 49552,
    "name": "Fife",
    "state_id": 2479,
    "state_code": "FIF",
    "country_id": 232,
    "country_code": "GB",
    "latitude": "56.25000000",
    "longitude": "-3.16667000",
    "wikiDataId": null
  },
  {
    "id": 49607,
    "name": "Freuchie",
    "state_id": 2479,
    "state_code": "FIF",
    "country_id": 232,
    "country_code": "GB",
    "latitude": "56.24688000",
    "longitude": "-3.15861000",
    "wikiDataId": null
  },
  {
    "id": 49660,
    "name": "Glenrothes",
    "state_id": 2479,
    "state_code": "FIF",
    "country_id": 232,
    "country_code": "GB",
    "latitude": "56.19514000",
    "longitude": "-3.17316000",
    "wikiDataId": null
  },
  {
    "id": 50121,
    "name": "Kennoway",
    "state_id": 2479,
    "state_code": "FIF",
    "country_id": 232,
    "country_code": "GB",
    "latitude": "56.21081000",
    "longitude": "-3.04917000",
    "wikiDataId": null
  },
  {
    "id": 50164,
    "name": "Kinglassie",
    "state_id": 2479,
    "state_code": "FIF",
    "country_id": 232,
    "country_code": "GB",
    "latitude": "56.17371000",
    "longitude": "-3.24241000",
    "wikiDataId": null
  },
  {
    "id": 50173,
    "name": "Kingskettle",
    "state_id": 2479,
    "state_code": "FIF",
    "country_id": 232,
    "country_code": "GB",
    "latitude": "56.26215000",
    "longitude": "-3.11693000",
    "wikiDataId": null
  },
  {
    "id": 50226,
    "name": "Ladybank",
    "state_id": 2479,
    "state_code": "FIF",
    "country_id": 232,
    "country_code": "GB",
    "latitude": "56.27421000",
    "longitude": "-3.12390000",
    "wikiDataId": null
  },
  {
    "id": 50285,
    "name": "Leslie",
    "state_id": 2479,
    "state_code": "FIF",
    "country_id": 232,
    "country_code": "GB",
    "latitude": "56.20000000",
    "longitude": "-3.21667000",
    "wikiDataId": null
  },
  {
    "id": 50291,
    "name": "Leuchars",
    "state_id": 2479,
    "state_code": "FIF",
    "country_id": 232,
    "country_code": "GB",
    "latitude": "56.38174000",
    "longitude": "-2.88253000",
    "wikiDataId": null
  },
  {
    "id": 50292,
    "name": "Leven",
    "state_id": 2479,
    "state_code": "FIF",
    "country_id": 232,
    "country_code": "GB",
    "latitude": "56.20000000",
    "longitude": "-3.00000000",
    "wikiDataId": null
  },
  {
    "id": 50438,
    "name": "Lundin Links",
    "state_id": 2479,
    "state_code": "FIF",
    "country_id": 232,
    "country_code": "GB",
    "latitude": "56.21240000",
    "longitude": "-2.95296000",
    "wikiDataId": null
  },
  {
    "id": 50507,
    "name": "Markinch",
    "state_id": 2479,
    "state_code": "FIF",
    "country_id": 232,
    "country_code": "GB",
    "latitude": "56.20214000",
    "longitude": "-3.13517000",
    "wikiDataId": null
  },
  {
    "id": 50558,
    "name": "Methil",
    "state_id": 2479,
    "state_code": "FIF",
    "country_id": 232,
    "country_code": "GB",
    "latitude": "56.18543000",
    "longitude": "-3.02157000",
    "wikiDataId": null
  },
  {
    "id": 50704,
    "name": "Newburgh",
    "state_id": 2479,
    "state_code": "FIF",
    "country_id": 232,
    "country_code": "GB",
    "latitude": "56.35079000",
    "longitude": "-3.23650000",
    "wikiDataId": null
  },
  {
    "id": 50921,
    "name": "Pittenweem",
    "state_id": 2479,
    "state_code": "FIF",
    "country_id": 232,
    "country_code": "GB",
    "latitude": "56.21406000",
    "longitude": "-2.72839000",
    "wikiDataId": null
  },
  {
    "id": 51163,
    "name": "Saint Andrews",
    "state_id": 2479,
    "state_code": "FIF",
    "country_id": 232,
    "country_code": "GB",
    "latitude": "56.33871000",
    "longitude": "-2.79902000",
    "wikiDataId": null
  },
  {
    "id": 51173,
    "name": "Saint Monans",
    "state_id": 2479,
    "state_code": "FIF",
    "country_id": 232,
    "country_code": "GB",
    "latitude": "56.20651000",
    "longitude": "-2.76821000",
    "wikiDataId": null
  },
  {
    "id": 51603,
    "name": "Thornton",
    "state_id": 2479,
    "state_code": "FIF",
    "country_id": 232,
    "country_code": "GB",
    "latitude": "56.16667000",
    "longitude": "-3.15000000",
    "wikiDataId": null
  },
  {
    "id": 51926,
    "name": "Windygates",
    "state_id": 2479,
    "state_code": "FIF",
    "country_id": 232,
    "country_code": "GB",
    "latitude": "56.19546000",
    "longitude": "-3.05274000",
    "wikiDataId": null
  }
]