[
  {
    "id": 66576,
    "name": "Akademija (Kaunas)",
    "state_id": 1580,
    "state_code": "15",
    "country_id": 126,
    "country_code": "LT",
    "latitude": "54.89640000",
    "longitude": "23.82411000",
    "wikiDataId": null
  },
  {
    "id": 66579,
    "name": "Aleksotas",
    "state_id": 1580,
    "state_code": "15",
    "country_id": 126,
    "country_code": "LT",
    "latitude": "54.88037000",
    "longitude": "23.90842000",
    "wikiDataId": null
  },
  {
    "id": 66584,
    "name": "Ariogala",
    "state_id": 1580,
    "state_code": "15",
    "country_id": 126,
    "country_code": "LT",
    "latitude": "55.26200000",
    "longitude": "23.47700000",
    "wikiDataId": null
  },
  {
    "id": 66588,
    "name": "Birštonas",
    "state_id": 1580,
    "state_code": "15",
    "country_id": 126,
    "country_code": "LT",
    "latitude": "54.61667000",
    "longitude": "24.03333000",
    "wikiDataId": null
  },
  {
    "id": 66591,
    "name": "Dainava (Kaunas)",
    "state_id": 1580,
    "state_code": "15",
    "country_id": 126,
    "country_code": "LT",
    "latitude": "54.91525000",
    "longitude": "23.96831000",
    "wikiDataId": null
  },
  {
    "id": 66595,
    "name": "Eiguliai",
    "state_id": 1580,
    "state_code": "15",
    "country_id": 126,
    "country_code": "LT",
    "latitude": "54.93133000",
    "longitude": "23.93243000",
    "wikiDataId": null
  },
  {
    "id": 66598,
    "name": "Ežerėlis",
    "state_id": 1580,
    "state_code": "15",
    "country_id": 126,
    "country_code": "LT",
    "latitude": "54.88315000",
    "longitude": "23.60396000",
    "wikiDataId": null
  },
  {
    "id": 66601,
    "name": "Garliava",
    "state_id": 1580,
    "state_code": "15",
    "country_id": 126,
    "country_code": "LT",
    "latitude": "54.82139000",
    "longitude": "23.87130000",
    "wikiDataId": null
  },
  {
    "id": 66605,
    "name": "Jieznas",
    "state_id": 1580,
    "state_code": "15",
    "country_id": 126,
    "country_code": "LT",
    "latitude": "54.59937000",
    "longitude": "24.17593000",
    "wikiDataId": null
  },
  {
    "id": 66606,
    "name": "Jonava",
    "state_id": 1580,
    "state_code": "15",
    "country_id": 126,
    "country_code": "LT",
    "latitude": "55.08333000",
    "longitude": "24.28333000",
    "wikiDataId": null
  },
  {
    "id": 66611,
    "name": "Kaišiadorys",
    "state_id": 1580,
    "state_code": "15",
    "country_id": 126,
    "country_code": "LT",
    "latitude": "54.86667000",
    "longitude": "24.45000000",
    "wikiDataId": null
  },
  {
    "id": 66614,
    "name": "Karmėlava",
    "state_id": 1580,
    "state_code": "15",
    "country_id": 126,
    "country_code": "LT",
    "latitude": "54.97055000",
    "longitude": "24.06182000",
    "wikiDataId": null
  },
  {
    "id": 66615,
    "name": "Kaunas",
    "state_id": 1580,
    "state_code": "15",
    "country_id": 126,
    "country_code": "LT",
    "latitude": "54.90272000",
    "longitude": "23.90961000",
    "wikiDataId": null
  },
  {
    "id": 66629,
    "name": "Kėdainiai",
    "state_id": 1580,
    "state_code": "15",
    "country_id": 126,
    "country_code": "LT",
    "latitude": "55.28333000",
    "longitude": "23.96667000",
    "wikiDataId": null
  },
  {
    "id": 66624,
    "name": "Kulautuva",
    "state_id": 1580,
    "state_code": "15",
    "country_id": 126,
    "country_code": "LT",
    "latitude": "54.94212000",
    "longitude": "23.64218000",
    "wikiDataId": null
  },
  {
    "id": 66636,
    "name": "Mastaiciai",
    "state_id": 1580,
    "state_code": "15",
    "country_id": 126,
    "country_code": "LT",
    "latitude": "54.81998000",
    "longitude": "23.84462000",
    "wikiDataId": null
  },
  {
    "id": 66661,
    "name": "Prienai",
    "state_id": 1580,
    "state_code": "15",
    "country_id": 126,
    "country_code": "LT",
    "latitude": "54.63333000",
    "longitude": "23.95000000",
    "wikiDataId": null
  },
  {
    "id": 66664,
    "name": "Ramučiai",
    "state_id": 1580,
    "state_code": "15",
    "country_id": 126,
    "country_code": "LT",
    "latitude": "54.94830000",
    "longitude": "24.03050000",
    "wikiDataId": null
  },
  {
    "id": 66666,
    "name": "Raseiniai",
    "state_id": 1580,
    "state_code": "15",
    "country_id": 126,
    "country_code": "LT",
    "latitude": "55.36667000",
    "longitude": "23.11667000",
    "wikiDataId": null
  },
  {
    "id": 66674,
    "name": "Sargėnai",
    "state_id": 1580,
    "state_code": "15",
    "country_id": 126,
    "country_code": "LT",
    "latitude": "54.94933000",
    "longitude": "23.88316000",
    "wikiDataId": null
  },
  {
    "id": 66714,
    "name": "Šilainiai",
    "state_id": 1580,
    "state_code": "15",
    "country_id": 126,
    "country_code": "LT",
    "latitude": "54.92911000",
    "longitude": "23.88599000",
    "wikiDataId": null
  },
  {
    "id": 66701,
    "name": "Vilkija",
    "state_id": 1580,
    "state_code": "15",
    "country_id": 126,
    "country_code": "LT",
    "latitude": "55.04609000",
    "longitude": "23.58552000",
    "wikiDataId": null
  },
  {
    "id": 66723,
    "name": "Žiežmariai",
    "state_id": 1580,
    "state_code": "15",
    "country_id": 126,
    "country_code": "LT",
    "latitude": "54.80725000",
    "longitude": "24.44073000",
    "wikiDataId": null
  }
]