[
  {
    "id": 48568,
    "name": "Blewbury",
    "state_id": 2471,
    "state_code": "WBK",
    "country_id": 232,
    "country_code": "GB",
    "latitude": "51.56880000",
    "longitude": "-1.23261000",
    "wikiDataId": null
  },
  {
    "id": 48646,
    "name": "Bradfield",
    "state_id": 2471,
    "state_code": "WBK",
    "country_id": 232,
    "country_code": "GB",
    "latitude": "51.44914000",
    "longitude": "-1.13082000",
    "wikiDataId": null
  },
  {
    "id": 48967,
    "name": "Chilton Foliat",
    "state_id": 2471,
    "state_code": "WBK",
    "country_id": 232,
    "country_code": "GB",
    "latitude": "51.43245000",
    "longitude": "-1.53912000",
    "wikiDataId": null
  },
  {
    "id": 48981,
    "name": "Cholsey",
    "state_id": 2471,
    "state_code": "WBK",
    "country_id": 232,
    "country_code": "GB",
    "latitude": "51.57280000",
    "longitude": "-1.15356000",
    "wikiDataId": null
  },
  {
    "id": 49062,
    "name": "Cold Ash",
    "state_id": 2471,
    "state_code": "WBK",
    "country_id": 232,
    "country_code": "GB",
    "latitude": "51.42426000",
    "longitude": "-1.26463000",
    "wikiDataId": null
  },
  {
    "id": 49282,
    "name": "Didcot",
    "state_id": 2471,
    "state_code": "WBK",
    "country_id": 232,
    "country_code": "GB",
    "latitude": "51.60928000",
    "longitude": "-1.24214000",
    "wikiDataId": null
  },
  {
    "id": 49396,
    "name": "East Hanney",
    "state_id": 2471,
    "state_code": "WBK",
    "country_id": 232,
    "country_code": "GB",
    "latitude": "51.63443000",
    "longitude": "-1.39518000",
    "wikiDataId": null
  },
  {
    "id": 49681,
    "name": "Goring",
    "state_id": 2471,
    "state_code": "WBK",
    "country_id": 232,
    "country_code": "GB",
    "latitude": "51.52322000",
    "longitude": "-1.13342000",
    "wikiDataId": null
  },
  {
    "id": 49758,
    "name": "Grove",
    "state_id": 2471,
    "state_code": "WBK",
    "country_id": 232,
    "country_code": "GB",
    "latitude": "51.60954000",
    "longitude": "-1.42187000",
    "wikiDataId": null
  },
  {
    "id": 49829,
    "name": "Harwell",
    "state_id": 2471,
    "state_code": "WBK",
    "country_id": 232,
    "country_code": "GB",
    "latitude": "51.59947000",
    "longitude": "-1.29175000",
    "wikiDataId": null
  },
  {
    "id": 49910,
    "name": "Hermitage",
    "state_id": 2471,
    "state_code": "WBK",
    "country_id": 232,
    "country_code": "GB",
    "latitude": "51.45540000",
    "longitude": "-1.26823000",
    "wikiDataId": null
  },
  {
    "id": 49935,
    "name": "Highclere",
    "state_id": 2471,
    "state_code": "WBK",
    "country_id": 232,
    "country_code": "GB",
    "latitude": "51.33860000",
    "longitude": "-1.37569000",
    "wikiDataId": null
  },
  {
    "id": 50023,
    "name": "Hungerford",
    "state_id": 2471,
    "state_code": "WBK",
    "country_id": 232,
    "country_code": "GB",
    "latitude": "51.41513000",
    "longitude": "-1.51556000",
    "wikiDataId": null
  },
  {
    "id": 50171,
    "name": "Kingsclere",
    "state_id": 2471,
    "state_code": "WBK",
    "country_id": 232,
    "country_code": "GB",
    "latitude": "51.32487000",
    "longitude": "-1.24339000",
    "wikiDataId": null
  },
  {
    "id": 50188,
    "name": "Kintbury",
    "state_id": 2471,
    "state_code": "WBK",
    "country_id": 232,
    "country_code": "GB",
    "latitude": "51.39958000",
    "longitude": "-1.44865000",
    "wikiDataId": null
  },
  {
    "id": 50706,
    "name": "Newbury",
    "state_id": 2471,
    "state_code": "WBK",
    "country_id": 232,
    "country_code": "GB",
    "latitude": "51.40148000",
    "longitude": "-1.32471000",
    "wikiDataId": null
  },
  {
    "id": 51245,
    "name": "Shalbourne",
    "state_id": 2471,
    "state_code": "WBK",
    "country_id": 232,
    "country_code": "GB",
    "latitude": "51.36358000",
    "longitude": "-1.55053000",
    "wikiDataId": null
  },
  {
    "id": 51442,
    "name": "Steventon",
    "state_id": 2471,
    "state_code": "WBK",
    "country_id": 232,
    "country_code": "GB",
    "latitude": "51.62473000",
    "longitude": "-1.32145000",
    "wikiDataId": null
  },
  {
    "id": 51544,
    "name": "Tadley",
    "state_id": 2471,
    "state_code": "WBK",
    "country_id": 232,
    "country_code": "GB",
    "latitude": "51.35045000",
    "longitude": "-1.12850000",
    "wikiDataId": null
  },
  {
    "id": 51586,
    "name": "Thatcham",
    "state_id": 2471,
    "state_code": "WBK",
    "country_id": 232,
    "country_code": "GB",
    "latitude": "51.40366000",
    "longitude": "-1.26049000",
    "wikiDataId": null
  },
  {
    "id": 51700,
    "name": "Upper Basildon",
    "state_id": 2471,
    "state_code": "WBK",
    "country_id": 232,
    "country_code": "GB",
    "latitude": "51.48165000",
    "longitude": "-1.14075000",
    "wikiDataId": null
  },
  {
    "id": 51745,
    "name": "Wantage",
    "state_id": 2471,
    "state_code": "WBK",
    "country_id": 232,
    "country_code": "GB",
    "latitude": "51.58846000",
    "longitude": "-1.42565000",
    "wikiDataId": null
  },
  {
    "id": 51806,
    "name": "West Berkshire",
    "state_id": 2471,
    "state_code": "WBK",
    "country_id": 232,
    "country_code": "GB",
    "latitude": "51.41667000",
    "longitude": "-1.25000000",
    "wikiDataId": null
  },
  {
    "id": 51821,
    "name": "West Ilsley",
    "state_id": 2471,
    "state_code": "WBK",
    "country_id": 232,
    "country_code": "GB",
    "latitude": "51.53993000",
    "longitude": "-1.32368000",
    "wikiDataId": null
  },
  {
    "id": 51937,
    "name": "Winterbourne",
    "state_id": 2471,
    "state_code": "WBK",
    "country_id": 232,
    "country_code": "GB",
    "latitude": "51.44609000",
    "longitude": "-1.34660000",
    "wikiDataId": null
  }
]