[
  {
    "id": 4775,
    "name": "Malampa",
    "country_id": 237,
    "country_code": "VU",
    "state_code": "MAP",
    "type": "province",
    "latitude": "-16.29750000",
    "longitude": "167.81037160",
    "iso3166_2": "VU-MAP",
    "native": "Malampa",
    "timezone": "Pacific/Efate"
  },
  {
    "id": 4773,
    "name": "Penama",
    "country_id": 237,
    "country_code": "VU",
    "state_code": "PAM",
    "type": "province",
    "latitude": "-15.21166660",
    "longitude": "167.93603190",
    "iso3166_2": "VU-PAM",
    "native": "Penama",
    "timezone": "Pacific/Efate"
  },
  {
    "id": 4776,
    "name": "Sanma",
    "country_id": 237,
    "country_code": "VU",
    "state_code": "SAM",
    "type": "province",
    "latitude": "-15.15813400",
    "longitude": "166.93938650",
    "iso3166_2": "VU-SAM",
    "native": "Sanma",
    "timezone": "Pacific/Efate"
  },
  {
    "id": 4774,
    "name": "Shefa",
    "country_id": 237,
    "country_code": "VU",
    "state_code": "SEE",
    "type": "province",
    "latitude": "-17.32839670",
    "longitude": "168.25473160",
    "iso3166_2": "VU-SEE",
    "native": "Shefa",
    "timezone": "Pacific/Efate"
  },
  {
    "id": 4777,
    "name": "Tafea",
    "country_id": 237,
    "country_code": "VU",
    "state_code": "TAE",
    "type": "province",
    "latitude": "-19.37060340",
    "longitude": "169.67524280",
    "iso3166_2": "VU-TAE",
    "native": "Tafea",
    "timezone": "Pacific/Efate"
  },
  {
    "id": 4772,
    "name": "Torba",
    "country_id": 237,
    "country_code": "VU",
    "state_code": "TOB",
    "type": "province",
    "latitude": "-13.66441350",
    "longitude": "167.17416360",
    "iso3166_2": "VU-TOB",
    "native": "Torba",
    "timezone": "Pacific/Efate"
  }
]