[
  {
    "id": 48347,
    "name": "Ballinamallard",
    "state_id": 2366,
    "state_code": "FMO",
    "country_id": 232,
    "country_code": "GB",
    "latitude": "54.42287020",
    "longitude": "-7.59504030",
    "wikiDataId": null
  },
  {
    "id": 49328,
    "name": "Dromore",
    "state_id": 2366,
    "state_code": "FMO",
    "country_id": 232,
    "country_code": "GB",
    "latitude": "54.51331000",
    "longitude": "-7.45886000",
    "wikiDataId": null
  },
  {
    "id": 49477,
    "name": "Enniskillen",
    "state_id": 2366,
    "state_code": "FMO",
    "country_id": 232,
    "country_code": "GB",
    "latitude": "54.34485380",
    "longitude": "-7.63893650",
    "wikiDataId": null
  },
  {
    "id": 49545,
    "name": "Fermanagh and Omagh",
    "state_id": 2366,
    "state_code": "FMO",
    "country_id": 232,
    "country_code": "GB",
    "latitude": "54.44257000",
    "longitude": "-7.50299000",
    "wikiDataId": null
  },
  {
    "id": 49560,
    "name": "Fintona",
    "state_id": 2366,
    "state_code": "FMO",
    "country_id": 232,
    "country_code": "GB",
    "latitude": "54.50000000",
    "longitude": "-7.31667000",
    "wikiDataId": null
  },
  {
    "id": 49566,
    "name": "Fivemiletown",
    "state_id": 2366,
    "state_code": "FMO",
    "country_id": 232,
    "country_code": "GB",
    "latitude": "54.38333000",
    "longitude": "-7.30000000",
    "wikiDataId": null
  },
  {
    "id": 50073,
    "name": "Irvinestown",
    "state_id": 2366,
    "state_code": "FMO",
    "country_id": 232,
    "country_code": "GB",
    "latitude": "54.47201060",
    "longitude": "-7.63348090",
    "wikiDataId": null
  },
  {
    "id": 50320,
    "name": "Lisnaskea",
    "state_id": 2366,
    "state_code": "FMO",
    "country_id": 232,
    "country_code": "GB",
    "latitude": "54.25000000",
    "longitude": "-7.45000000",
    "wikiDataId": null
  },
  {
    "id": 50811,
    "name": "Omagh",
    "state_id": 2366,
    "state_code": "FMO",
    "country_id": 232,
    "country_code": "GB",
    "latitude": "54.60000000",
    "longitude": "-7.30000000",
    "wikiDataId": null
  }
]