[
  {
    "id": 20493,
    "name": "Aguada",
    "state_id": 2901,
    "state_code": "SAN",
    "country_id": 48,
    "country_code": "CO",
    "latitude": "6.16019000",
    "longitude": "-73.52747000",
    "wikiDataId": null
  },
  {
    "id": 20497,
    "name": "Albania",
    "state_id": 2901,
    "state_code": "SAN",
    "country_id": 48,
    "country_code": "CO",
    "latitude": "5.75894000",
    "longitude": "-73.91376000",
    "wikiDataId": null
  },
  {
    "id": 20535,
    "name": "Aratoca",
    "state_id": 2901,
    "state_code": "SAN",
    "country_id": 48,
    "country_code": "CO",
    "latitude": "6.69432000",
    "longitude": "-73.01868000",
    "wikiDataId": null
  },
  {
    "id": 20567,
    "name": "Barbosa",
    "state_id": 2901,
    "state_code": "SAN",
    "country_id": 48,
    "country_code": "CO",
    "latitude": "5.93168000",
    "longitude": "-73.61507000",
    "wikiDataId": null
  },
  {
    "id": 20568,
    "name": "Barichara",
    "state_id": 2901,
    "state_code": "SAN",
    "country_id": 48,
    "country_code": "CO",
    "latitude": "6.63572000",
    "longitude": "-73.22282000",
    "wikiDataId": null
  },
  {
    "id": 20570,
    "name": "Barrancabermeja",
    "state_id": 2901,
    "state_code": "SAN",
    "country_id": 48,
    "country_code": "CO",
    "latitude": "7.06528000",
    "longitude": "-73.85472000",
    "wikiDataId": null
  },
  {
    "id": 20590,
    "name": "Betulia",
    "state_id": 2901,
    "state_code": "SAN",
    "country_id": 48,
    "country_code": "CO",
    "latitude": "6.90069000",
    "longitude": "-73.28347000",
    "wikiDataId": null
  },
  {
    "id": 20597,
    "name": "Bolívar",
    "state_id": 2901,
    "state_code": "SAN",
    "country_id": 48,
    "country_code": "CO",
    "latitude": "5.98930000",
    "longitude": "-73.77058000",
    "wikiDataId": null
  },
  {
    "id": 20603,
    "name": "Bucaramanga",
    "state_id": 2901,
    "state_code": "SAN",
    "country_id": 48,
    "country_code": "CO",
    "latitude": "7.12539000",
    "longitude": "-73.11980000",
    "wikiDataId": null
  },
  {
    "id": 20616,
    "name": "Cabrera",
    "state_id": 2901,
    "state_code": "SAN",
    "country_id": 48,
    "country_code": "CO",
    "latitude": "6.56443000",
    "longitude": "-73.26768000",
    "wikiDataId": null
  },
  {
    "id": 20635,
    "name": "California",
    "state_id": 2901,
    "state_code": "SAN",
    "country_id": 48,
    "country_code": "CO",
    "latitude": "7.34340000",
    "longitude": "-72.95815000",
    "wikiDataId": null
  },
  {
    "id": 20647,
    "name": "Capitanejo",
    "state_id": 2901,
    "state_code": "SAN",
    "country_id": 48,
    "country_code": "CO",
    "latitude": "6.52881000",
    "longitude": "-72.69595000",
    "wikiDataId": null
  },
  {
    "id": 20651,
    "name": "Carcasí",
    "state_id": 2901,
    "state_code": "SAN",
    "country_id": 48,
    "country_code": "CO",
    "latitude": "6.62711000",
    "longitude": "-72.62625000",
    "wikiDataId": null
  },
  {
    "id": 20668,
    "name": "Cepitá",
    "state_id": 2901,
    "state_code": "SAN",
    "country_id": 48,
    "country_code": "CO",
    "latitude": "6.75427000",
    "longitude": "-72.97440000",
    "wikiDataId": null
  },
  {
    "id": 20671,
    "name": "Cerrito",
    "state_id": 2901,
    "state_code": "SAN",
    "country_id": 48,
    "country_code": "CO",
    "latitude": "6.84315000",
    "longitude": "-72.69404000",
    "wikiDataId": null
  },
  {
    "id": 20679,
    "name": "Charalá",
    "state_id": 2901,
    "state_code": "SAN",
    "country_id": 48,
    "country_code": "CO",
    "latitude": "6.17513000",
    "longitude": "-73.17587000",
    "wikiDataId": null
  },
  {
    "id": 20680,
    "name": "Charta",
    "state_id": 2901,
    "state_code": "SAN",
    "country_id": 48,
    "country_code": "CO",
    "latitude": "7.28025000",
    "longitude": "-72.96782000",
    "wikiDataId": null
  },
  {
    "id": 20684,
    "name": "Chima",
    "state_id": 2901,
    "state_code": "SAN",
    "country_id": 48,
    "country_code": "CO",
    "latitude": "6.36289000",
    "longitude": "-73.42534000",
    "wikiDataId": null
  },
  {
    "id": 20692,
    "name": "Chipatá",
    "state_id": 2901,
    "state_code": "SAN",
    "country_id": 48,
    "country_code": "CO",
    "latitude": "6.06196000",
    "longitude": "-73.63718000",
    "wikiDataId": null
  },
  {
    "id": 20708,
    "name": "Cimitarra",
    "state_id": 2901,
    "state_code": "SAN",
    "country_id": 48,
    "country_code": "CO",
    "latitude": "6.31419000",
    "longitude": "-73.94968000",
    "wikiDataId": null
  },
  {
    "id": 20725,
    "name": "Concepción",
    "state_id": 2901,
    "state_code": "SAN",
    "country_id": 48,
    "country_code": "CO",
    "latitude": "6.76619000",
    "longitude": "-72.69400000",
    "wikiDataId": null
  },
  {
    "id": 20729,
    "name": "Confines",
    "state_id": 2901,
    "state_code": "SAN",
    "country_id": 48,
    "country_code": "CO",
    "latitude": "6.34875000",
    "longitude": "-73.20990000",
    "wikiDataId": null
  },
  {
    "id": 20733,
    "name": "Contratación",
    "state_id": 2901,
    "state_code": "SAN",
    "country_id": 48,
    "country_code": "CO",
    "latitude": "6.29005000",
    "longitude": "-73.47354000",
    "wikiDataId": null
  },
  {
    "id": 20738,
    "name": "Coromoro",
    "state_id": 2901,
    "state_code": "SAN",
    "country_id": 48,
    "country_code": "CO",
    "latitude": "6.29461000",
    "longitude": "-73.04022000",
    "wikiDataId": null
  },
  {
    "id": 20760,
    "name": "Curití",
    "state_id": 2901,
    "state_code": "SAN",
    "country_id": 48,
    "country_code": "CO",
    "latitude": "6.60519000",
    "longitude": "-73.06809000",
    "wikiDataId": null
  },
  {
    "id": 20797,
    "name": "El Carmen de Chucurí",
    "state_id": 2901,
    "state_code": "SAN",
    "country_id": 48,
    "country_code": "CO",
    "latitude": "6.69736000",
    "longitude": "-73.51117000",
    "wikiDataId": null
  },
  {
    "id": 20809,
    "name": "El Guacamayo",
    "state_id": 2901,
    "state_code": "SAN",
    "country_id": 48,
    "country_code": "CO",
    "latitude": "6.24856000",
    "longitude": "-73.52957000",
    "wikiDataId": null
  },
  {
    "id": 20819,
    "name": "El Peñón",
    "state_id": 2901,
    "state_code": "SAN",
    "country_id": 48,
    "country_code": "CO",
    "latitude": "6.09900000",
    "longitude": "-73.92835000",
    "wikiDataId": null
  },
  {
    "id": 20822,
    "name": "El Playón",
    "state_id": 2901,
    "state_code": "SAN",
    "country_id": 48,
    "country_code": "CO",
    "latitude": "7.47131000",
    "longitude": "-73.20310000",
    "wikiDataId": null
  },
  {
    "id": 20836,
    "name": "Encino",
    "state_id": 2901,
    "state_code": "SAN",
    "country_id": 48,
    "country_code": "CO",
    "latitude": "6.13735000",
    "longitude": "-73.09847000",
    "wikiDataId": null
  },
  {
    "id": 20837,
    "name": "Enciso",
    "state_id": 2901,
    "state_code": "SAN",
    "country_id": 48,
    "country_code": "CO",
    "latitude": "6.64651000",
    "longitude": "-72.70709000",
    "wikiDataId": null
  },
  {
    "id": 20853,
    "name": "Florián",
    "state_id": 2901,
    "state_code": "SAN",
    "country_id": 48,
    "country_code": "CO",
    "latitude": "5.80487000",
    "longitude": "-73.97029000",
    "wikiDataId": null
  },
  {
    "id": 20852,
    "name": "Floridablanca",
    "state_id": 2901,
    "state_code": "SAN",
    "country_id": 48,
    "country_code": "CO",
    "latitude": "7.06315000",
    "longitude": "-73.08586000",
    "wikiDataId": null
  },
  {
    "id": 20878,
    "name": "Galán",
    "state_id": 2901,
    "state_code": "SAN",
    "country_id": 48,
    "country_code": "CO",
    "latitude": "6.66271000",
    "longitude": "-73.34233000",
    "wikiDataId": null
  },
  {
    "id": 20881,
    "name": "Gambita",
    "state_id": 2901,
    "state_code": "SAN",
    "country_id": 48,
    "country_code": "CO",
    "latitude": "5.90273000",
    "longitude": "-73.36788000",
    "wikiDataId": null
  },
  {
    "id": 20889,
    "name": "Girón",
    "state_id": 2901,
    "state_code": "SAN",
    "country_id": 48,
    "country_code": "CO",
    "latitude": "7.06820000",
    "longitude": "-73.16981000",
    "wikiDataId": null
  },
  {
    "id": 20895,
    "name": "Guaca",
    "state_id": 2901,
    "state_code": "SAN",
    "country_id": 48,
    "country_code": "CO",
    "latitude": "6.87621000",
    "longitude": "-72.85594000",
    "wikiDataId": null
  },
  {
    "id": 20902,
    "name": "Guadalupe",
    "state_id": 2901,
    "state_code": "SAN",
    "country_id": 48,
    "country_code": "CO",
    "latitude": "6.24640000",
    "longitude": "-73.41833000",
    "wikiDataId": null
  },
  {
    "id": 20910,
    "name": "Guapotá",
    "state_id": 2901,
    "state_code": "SAN",
    "country_id": 48,
    "country_code": "CO",
    "latitude": "6.30697000",
    "longitude": "-73.32848000",
    "wikiDataId": null
  },
  {
    "id": 20919,
    "name": "Guavatá",
    "state_id": 2901,
    "state_code": "SAN",
    "country_id": 48,
    "country_code": "CO",
    "latitude": "5.95502000",
    "longitude": "-73.70018000",
    "wikiDataId": null
  },
  {
    "id": 20932,
    "name": "Güepsa",
    "state_id": 2901,
    "state_code": "SAN",
    "country_id": 48,
    "country_code": "CO",
    "latitude": "6.02505000",
    "longitude": "-73.57313000",
    "wikiDataId": null
  },
  {
    "id": 20936,
    "name": "Hato",
    "state_id": 2901,
    "state_code": "SAN",
    "country_id": 48,
    "country_code": "CO",
    "latitude": "6.56113000",
    "longitude": "-73.35895000",
    "wikiDataId": null
  },
  {
    "id": 20964,
    "name": "Jesús María",
    "state_id": 2901,
    "state_code": "SAN",
    "country_id": 48,
    "country_code": "CO",
    "latitude": "5.87715000",
    "longitude": "-73.78097000",
    "wikiDataId": null
  },
  {
    "id": 20965,
    "name": "Jordán",
    "state_id": 2901,
    "state_code": "SAN",
    "country_id": 48,
    "country_code": "CO",
    "latitude": "6.69857000",
    "longitude": "-73.10966000",
    "wikiDataId": null
  },
  {
    "id": 20971,
    "name": "La Belleza",
    "state_id": 2901,
    "state_code": "SAN",
    "country_id": 48,
    "country_code": "CO",
    "latitude": "5.86371000",
    "longitude": "-73.96167000",
    "wikiDataId": null
  },
  {
    "id": 20996,
    "name": "La Paz",
    "state_id": 2901,
    "state_code": "SAN",
    "country_id": 48,
    "country_code": "CO",
    "latitude": "6.17848000",
    "longitude": "-73.58948000",
    "wikiDataId": null
  },
  {
    "id": 21019,
    "name": "Landázuri",
    "state_id": 2901,
    "state_code": "SAN",
    "country_id": 48,
    "country_code": "CO",
    "latitude": "6.21826000",
    "longitude": "-73.81121000",
    "wikiDataId": null
  },
  {
    "id": 21021,
    "name": "Lebrija",
    "state_id": 2901,
    "state_code": "SAN",
    "country_id": 48,
    "country_code": "CO",
    "latitude": "7.11317000",
    "longitude": "-73.21780000",
    "wikiDataId": null
  },
  {
    "id": 21036,
    "name": "Los Santos",
    "state_id": 2901,
    "state_code": "SAN",
    "country_id": 48,
    "country_code": "CO",
    "latitude": "6.79734000",
    "longitude": "-73.12490000",
    "wikiDataId": null
  },
  {
    "id": 21043,
    "name": "Macaravita",
    "state_id": 2901,
    "state_code": "SAN",
    "country_id": 48,
    "country_code": "CO",
    "latitude": "6.50567000",
    "longitude": "-72.59299000",
    "wikiDataId": null
  },
  {
    "id": 21124,
    "name": "Málaga",
    "state_id": 2901,
    "state_code": "SAN",
    "country_id": 48,
    "country_code": "CO",
    "latitude": "6.69903000",
    "longitude": "-72.73233000",
    "wikiDataId": null
  },
  {
    "id": 21073,
    "name": "Matanza",
    "state_id": 2901,
    "state_code": "SAN",
    "country_id": 48,
    "country_code": "CO",
    "latitude": "7.35605000",
    "longitude": "-73.05303000",
    "wikiDataId": null
  },
  {
    "id": 21090,
    "name": "Mogotes",
    "state_id": 2901,
    "state_code": "SAN",
    "country_id": 48,
    "country_code": "CO",
    "latitude": "6.47559000",
    "longitude": "-72.97046000",
    "wikiDataId": null
  },
  {
    "id": 21091,
    "name": "Molagavita",
    "state_id": 2901,
    "state_code": "SAN",
    "country_id": 48,
    "country_code": "CO",
    "latitude": "6.67315000",
    "longitude": "-72.80875000",
    "wikiDataId": null
  },
  {
    "id": 21145,
    "name": "Ocamonte",
    "state_id": 2901,
    "state_code": "SAN",
    "country_id": 48,
    "country_code": "CO",
    "latitude": "6.34001000",
    "longitude": "-73.12205000",
    "wikiDataId": null
  },
  {
    "id": 21147,
    "name": "Oiba",
    "state_id": 2901,
    "state_code": "SAN",
    "country_id": 48,
    "country_code": "CO",
    "latitude": "6.26387000",
    "longitude": "-73.29876000",
    "wikiDataId": null
  },
  {
    "id": 21151,
    "name": "Onzaga",
    "state_id": 2901,
    "state_code": "SAN",
    "country_id": 48,
    "country_code": "CO",
    "latitude": "6.34434000",
    "longitude": "-72.81726000",
    "wikiDataId": null
  },
  {
    "id": 21170,
    "name": "Palmar",
    "state_id": 2901,
    "state_code": "SAN",
    "country_id": 48,
    "country_code": "CO",
    "latitude": "6.49740000",
    "longitude": "-73.30740000",
    "wikiDataId": null
  },
  {
    "id": 21172,
    "name": "Palmas del Socorro",
    "state_id": 2901,
    "state_code": "SAN",
    "country_id": 48,
    "country_code": "CO",
    "latitude": "6.40756000",
    "longitude": "-73.28824000",
    "wikiDataId": null
  },
  {
    "id": 21269,
    "name": "Páramo",
    "state_id": 2901,
    "state_code": "SAN",
    "country_id": 48,
    "country_code": "CO",
    "latitude": "6.43750000",
    "longitude": "-73.18027000",
    "wikiDataId": null
  },
  {
    "id": 21199,
    "name": "Piedecuesta",
    "state_id": 2901,
    "state_code": "SAN",
    "country_id": 48,
    "country_code": "CO",
    "latitude": "6.97443000",
    "longitude": "-73.02284000",
    "wikiDataId": null
  },
  {
    "id": 21206,
    "name": "Pinchote",
    "state_id": 2901,
    "state_code": "SAN",
    "country_id": 48,
    "country_code": "CO",
    "latitude": "6.53226000",
    "longitude": "-73.17309000",
    "wikiDataId": null
  },
  {
    "id": 21229,
    "name": "Puente Nacional",
    "state_id": 2901,
    "state_code": "SAN",
    "country_id": 48,
    "country_code": "CO",
    "latitude": "5.87739000",
    "longitude": "-73.67810000",
    "wikiDataId": null
  },
  {
    "id": 21250,
    "name": "Puerto Parra",
    "state_id": 2901,
    "state_code": "SAN",
    "country_id": 48,
    "country_code": "CO",
    "latitude": "6.65149000",
    "longitude": "-74.05734000",
    "wikiDataId": null
  },
  {
    "id": 21259,
    "name": "Puerto Wilches",
    "state_id": 2901,
    "state_code": "SAN",
    "country_id": 48,
    "country_code": "CO",
    "latitude": "7.34828000",
    "longitude": "-73.89601000",
    "wikiDataId": null
  },
  {
    "id": 21292,
    "name": "Rionegro",
    "state_id": 2901,
    "state_code": "SAN",
    "country_id": 48,
    "country_code": "CO",
    "latitude": "7.50000000",
    "longitude": "-73.33333000",
    "wikiDataId": null
  },
  {
    "id": 21308,
    "name": "Sabana de Torres",
    "state_id": 2901,
    "state_code": "SAN",
    "country_id": 48,
    "country_code": "CO",
    "latitude": "7.39150000",
    "longitude": "-73.49574000",
    "wikiDataId": null
  },
  {
    "id": 21332,
    "name": "San Andrés",
    "state_id": 2901,
    "state_code": "SAN",
    "country_id": 48,
    "country_code": "CO",
    "latitude": "6.81148000",
    "longitude": "-72.84929000",
    "wikiDataId": null
  },
  {
    "id": 21339,
    "name": "San Benito",
    "state_id": 2901,
    "state_code": "SAN",
    "country_id": 48,
    "country_code": "CO",
    "latitude": "6.10206000",
    "longitude": "-73.53753000",
    "wikiDataId": null
  },
  {
    "id": 21359,
    "name": "San Gil",
    "state_id": 2901,
    "state_code": "SAN",
    "country_id": 48,
    "country_code": "CO",
    "latitude": "6.55952000",
    "longitude": "-73.13637000",
    "wikiDataId": null
  },
  {
    "id": 21363,
    "name": "San Joaquín",
    "state_id": 2901,
    "state_code": "SAN",
    "country_id": 48,
    "country_code": "CO",
    "latitude": "6.46554000",
    "longitude": "-72.84852000",
    "wikiDataId": null
  },
  {
    "id": 21367,
    "name": "San José de Miranda",
    "state_id": 2901,
    "state_code": "SAN",
    "country_id": 48,
    "country_code": "CO",
    "latitude": "6.63051000",
    "longitude": "-72.73155000",
    "wikiDataId": null
  },
  {
    "id": 21388,
    "name": "San Miguel",
    "state_id": 2901,
    "state_code": "SAN",
    "country_id": 48,
    "country_code": "CO",
    "latitude": "6.57583000",
    "longitude": "-72.64591000",
    "wikiDataId": null
  },
  {
    "id": 21408,
    "name": "San Vicente de Chucurí",
    "state_id": 2901,
    "state_code": "SAN",
    "country_id": 48,
    "country_code": "CO",
    "latitude": "6.88100000",
    "longitude": "-73.40977000",
    "wikiDataId": null
  },
  {
    "id": 21412,
    "name": "Santa Bárbara",
    "state_id": 2901,
    "state_code": "SAN",
    "country_id": 48,
    "country_code": "CO",
    "latitude": "6.99022000",
    "longitude": "-72.90700000",
    "wikiDataId": null
  },
  {
    "id": 149249,
    "name": "Santa Helena Del Opón",
    "state_id": 2901,
    "state_code": "SAN",
    "country_id": 48,
    "country_code": "CO",
    "latitude": "6.33916777",
    "longitude": "-73.61666777",
    "wikiDataId": null
  },
  {
    "id": 21458,
    "name": "Simacota",
    "state_id": 2901,
    "state_code": "SAN",
    "country_id": 48,
    "country_code": "CO",
    "latitude": "6.44290000",
    "longitude": "-73.33688000",
    "wikiDataId": null
  },
  {
    "id": 21468,
    "name": "Socorro",
    "state_id": 2901,
    "state_code": "SAN",
    "country_id": 48,
    "country_code": "CO",
    "latitude": "6.45647000",
    "longitude": "-73.25502000",
    "wikiDataId": null
  },
  {
    "id": 21484,
    "name": "Suaita",
    "state_id": 2901,
    "state_code": "SAN",
    "country_id": 48,
    "country_code": "CO",
    "latitude": "6.08221000",
    "longitude": "-73.37008000",
    "wikiDataId": null
  },
  {
    "id": 21488,
    "name": "Sucre",
    "state_id": 2901,
    "state_code": "SAN",
    "country_id": 48,
    "country_code": "CO",
    "latitude": "5.96995000",
    "longitude": "-73.96629000",
    "wikiDataId": null
  },
  {
    "id": 21493,
    "name": "Suratá",
    "state_id": 2901,
    "state_code": "SAN",
    "country_id": 48,
    "country_code": "CO",
    "latitude": "7.36633000",
    "longitude": "-72.98361000",
    "wikiDataId": null
  },
  {
    "id": 21540,
    "name": "Tona",
    "state_id": 2901,
    "state_code": "SAN",
    "country_id": 48,
    "country_code": "CO",
    "latitude": "7.15727000",
    "longitude": "-72.96559000",
    "wikiDataId": null
  },
  {
    "id": 21579,
    "name": "Valle de San José",
    "state_id": 2901,
    "state_code": "SAN",
    "country_id": 48,
    "country_code": "CO",
    "latitude": "6.41984000",
    "longitude": "-73.12946000",
    "wikiDataId": null
  },
  {
    "id": 21618,
    "name": "Vélez",
    "state_id": 2901,
    "state_code": "SAN",
    "country_id": 48,
    "country_code": "CO",
    "latitude": "6.23274000",
    "longitude": "-73.72582000",
    "wikiDataId": null
  },
  {
    "id": 21592,
    "name": "Vetas",
    "state_id": 2901,
    "state_code": "SAN",
    "country_id": 48,
    "country_code": "CO",
    "latitude": "7.30911000",
    "longitude": "-72.87122000",
    "wikiDataId": null
  },
  {
    "id": 21606,
    "name": "Villanueva",
    "state_id": 2901,
    "state_code": "SAN",
    "country_id": 48,
    "country_code": "CO",
    "latitude": "6.67169000",
    "longitude": "-73.17421000",
    "wikiDataId": null
  },
  {
    "id": 21630,
    "name": "Zapatoca",
    "state_id": 2901,
    "state_code": "SAN",
    "country_id": 48,
    "country_code": "CO",
    "latitude": "6.81532000",
    "longitude": "-73.26768000",
    "wikiDataId": null
  }
]