[
  {
    "id": 105834,
    "name": "Andreyevka",
    "state_id": 1912,
    "state_code": "40",
    "country_id": 230,
    "country_code": "UA",
    "latitude": "44.81663000",
    "longitude": "33.56313000",
    "wikiDataId": null
  },
  {
    "id": 105843,
    "name": "Balaklava",
    "state_id": 1912,
    "state_code": "40",
    "country_id": 230,
    "country_code": "UA",
    "latitude": "44.51118000",
    "longitude": "33.59942000",
    "wikiDataId": null
  },
  {
    "id": 105844,
    "name": "Balaklava District",
    "state_id": 1912,
    "state_code": "40",
    "country_id": 230,
    "country_code": "UA",
    "latitude": "44.50581000",
    "longitude": "33.67035000",
    "wikiDataId": null
  },
  {
    "id": 105862,
    "name": "Frontovoye",
    "state_id": 1912,
    "state_code": "40",
    "country_id": 230,
    "country_code": "UA",
    "latitude": "44.66737000",
    "longitude": "33.73841000",
    "wikiDataId": null
  },
  {
    "id": 105865,
    "name": "Haharinskyi District",
    "state_id": 1912,
    "state_code": "40",
    "country_id": 230,
    "country_code": "UA",
    "latitude": "44.59217000",
    "longitude": "33.43925000",
    "wikiDataId": null
  },
  {
    "id": 105868,
    "name": "Inkerman",
    "state_id": 1912,
    "state_code": "40",
    "country_id": 230,
    "country_code": "UA",
    "latitude": "44.61391000",
    "longitude": "33.60980000",
    "wikiDataId": null
  },
  {
    "id": 105871,
    "name": "Kacha",
    "state_id": 1912,
    "state_code": "40",
    "country_id": 230,
    "country_code": "UA",
    "latitude": "44.77635000",
    "longitude": "33.54387000",
    "wikiDataId": null
  },
  {
    "id": 105892,
    "name": "Lenin District",
    "state_id": 1912,
    "state_code": "40",
    "country_id": 230,
    "country_code": "UA",
    "latitude": "44.60000000",
    "longitude": "33.53333000",
    "wikiDataId": null
  },
  {
    "id": 105905,
    "name": "Nakhimovskiy rayon",
    "state_id": 1912,
    "state_code": "40",
    "country_id": 230,
    "country_code": "UA",
    "latitude": "44.69502000",
    "longitude": "33.58092000",
    "wikiDataId": null
  },
  {
    "id": 105913,
    "name": "Orlinoye",
    "state_id": 1912,
    "state_code": "40",
    "country_id": 230,
    "country_code": "UA",
    "latitude": "44.44685000",
    "longitude": "33.77588000",
    "wikiDataId": null
  },
  {
    "id": 105920,
    "name": "Polyushko",
    "state_id": 1912,
    "state_code": "40",
    "country_id": 230,
    "country_code": "UA",
    "latitude": "44.74219000",
    "longitude": "33.58913000",
    "wikiDataId": null
  },
  {
    "id": 105922,
    "name": "Sakharnaya Golovka",
    "state_id": 1912,
    "state_code": "40",
    "country_id": 230,
    "country_code": "UA",
    "latitude": "44.58362000",
    "longitude": "33.64383000",
    "wikiDataId": null
  },
  {
    "id": 105924,
    "name": "Sevastopol",
    "state_id": 1912,
    "state_code": "40",
    "country_id": 230,
    "country_code": "UA",
    "latitude": "44.58883000",
    "longitude": "33.52240000",
    "wikiDataId": null
  },
  {
    "id": 105931,
    "name": "Shturmovoye",
    "state_id": 1912,
    "state_code": "40",
    "country_id": 230,
    "country_code": "UA",
    "latitude": "44.56767000",
    "longitude": "33.62245000",
    "wikiDataId": null
  },
  {
    "id": 105936,
    "name": "Solnechniy",
    "state_id": 1912,
    "state_code": "40",
    "country_id": 230,
    "country_code": "UA",
    "latitude": "44.78677000",
    "longitude": "33.61786000",
    "wikiDataId": null
  },
  {
    "id": 105943,
    "name": "Ternovka",
    "state_id": 1912,
    "state_code": "40",
    "country_id": 230,
    "country_code": "UA",
    "latitude": "44.57922000",
    "longitude": "33.75105000",
    "wikiDataId": null
  },
  {
    "id": 105958,
    "name": "Verkhnesadovoye",
    "state_id": 1912,
    "state_code": "40",
    "country_id": 230,
    "country_code": "UA",
    "latitude": "44.68932000",
    "longitude": "33.70207000",
    "wikiDataId": null
  }
]