[
  {
    "id": 4123,
    "name": "Artibonite",
    "country_id": 95,
    "country_code": "HT",
    "state_code": "AR",
    "type": "department",
    "latitude": "19.33662250",
    "longitude": "-72.49243460",
    "iso3166_2": "HT-AR",
    "native": "Artibonite",
    "timezone": "America/Port-au-Prince"
  },
  {
    "id": 4125,
    "name": "Centre",
    "country_id": 95,
    "country_code": "HT",
    "state_code": "CE",
    "type": "department",
    "latitude": "18.99082350",
    "longitude": "-71.99439850",
    "iso3166_2": "HT-CE",
    "native": "Centre",
    "timezone": "America/Port-au-Prince"
  },
  {
    "id": 4119,
    "name": "Grand'Anse",
    "country_id": 95,
    "country_code": "HT",
    "state_code": "GA",
    "type": "department",
    "latitude": "18.53041440",
    "longitude": "-74.15114630",
    "iso3166_2": "HT-GA",
    "native": "Grand'Anse",
    "timezone": "America/Port-au-Prince"
  },
  {
    "id": 4118,
    "name": "Nippes",
    "country_id": 95,
    "country_code": "HT",
    "state_code": "NI",
    "type": "department",
    "latitude": "18.44204260",
    "longitude": "-73.39137820",
    "iso3166_2": "HT-NI",
    "native": "Nippes",
    "timezone": "America/Port-au-Prince"
  },
  {
    "id": 4117,
    "name": "Nord",
    "country_id": 95,
    "country_code": "HT",
    "state_code": "ND",
    "type": "department",
    "latitude": "19.62582450",
    "longitude": "-72.26992860",
    "iso3166_2": "HT-ND",
    "native": "Nord",
    "timezone": "America/Port-au-Prince"
  },
  {
    "id": 4121,
    "name": "Nord-Est",
    "country_id": 95,
    "country_code": "HT",
    "state_code": "NE",
    "type": "department",
    "latitude": "19.51784680",
    "longitude": "-71.87282250",
    "iso3166_2": "HT-NE",
    "native": "Nord-Est",
    "timezone": "America/Port-au-Prince"
  },
  {
    "id": 4126,
    "name": "Nord-Ouest",
    "country_id": 95,
    "country_code": "HT",
    "state_code": "NO",
    "type": "department",
    "latitude": "19.84694340",
    "longitude": "-73.05899660",
    "iso3166_2": "HT-NO",
    "native": "Nord-Ouest",
    "timezone": "America/Port-au-Prince"
  },
  {
    "id": 4120,
    "name": "Ouest",
    "country_id": 95,
    "country_code": "HT",
    "state_code": "OU",
    "type": "department",
    "latitude": "18.76686870",
    "longitude": "-72.43873150",
    "iso3166_2": "HT-OU",
    "native": "Ouest",
    "timezone": "America/Port-au-Prince"
  },
  {
    "id": 4122,
    "name": "Sud",
    "country_id": 95,
    "country_code": "HT",
    "state_code": "SD",
    "type": "department",
    "latitude": "18.26128390",
    "longitude": "-73.84449850",
    "iso3166_2": "HT-SD",
    "native": "Soudoir",
    "timezone": "America/Port-au-Prince"
  },
  {
    "id": 4124,
    "name": "Sud-Est",
    "country_id": 95,
    "country_code": "HT",
    "state_code": "SE",
    "type": "department",
    "latitude": "18.29735660",
    "longitude": "-72.37456980",
    "iso3166_2": "HT-SE",
    "native": "Sud-Est",
    "timezone": "America/Port-au-Prince"
  }
]