[
  {
    "id": 48188,
    "name": "Accrington",
    "state_id": 2329,
    "state_code": "BBD",
    "country_id": 232,
    "country_code": "GB",
    "latitude": "53.75379000",
    "longitude": "-2.35863000",
    "wikiDataId": null
  },
  {
    "id": 48543,
    "name": "Blackburn",
    "state_id": 2329,
    "state_code": "BBD",
    "country_id": 232,
    "country_code": "GB",
    "latitude": "53.75000000",
    "longitude": "-2.48333000",
    "wikiDataId": null
  },
  {
    "id": 48544,
    "name": "Blackburn with Darwen",
    "state_id": 2329,
    "state_code": "BBD",
    "country_id": 232,
    "country_code": "GB",
    "latitude": "53.66667000",
    "longitude": "-2.46667000",
    "wikiDataId": null
  },
  {
    "id": 48689,
    "name": "Brierfield",
    "state_id": 2329,
    "state_code": "BBD",
    "country_id": 232,
    "country_code": "GB",
    "latitude": "53.82468000",
    "longitude": "-2.23415000",
    "wikiDataId": null
  },
  {
    "id": 48702,
    "name": "Brinscall",
    "state_id": 2329,
    "state_code": "BBD",
    "country_id": 232,
    "country_code": "GB",
    "latitude": "53.68900000",
    "longitude": "-2.57208000",
    "wikiDataId": null
  },
  {
    "id": 48778,
    "name": "Burnley",
    "state_id": 2329,
    "state_code": "BBD",
    "country_id": 232,
    "country_code": "GB",
    "latitude": "53.80000000",
    "longitude": "-2.23333000",
    "wikiDataId": null
  },
  {
    "id": 48984,
    "name": "Chorley",
    "state_id": 2329,
    "state_code": "BBD",
    "country_id": 232,
    "country_code": "GB",
    "latitude": "53.65000000",
    "longitude": "-2.61667000",
    "wikiDataId": null
  },
  {
    "id": 48993,
    "name": "Church",
    "state_id": 2329,
    "state_code": "BBD",
    "country_id": 232,
    "country_code": "GB",
    "latitude": "53.75177000",
    "longitude": "-2.39121000",
    "wikiDataId": null
  },
  {
    "id": 49024,
    "name": "Clayton le Moors",
    "state_id": 2329,
    "state_code": "BBD",
    "country_id": 232,
    "country_code": "GB",
    "latitude": "53.76667000",
    "longitude": "-2.38333000",
    "wikiDataId": null
  },
  {
    "id": 49025,
    "name": "Clayton-le-Woods",
    "state_id": 2329,
    "state_code": "BBD",
    "country_id": 232,
    "country_code": "GB",
    "latitude": "53.69689000",
    "longitude": "-2.66818000",
    "wikiDataId": null
  },
  {
    "id": 49243,
    "name": "Darwen",
    "state_id": 2329,
    "state_code": "BBD",
    "country_id": 232,
    "country_code": "GB",
    "latitude": "53.69803000",
    "longitude": "-2.46494000",
    "wikiDataId": null
  },
  {
    "id": 49440,
    "name": "Edgworth",
    "state_id": 2329,
    "state_code": "BBD",
    "country_id": 232,
    "country_code": "GB",
    "latitude": "53.64636000",
    "longitude": "-2.39401000",
    "wikiDataId": null
  },
  {
    "id": 49492,
    "name": "Euxton",
    "state_id": 2329,
    "state_code": "BBD",
    "country_id": 232,
    "country_code": "GB",
    "latitude": "53.66990000",
    "longitude": "-2.67615000",
    "wikiDataId": null
  },
  {
    "id": 49721,
    "name": "Great Harwood",
    "state_id": 2329,
    "state_code": "BBD",
    "country_id": 232,
    "country_code": "GB",
    "latitude": "53.78512000",
    "longitude": "-2.40865000",
    "wikiDataId": null
  },
  {
    "id": 49794,
    "name": "Hameldon Hill",
    "state_id": 2329,
    "state_code": "BBD",
    "country_id": 232,
    "country_code": "GB",
    "latitude": "53.75570000",
    "longitude": "-2.29190000",
    "wikiDataId": null
  },
  {
    "id": 49802,
    "name": "Hapton",
    "state_id": 2329,
    "state_code": "BBD",
    "country_id": 232,
    "country_code": "GB",
    "latitude": "53.78333000",
    "longitude": "-2.31667000",
    "wikiDataId": null
  },
  {
    "id": 49832,
    "name": "Haslingden",
    "state_id": 2329,
    "state_code": "BBD",
    "country_id": 232,
    "country_code": "GB",
    "latitude": "53.70326000",
    "longitude": "-2.32382000",
    "wikiDataId": null
  },
  {
    "id": 50296,
    "name": "Leyland",
    "state_id": 2329,
    "state_code": "BBD",
    "country_id": 232,
    "country_code": "GB",
    "latitude": "53.69786000",
    "longitude": "-2.68758000",
    "wikiDataId": null
  },
  {
    "id": 50844,
    "name": "Padiham",
    "state_id": 2329,
    "state_code": "BBD",
    "country_id": 232,
    "country_code": "GB",
    "latitude": "53.80187000",
    "longitude": "-2.31511000",
    "wikiDataId": null
  },
  {
    "id": 51090,
    "name": "Rishton",
    "state_id": 2329,
    "state_code": "BBD",
    "country_id": 232,
    "country_code": "GB",
    "latitude": "53.76806000",
    "longitude": "-2.41444000",
    "wikiDataId": null
  }
]