[
  {
    "id": 146185,
    "name": "Aïn El Berd District",
    "state_id": 4902,
    "state_code": "22",
    "country_id": 4,
    "country_code": "DZ",
    "latitude": "35.35000000",
    "longitude": "-0.51667000",
    "wikiDataId": null
  },
  {
    "id": 146186,
    "name": "Balidat Ameur",
    "state_id": 4902,
    "state_code": "22",
    "country_id": 4,
    "country_code": "DZ",
    "latitude": "32.95138900",
    "longitude": "5.98055600",
    "wikiDataId": null
  },
  {
    "id": 146187,
    "name": "Belarbi",
    "state_id": 4902,
    "state_code": "22",
    "country_id": 4,
    "country_code": "DZ",
    "latitude": "35.15149480",
    "longitude": "-0.45679090",
    "wikiDataId": null
  },
  {
    "id": 146188,
    "name": "Ben Badis Sid Bel Abbés",
    "state_id": 4902,
    "state_code": "22",
    "country_id": 4,
    "country_code": "DZ",
    "latitude": "34.95277778",
    "longitude": "-0.91444444",
    "wikiDataId": null
  },
  {
    "id": 146189,
    "name": "Djamaa",
    "state_id": 4902,
    "state_code": "22",
    "country_id": 4,
    "country_code": "DZ",
    "latitude": "33.53137870",
    "longitude": "5.99098210",
    "wikiDataId": null
  },
  {
    "id": 146190,
    "name": "El Bour",
    "state_id": 4902,
    "state_code": "22",
    "country_id": 4,
    "country_code": "DZ",
    "latitude": "32.16305556",
    "longitude": "5.34527778",
    "wikiDataId": null
  },
  {
    "id": 146191,
    "name": "El Hadjira",
    "state_id": 4902,
    "state_code": "22",
    "country_id": 4,
    "country_code": "DZ",
    "latitude": "32.61666667",
    "longitude": "5.51666667",
    "wikiDataId": null
  },
  {
    "id": 146192,
    "name": "Haoud El Hamra",
    "state_id": 4902,
    "state_code": "22",
    "country_id": 4,
    "country_code": "DZ",
    "latitude": "31.88944444",
    "longitude": "5.97305556",
    "wikiDataId": null
  },
  {
    "id": 146193,
    "name": "Hassi Messaoud",
    "state_id": 4902,
    "state_code": "22",
    "country_id": 4,
    "country_code": "DZ",
    "latitude": "31.70000000",
    "longitude": "6.06666667",
    "wikiDataId": null
  },
  {
    "id": 146194,
    "name": "Lamtar",
    "state_id": 4902,
    "state_code": "22",
    "country_id": 4,
    "country_code": "DZ",
    "latitude": "35.07062700",
    "longitude": "-0.79814000",
    "wikiDataId": null
  },
  {
    "id": 146195,
    "name": "Marhoum",
    "state_id": 4902,
    "state_code": "22",
    "country_id": 4,
    "country_code": "DZ",
    "latitude": "34.44600420",
    "longitude": "-0.19502440",
    "wikiDataId": null
  },
  {
    "id": 146196,
    "name": "Megarine",
    "state_id": 4902,
    "state_code": "22",
    "country_id": 4,
    "country_code": "DZ",
    "latitude": "33.19262320",
    "longitude": "6.09346390",
    "wikiDataId": null
  },
  {
    "id": 146197,
    "name": "Merine",
    "state_id": 4902,
    "state_code": "22",
    "country_id": 4,
    "country_code": "DZ",
    "latitude": "34.78074720",
    "longitude": "-0.45104030",
    "wikiDataId": null
  },
  {
    "id": 146198,
    "name": "Mezaourou",
    "state_id": 4902,
    "state_code": "22",
    "country_id": 4,
    "country_code": "DZ",
    "latitude": "34.81732670",
    "longitude": "-0.62331890",
    "wikiDataId": null
  },
  {
    "id": 146199,
    "name": "Moggar",
    "state_id": 4902,
    "state_code": "22",
    "country_id": 4,
    "country_code": "DZ",
    "latitude": "33.26722222",
    "longitude": "6.06777778",
    "wikiDataId": null
  },
  {
    "id": 146200,
    "name": "Moulay Slissen",
    "state_id": 4902,
    "state_code": "22",
    "country_id": 4,
    "country_code": "DZ",
    "latitude": "34.81666667",
    "longitude": "-0.76666667",
    "wikiDataId": null
  },
  {
    "id": 146201,
    "name": "N'Goussa",
    "state_id": 4902,
    "state_code": "22",
    "country_id": 4,
    "country_code": "DZ",
    "latitude": "32.14087970",
    "longitude": "5.30828480",
    "wikiDataId": null
  },
  {
    "id": 146202,
    "name": "Ouargla",
    "state_id": 4902,
    "state_code": "22",
    "country_id": 4,
    "country_code": "DZ",
    "latitude": "31.95000000",
    "longitude": "5.31666667",
    "wikiDataId": null
  },
  {
    "id": 146203,
    "name": "Rouissat",
    "state_id": 4902,
    "state_code": "22",
    "country_id": 4,
    "country_code": "DZ",
    "latitude": "31.93657600",
    "longitude": "5.33540730",
    "wikiDataId": null
  },
  {
    "id": 146204,
    "name": "Sfissef",
    "state_id": 4902,
    "state_code": "22",
    "country_id": 4,
    "country_code": "DZ",
    "latitude": "35.23440280",
    "longitude": "-0.24341580",
    "wikiDataId": null
  },
  {
    "id": 146205,
    "name": "Sidi Ali Boussidi",
    "state_id": 4902,
    "state_code": "22",
    "country_id": 4,
    "country_code": "DZ",
    "latitude": "35.10000000",
    "longitude": "-0.83333333",
    "wikiDataId": null
  },
  {
    "id": 146206,
    "name": "Sidi Amrane",
    "state_id": 4902,
    "state_code": "22",
    "country_id": 4,
    "country_code": "DZ",
    "latitude": "33.50000000",
    "longitude": "6.01666667",
    "wikiDataId": null
  },
  {
    "id": 146207,
    "name": "Sidi Bel Abbès",
    "state_id": 4902,
    "state_code": "22",
    "country_id": 4,
    "country_code": "DZ",
    "latitude": "35.20000000",
    "longitude": "-0.63333333",
    "wikiDataId": null
  },
  {
    "id": 146208,
    "name": "Sidi Brahim",
    "state_id": 4902,
    "state_code": "22",
    "country_id": 4,
    "country_code": "DZ",
    "latitude": "35.26055600",
    "longitude": "-0.56750000",
    "wikiDataId": null
  },
  {
    "id": 146209,
    "name": "Sidi Hamadouche",
    "state_id": 4902,
    "state_code": "22",
    "country_id": 4,
    "country_code": "DZ",
    "latitude": "35.29916667",
    "longitude": "-0.54888889",
    "wikiDataId": null
  },
  {
    "id": 146210,
    "name": "Sidi Slimane",
    "state_id": 4902,
    "state_code": "22",
    "country_id": 4,
    "country_code": "DZ",
    "latitude": "33.28861111",
    "longitude": "6.09472222",
    "wikiDataId": null
  },
  {
    "id": 146211,
    "name": "Sidi Yacoub",
    "state_id": 4902,
    "state_code": "22",
    "country_id": 4,
    "country_code": "DZ",
    "latitude": "35.13333333",
    "longitude": "-0.78333333",
    "wikiDataId": null
  },
  {
    "id": 146212,
    "name": "Sidi Yahia",
    "state_id": 4902,
    "state_code": "22",
    "country_id": 4,
    "country_code": "DZ",
    "latitude": "33.52166667",
    "longitude": "5.94555556",
    "wikiDataId": null
  },
  {
    "id": 146213,
    "name": "Tabia Sid Bel Abbés",
    "state_id": 4902,
    "state_code": "22",
    "country_id": 4,
    "country_code": "DZ",
    "latitude": "35.01783660",
    "longitude": "-0.73385240",
    "wikiDataId": null
  },
  {
    "id": 146214,
    "name": "Taibet",
    "state_id": 4902,
    "state_code": "22",
    "country_id": 4,
    "country_code": "DZ",
    "latitude": "33.08391890",
    "longitude": "6.39996530",
    "wikiDataId": null
  },
  {
    "id": 146215,
    "name": "Tamellaht",
    "state_id": 4902,
    "state_code": "22",
    "country_id": 4,
    "country_code": "DZ",
    "latitude": "33.01190000",
    "longitude": "6.00972000",
    "wikiDataId": null
  },
  {
    "id": 146216,
    "name": "Tamerna Djedida",
    "state_id": 4902,
    "state_code": "22",
    "country_id": 4,
    "country_code": "DZ",
    "latitude": "33.44640000",
    "longitude": "5.95639000",
    "wikiDataId": null
  },
  {
    "id": 146217,
    "name": "Tebesbest",
    "state_id": 4902,
    "state_code": "22",
    "country_id": 4,
    "country_code": "DZ",
    "latitude": "33.12001290",
    "longitude": "6.08007430",
    "wikiDataId": null
  },
  {
    "id": 146218,
    "name": "Teghalimet",
    "state_id": 4902,
    "state_code": "22",
    "country_id": 4,
    "country_code": "DZ",
    "latitude": "34.88283300",
    "longitude": "-0.56000230",
    "wikiDataId": null
  },
  {
    "id": 146219,
    "name": "Telagh",
    "state_id": 4902,
    "state_code": "22",
    "country_id": 4,
    "country_code": "DZ",
    "latitude": "34.78490640",
    "longitude": "-0.57317730",
    "wikiDataId": null
  },
  {
    "id": 146220,
    "name": "Tenezara",
    "state_id": 4902,
    "state_code": "22",
    "country_id": 4,
    "country_code": "DZ",
    "latitude": "34.96341170",
    "longitude": "-0.61446190",
    "wikiDataId": null
  },
  {
    "id": 146221,
    "name": "Tenira",
    "state_id": 4902,
    "state_code": "22",
    "country_id": 4,
    "country_code": "DZ",
    "latitude": "35.01966420",
    "longitude": "-0.53206440",
    "wikiDataId": null
  },
  {
    "id": 146222,
    "name": "Tessala",
    "state_id": 4902,
    "state_code": "22",
    "country_id": 4,
    "country_code": "DZ",
    "latitude": "35.24300000",
    "longitude": "-0.77316300",
    "wikiDataId": null
  },
  {
    "id": 146223,
    "name": "Touggourt",
    "state_id": 4902,
    "state_code": "22",
    "country_id": 4,
    "country_code": "DZ",
    "latitude": "33.10000000",
    "longitude": "6.06666667",
    "wikiDataId": null
  },
  {
    "id": 146224,
    "name": "Zerouala",
    "state_id": 4902,
    "state_code": "22",
    "country_id": 4,
    "country_code": "DZ",
    "latitude": "35.24232450",
    "longitude": "-0.52219390",
    "wikiDataId": null
  }
]