[
  {
    "id": 130181,
    "name": "Bỉm Sơn",
    "state_id": 3771,
    "state_code": "21",
    "country_id": 240,
    "country_code": "VN",
    "latitude": "20.07806000",
    "longitude": "105.86028000",
    "wikiDataId": null
  },
  {
    "id": 130218,
    "name": "Huyện Bá Thước",
    "state_id": 3771,
    "state_code": "21",
    "country_id": 240,
    "country_code": "VN",
    "latitude": "20.35767000",
    "longitude": "105.25301000",
    "wikiDataId": null
  },
  {
    "id": 130276,
    "name": "Huyện Cẩm Thủy",
    "state_id": 3771,
    "state_code": "21",
    "country_id": 240,
    "country_code": "VN",
    "latitude": "20.19586000",
    "longitude": "105.46817000",
    "wikiDataId": null
  },
  {
    "id": 130533,
    "name": "Huyện Đông Sơn",
    "state_id": 3771,
    "state_code": "21",
    "country_id": 240,
    "country_code": "VN",
    "latitude": "19.79742000",
    "longitude": "105.72465000",
    "wikiDataId": null
  },
  {
    "id": 130301,
    "name": "Huyện Hà Trung",
    "state_id": 3771,
    "state_code": "21",
    "country_id": 240,
    "country_code": "VN",
    "latitude": "20.02654000",
    "longitude": "105.81931000",
    "wikiDataId": null
  },
  {
    "id": 130317,
    "name": "Huyện Hậu Lộc",
    "state_id": 3771,
    "state_code": "21",
    "country_id": 240,
    "country_code": "VN",
    "latitude": "19.93337000",
    "longitude": "105.88894000",
    "wikiDataId": null
  },
  {
    "id": 130341,
    "name": "Huyện Lang Chánh",
    "state_id": 3771,
    "state_code": "21",
    "country_id": 240,
    "country_code": "VN",
    "latitude": "20.15926000",
    "longitude": "105.15071000",
    "wikiDataId": null
  },
  {
    "id": 130364,
    "name": "Huyện Mường Lát",
    "state_id": 3771,
    "state_code": "21",
    "country_id": 240,
    "country_code": "VN",
    "latitude": "20.52763000",
    "longitude": "104.62941000",
    "wikiDataId": null
  },
  {
    "id": 130380,
    "name": "Huyện Nga Sơn",
    "state_id": 3771,
    "state_code": "21",
    "country_id": 240,
    "country_code": "VN",
    "latitude": "20.01561000",
    "longitude": "105.98975000",
    "wikiDataId": null
  },
  {
    "id": 130389,
    "name": "Huyện Ngọc Lặc",
    "state_id": 3771,
    "state_code": "21",
    "country_id": 240,
    "country_code": "VN",
    "latitude": "20.06777000",
    "longitude": "105.37386000",
    "wikiDataId": null
  },
  {
    "id": 130391,
    "name": "Huyện Như Thanh",
    "state_id": 3771,
    "state_code": "21",
    "country_id": 240,
    "country_code": "VN",
    "latitude": "19.57798000",
    "longitude": "105.55616000",
    "wikiDataId": null
  },
  {
    "id": 130392,
    "name": "Huyện Như Xuân",
    "state_id": 3771,
    "state_code": "21",
    "country_id": 240,
    "country_code": "VN",
    "latitude": "19.62527000",
    "longitude": "105.38856000",
    "wikiDataId": null
  },
  {
    "id": 130393,
    "name": "Huyện Nông Cống",
    "state_id": 3771,
    "state_code": "21",
    "country_id": 240,
    "country_code": "VN",
    "latitude": "19.61376000",
    "longitude": "105.68279000",
    "wikiDataId": null
  },
  {
    "id": 130404,
    "name": "Huyện Quan Hóa",
    "state_id": 3771,
    "state_code": "21",
    "country_id": 240,
    "country_code": "VN",
    "latitude": "20.47565000",
    "longitude": "104.95335000",
    "wikiDataId": null
  },
  {
    "id": 130405,
    "name": "Huyện Quan Sơn",
    "state_id": 3771,
    "state_code": "21",
    "country_id": 240,
    "country_code": "VN",
    "latitude": "20.25758000",
    "longitude": "104.83416000",
    "wikiDataId": null
  },
  {
    "id": 130409,
    "name": "Huyện Quảng Xương",
    "state_id": 3771,
    "state_code": "21",
    "country_id": 240,
    "country_code": "VN",
    "latitude": "19.70252000",
    "longitude": "105.79298000",
    "wikiDataId": null
  },
  {
    "id": 130439,
    "name": "Huyện Thiệu Hóa",
    "state_id": 3771,
    "state_code": "21",
    "country_id": 240,
    "country_code": "VN",
    "latitude": "19.89713000",
    "longitude": "105.68144000",
    "wikiDataId": null
  },
  {
    "id": 130451,
    "name": "Huyện Thọ Xuân",
    "state_id": 3771,
    "state_code": "21",
    "country_id": 240,
    "country_code": "VN",
    "latitude": "19.93114000",
    "longitude": "105.48284000",
    "wikiDataId": null
  },
  {
    "id": 130445,
    "name": "Huyện Thường Xuân",
    "state_id": 3771,
    "state_code": "21",
    "country_id": 240,
    "country_code": "VN",
    "latitude": "19.93684000",
    "longitude": "105.24109000",
    "wikiDataId": null
  },
  {
    "id": 130463,
    "name": "Huyện Triệu Sơn",
    "state_id": 3771,
    "state_code": "21",
    "country_id": 240,
    "country_code": "VN",
    "latitude": "19.82578000",
    "longitude": "105.58293000",
    "wikiDataId": null
  },
  {
    "id": 130501,
    "name": "Huyện Vĩnh Lộc",
    "state_id": 3771,
    "state_code": "21",
    "country_id": 240,
    "country_code": "VN",
    "latitude": "20.03482000",
    "longitude": "105.65755000",
    "wikiDataId": null
  },
  {
    "id": 130522,
    "name": "Huyện Yên Định",
    "state_id": 3771,
    "state_code": "21",
    "country_id": 240,
    "country_code": "VN",
    "latitude": "19.98666000",
    "longitude": "105.61482000",
    "wikiDataId": null
  },
  {
    "id": 130597,
    "name": "Thanh Hóa",
    "state_id": 3771,
    "state_code": "21",
    "country_id": 240,
    "country_code": "VN",
    "latitude": "19.80000000",
    "longitude": "105.76667000",
    "wikiDataId": null
  }
]