[
  {
    "id": 109048,
    "name": "Biharamulo",
    "state_id": 1465,
    "state_code": "05",
    "country_id": 218,
    "country_code": "TZ",
    "latitude": "-2.63194000",
    "longitude": "31.30889000",
    "wikiDataId": null
  },
  {
    "id": 109049,
    "name": "Bugarama",
    "state_id": 1465,
    "state_code": "05",
    "country_id": 218,
    "country_code": "TZ",
    "latitude": "-2.87056000",
    "longitude": "30.52806000",
    "wikiDataId": null
  },
  {
    "id": 109050,
    "name": "Bugene",
    "state_id": 1465,
    "state_code": "05",
    "country_id": 218,
    "country_code": "TZ",
    "latitude": "-1.59111000",
    "longitude": "31.14028000",
    "wikiDataId": null
  },
  {
    "id": 109052,
    "name": "Bukoba",
    "state_id": 1465,
    "state_code": "05",
    "country_id": 218,
    "country_code": "TZ",
    "latitude": "-1.33167000",
    "longitude": "31.81222000",
    "wikiDataId": null
  },
  {
    "id": 109088,
    "name": "Kabanga",
    "state_id": 1465,
    "state_code": "05",
    "country_id": 218,
    "country_code": "TZ",
    "latitude": "-2.63861000",
    "longitude": "30.46778000",
    "wikiDataId": null
  },
  {
    "id": 109092,
    "name": "Kamachumu",
    "state_id": 1465,
    "state_code": "05",
    "country_id": 218,
    "country_code": "TZ",
    "latitude": "-1.61861000",
    "longitude": "31.62000000",
    "wikiDataId": null
  },
  {
    "id": 109096,
    "name": "Katerero",
    "state_id": 1465,
    "state_code": "05",
    "country_id": 218,
    "country_code": "TZ",
    "latitude": "-1.40000000",
    "longitude": "31.73333000",
    "wikiDataId": null
  },
  {
    "id": 109099,
    "name": "Katoro",
    "state_id": 1465,
    "state_code": "05",
    "country_id": 218,
    "country_code": "TZ",
    "latitude": "-1.39972000",
    "longitude": "31.50028000",
    "wikiDataId": null
  },
  {
    "id": 109138,
    "name": "Kyaka",
    "state_id": 1465,
    "state_code": "05",
    "country_id": 218,
    "country_code": "TZ",
    "latitude": "-1.25222000",
    "longitude": "31.42028000",
    "wikiDataId": null
  },
  {
    "id": 109251,
    "name": "Ngara",
    "state_id": 1465,
    "state_code": "05",
    "country_id": 218,
    "country_code": "TZ",
    "latitude": "-2.51222000",
    "longitude": "30.65583000",
    "wikiDataId": null
  },
  {
    "id": 109259,
    "name": "Nshamba",
    "state_id": 1465,
    "state_code": "05",
    "country_id": 218,
    "country_code": "TZ",
    "latitude": "-1.79833000",
    "longitude": "31.55111000",
    "wikiDataId": null
  },
  {
    "id": 109260,
    "name": "Nsunga",
    "state_id": 1465,
    "state_code": "05",
    "country_id": 218,
    "country_code": "TZ",
    "latitude": "-1.14389000",
    "longitude": "31.39472000",
    "wikiDataId": null
  },
  {
    "id": 109263,
    "name": "Nyakahanga",
    "state_id": 1465,
    "state_code": "05",
    "country_id": 218,
    "country_code": "TZ",
    "latitude": "-1.60333000",
    "longitude": "31.14139000",
    "wikiDataId": null
  },
  {
    "id": 109273,
    "name": "Rulenge",
    "state_id": 1465,
    "state_code": "05",
    "country_id": 218,
    "country_code": "TZ",
    "latitude": "-2.71750000",
    "longitude": "30.63250000",
    "wikiDataId": null
  }
]