[
  {
    "id": 107064,
    "name": "Adapazarı",
    "state_id": 2150,
    "state_code": "54",
    "country_id": 225,
    "country_code": "TR",
    "latitude": "40.78056000",
    "longitude": "30.40333000",
    "wikiDataId": null
  },
  {
    "id": 107100,
    "name": "Akyazı",
    "state_id": 2150,
    "state_code": "54",
    "country_id": 225,
    "country_code": "TR",
    "latitude": "40.68500000",
    "longitude": "30.62222000",
    "wikiDataId": null
  },
  {
    "id": 107186,
    "name": "Arifiye",
    "state_id": 2150,
    "state_code": "54",
    "country_id": 225,
    "country_code": "TR",
    "latitude": "40.71327000",
    "longitude": "30.36128000",
    "wikiDataId": null
  },
  {
    "id": 107588,
    "name": "Erenler",
    "state_id": 2150,
    "state_code": "54",
    "country_id": 225,
    "country_code": "TR",
    "latitude": "40.75564000",
    "longitude": "30.41453000",
    "wikiDataId": null
  },
  {
    "id": 107638,
    "name": "Ferizli",
    "state_id": 2150,
    "state_code": "54",
    "country_id": 225,
    "country_code": "TR",
    "latitude": "40.94082000",
    "longitude": "30.48583000",
    "wikiDataId": null
  },
  {
    "id": 107673,
    "name": "Geyve",
    "state_id": 2150,
    "state_code": "54",
    "country_id": 225,
    "country_code": "TR",
    "latitude": "40.50750000",
    "longitude": "30.29250000",
    "wikiDataId": null
  },
  {
    "id": 107822,
    "name": "Hendek",
    "state_id": 2150,
    "state_code": "54",
    "country_id": 225,
    "country_code": "TR",
    "latitude": "40.79944000",
    "longitude": "30.74806000",
    "wikiDataId": null
  },
  {
    "id": 107910,
    "name": "Karapürçek",
    "state_id": 2150,
    "state_code": "54",
    "country_id": 225,
    "country_code": "TR",
    "latitude": "40.64194000",
    "longitude": "30.53944000",
    "wikiDataId": null
  },
  {
    "id": 107915,
    "name": "Karasu",
    "state_id": 2150,
    "state_code": "54",
    "country_id": 225,
    "country_code": "TR",
    "latitude": "41.09983000",
    "longitude": "30.68241000",
    "wikiDataId": null
  },
  {
    "id": 107951,
    "name": "Kaynarca",
    "state_id": 2150,
    "state_code": "54",
    "country_id": 225,
    "country_code": "TR",
    "latitude": "41.03083000",
    "longitude": "30.30750000",
    "wikiDataId": null
  },
  {
    "id": 108003,
    "name": "Kocaali",
    "state_id": 2150,
    "state_code": "54",
    "country_id": 225,
    "country_code": "TR",
    "latitude": "41.05336000",
    "longitude": "30.85278000",
    "wikiDataId": null
  },
  {
    "id": 108312,
    "name": "Pamukova",
    "state_id": 2150,
    "state_code": "54",
    "country_id": 225,
    "country_code": "TR",
    "latitude": "40.50810000",
    "longitude": "30.16732000",
    "wikiDataId": null
  },
  {
    "id": 108385,
    "name": "Sapanca",
    "state_id": 2150,
    "state_code": "54",
    "country_id": 225,
    "country_code": "TR",
    "latitude": "40.69141000",
    "longitude": "30.26738000",
    "wikiDataId": null
  },
  {
    "id": 108438,
    "name": "Serdivan",
    "state_id": 2150,
    "state_code": "54",
    "country_id": 225,
    "country_code": "TR",
    "latitude": "40.76371000",
    "longitude": "30.36784000",
    "wikiDataId": null
  },
  {
    "id": 108519,
    "name": "Söğütlü",
    "state_id": 2150,
    "state_code": "54",
    "country_id": 225,
    "country_code": "TR",
    "latitude": "40.90590000",
    "longitude": "30.47448000",
    "wikiDataId": null
  },
  {
    "id": 108534,
    "name": "Taraklı",
    "state_id": 2150,
    "state_code": "54",
    "country_id": 225,
    "country_code": "TR",
    "latitude": "40.39694000",
    "longitude": "30.49278000",
    "wikiDataId": null
  }
]