[
  {
    "id": 53491,
    "name": "Escuintla",
    "state_id": 3677,
    "state_code": "05",
    "country_id": 90,
    "country_code": "GT",
    "latitude": "14.30500000",
    "longitude": "-90.78500000",
    "wikiDataId": null
  },
  {
    "id": 53498,
    "name": "Guanagazapa",
    "state_id": 3677,
    "state_code": "05",
    "country_id": 90,
    "country_code": "GT",
    "latitude": "14.22528000",
    "longitude": "-90.64333000",
    "wikiDataId": null
  },
  {
    "id": 53508,
    "name": "Iztapa",
    "state_id": 3677,
    "state_code": "05",
    "country_id": 90,
    "country_code": "GT",
    "latitude": "13.93333000",
    "longitude": "-90.70750000",
    "wikiDataId": null
  },
  {
    "id": 53517,
    "name": "La Democracia",
    "state_id": 3677,
    "state_code": "05",
    "country_id": 90,
    "country_code": "GT",
    "latitude": "14.23083000",
    "longitude": "-90.94722000",
    "wikiDataId": null
  },
  {
    "id": 53519,
    "name": "La Gomera",
    "state_id": 3677,
    "state_code": "05",
    "country_id": 90,
    "country_code": "GT",
    "latitude": "14.08213000",
    "longitude": "-91.05383000",
    "wikiDataId": null
  },
  {
    "id": 53530,
    "name": "Masagua",
    "state_id": 3677,
    "state_code": "05",
    "country_id": 90,
    "country_code": "GT",
    "latitude": "14.20306000",
    "longitude": "-90.84806000",
    "wikiDataId": null
  },
  {
    "id": 53605,
    "name": "Nueva Concepción",
    "state_id": 3677,
    "state_code": "05",
    "country_id": 90,
    "country_code": "GT",
    "latitude": "14.20000000",
    "longitude": "-91.30000000",
    "wikiDataId": null
  },
  {
    "id": 53618,
    "name": "Palín",
    "state_id": 3677,
    "state_code": "05",
    "country_id": 90,
    "country_code": "GT",
    "latitude": "14.40358000",
    "longitude": "-90.69659000",
    "wikiDataId": null
  },
  {
    "id": 53635,
    "name": "Puerto San José",
    "state_id": 3677,
    "state_code": "05",
    "country_id": 90,
    "country_code": "GT",
    "latitude": "13.92740000",
    "longitude": "-90.82166000",
    "wikiDataId": null
  },
  {
    "id": 53740,
    "name": "San Vicente Pacaya",
    "state_id": 3677,
    "state_code": "05",
    "country_id": 90,
    "country_code": "GT",
    "latitude": "14.41466000",
    "longitude": "-90.63613000",
    "wikiDataId": null
  },
  {
    "id": 53762,
    "name": "Santa Lucía Cotzumalguapa",
    "state_id": 3677,
    "state_code": "05",
    "country_id": 90,
    "country_code": "GT",
    "latitude": "14.33505000",
    "longitude": "-91.02339000",
    "wikiDataId": null
  },
  {
    "id": 53781,
    "name": "Siquinalá",
    "state_id": 3677,
    "state_code": "05",
    "country_id": 90,
    "country_code": "GT",
    "latitude": "14.30611000",
    "longitude": "-90.96500000",
    "wikiDataId": null
  },
  {
    "id": 53793,
    "name": "Tiquisate",
    "state_id": 3677,
    "state_code": "05",
    "country_id": 90,
    "country_code": "GT",
    "latitude": "14.28356000",
    "longitude": "-91.36063000",
    "wikiDataId": null
  }
]