[
  {
    "id": 48567,
    "name": "Bletchley",
    "state_id": 2291,
    "state_code": "BEN",
    "country_id": 232,
    "country_code": "GB",
    "latitude": "51.99334000",
    "longitude": "-0.73471000",
    "wikiDataId": null
  },
  {
    "id": 48632,
    "name": "Bow Brickhill",
    "state_id": 2291,
    "state_code": "BEN",
    "country_id": 232,
    "country_code": "GB",
    "latitude": "52.00280000",
    "longitude": "-0.68064000",
    "wikiDataId": null
  },
  {
    "id": 49143,
    "name": "Cranfield",
    "state_id": 2291,
    "state_code": "BEN",
    "country_id": 232,
    "country_code": "GB",
    "latitude": "52.06869000",
    "longitude": "-0.60884000",
    "wikiDataId": null
  },
  {
    "id": 49876,
    "name": "Heath and Reach",
    "state_id": 2291,
    "state_code": "BEN",
    "country_id": 232,
    "country_code": "GB",
    "latitude": "51.94517000",
    "longitude": "-0.65697000",
    "wikiDataId": null
  },
  {
    "id": 50034,
    "name": "Husborne Crawley",
    "state_id": 2291,
    "state_code": "BEN",
    "country_id": 232,
    "country_code": "GB",
    "latitude": "52.01637000",
    "longitude": "-0.61056000",
    "wikiDataId": null
  },
  {
    "id": 50730,
    "name": "Newton Longville",
    "state_id": 2291,
    "state_code": "BEN",
    "country_id": 232,
    "country_code": "GB",
    "latitude": "51.97600000",
    "longitude": "-0.76595000",
    "wikiDataId": null
  },
  {
    "id": 51446,
    "name": "Stewkley",
    "state_id": 2291,
    "state_code": "BEN",
    "country_id": 232,
    "country_code": "GB",
    "latitude": "51.92744000",
    "longitude": "-0.76381000",
    "wikiDataId": null
  },
  {
    "id": 51766,
    "name": "Water Eaton",
    "state_id": 2291,
    "state_code": "BEN",
    "country_id": 232,
    "country_code": "GB",
    "latitude": "51.98697000",
    "longitude": "-0.72188000",
    "wikiDataId": null
  },
  {
    "id": 51928,
    "name": "Wing",
    "state_id": 2291,
    "state_code": "BEN",
    "country_id": 232,
    "country_code": "GB",
    "latitude": "51.89524000",
    "longitude": "-0.71956000",
    "wikiDataId": null
  },
  {
    "id": 51954,
    "name": "Woburn",
    "state_id": 2291,
    "state_code": "BEN",
    "country_id": 232,
    "country_code": "GB",
    "latitude": "51.98865000",
    "longitude": "-0.61903000",
    "wikiDataId": null
  },
  {
    "id": 51955,
    "name": "Woburn Sands",
    "state_id": 2291,
    "state_code": "BEN",
    "country_id": 232,
    "country_code": "GB",
    "latitude": "52.01579000",
    "longitude": "-0.64982000",
    "wikiDataId": null
  }
]