[
  {
    "id": 38589,
    "name": "Administrative Zone 2",
    "state_id": 6,
    "state_code": "AF",
    "country_id": 70,
    "country_code": "ET",
    "latitude": "13.68513000",
    "longitude": "40.05615000",
    "wikiDataId": null
  },
  {
    "id": 38590,
    "name": "Administrative Zone 3",
    "state_id": 6,
    "state_code": "AF",
    "country_id": 70,
    "country_code": "ET",
    "latitude": "10.00902000",
    "longitude": "40.47394000",
    "wikiDataId": null
  },
  {
    "id": 38595,
    "name": "Asaita",
    "state_id": 6,
    "state_code": "AF",
    "country_id": 70,
    "country_code": "ET",
    "latitude": "11.56838000",
    "longitude": "41.43869000",
    "wikiDataId": null
  },
  {
    "id": 38729,
    "name": "Āwash",
    "state_id": 6,
    "state_code": "AF",
    "country_id": 70,
    "country_code": "ET",
    "latitude": "8.98333000",
    "longitude": "40.16667000",
    "wikiDataId": null
  },
  {
    "id": 38624,
    "name": "Dubti",
    "state_id": 6,
    "state_code": "AF",
    "country_id": 70,
    "country_code": "ET",
    "latitude": "11.73292000",
    "longitude": "41.08200000",
    "wikiDataId": null
  },
  {
    "id": 38637,
    "name": "Gewanē",
    "state_id": 6,
    "state_code": "AF",
    "country_id": 70,
    "country_code": "ET",
    "latitude": "10.16658000",
    "longitude": "40.64689000",
    "wikiDataId": null
  },
  {
    "id": 38691,
    "name": "Semera",
    "state_id": 6,
    "state_code": "AF",
    "country_id": 70,
    "country_code": "ET",
    "latitude": "11.79342000",
    "longitude": "41.00578000",
    "wikiDataId": null
  }
]