[
  {
    "id": 85775,
    "name": "Abramów",
    "state_id": 1638,
    "state_code": "06",
    "country_id": 176,
    "country_code": "PL",
    "latitude": "51.45647000",
    "longitude": "22.31521000",
    "wikiDataId": null
  },
  {
    "id": 85776,
    "name": "Adamów",
    "state_id": 1638,
    "state_code": "06",
    "country_id": 176,
    "country_code": "PL",
    "latitude": "51.74335000",
    "longitude": "22.26414000",
    "wikiDataId": null
  },
  {
    "id": 85779,
    "name": "Aleksandrów",
    "state_id": 1638,
    "state_code": "06",
    "country_id": 176,
    "country_code": "PL",
    "latitude": "50.46630000",
    "longitude": "22.89225000",
    "wikiDataId": null
  },
  {
    "id": 85786,
    "name": "Annopol",
    "state_id": 1638,
    "state_code": "06",
    "country_id": 176,
    "country_code": "PL",
    "latitude": "50.88551000",
    "longitude": "21.85678000",
    "wikiDataId": null
  },
  {
    "id": 85804,
    "name": "Baranów",
    "state_id": 1638,
    "state_code": "06",
    "country_id": 176,
    "country_code": "PL",
    "latitude": "51.55786000",
    "longitude": "22.13625000",
    "wikiDataId": null
  },
  {
    "id": 85818,
    "name": "Batorz",
    "state_id": 1638,
    "state_code": "06",
    "country_id": 176,
    "country_code": "PL",
    "latitude": "50.85050000",
    "longitude": "22.49313000",
    "wikiDataId": null
  },
  {
    "id": 85831,
    "name": "Bełżec",
    "state_id": 1638,
    "state_code": "06",
    "country_id": 176,
    "country_code": "PL",
    "latitude": "50.38453000",
    "longitude": "23.43839000",
    "wikiDataId": null
  },
  {
    "id": 85832,
    "name": "Bełżyce",
    "state_id": 1638,
    "state_code": "06",
    "country_id": 176,
    "country_code": "PL",
    "latitude": "51.17415000",
    "longitude": "22.28027000",
    "wikiDataId": null
  },
  {
    "id": 85836,
    "name": "Biała Podlaska",
    "state_id": 1638,
    "state_code": "06",
    "country_id": 176,
    "country_code": "PL",
    "latitude": "52.03238000",
    "longitude": "23.11652000",
    "wikiDataId": null
  },
  {
    "id": 85878,
    "name": "Biłgoraj",
    "state_id": 1638,
    "state_code": "06",
    "country_id": 176,
    "country_code": "PL",
    "latitude": "50.54114000",
    "longitude": "22.72204000",
    "wikiDataId": null
  },
  {
    "id": 85876,
    "name": "Biszcza",
    "state_id": 1638,
    "state_code": "06",
    "country_id": 176,
    "country_code": "PL",
    "latitude": "50.40146000",
    "longitude": "22.65063000",
    "wikiDataId": null
  },
  {
    "id": 85920,
    "name": "Borki",
    "state_id": 1638,
    "state_code": "06",
    "country_id": 176,
    "country_code": "PL",
    "latitude": "51.72161000",
    "longitude": "22.52129000",
    "wikiDataId": null
  },
  {
    "id": 85928,
    "name": "Borzechów",
    "state_id": 1638,
    "state_code": "06",
    "country_id": 176,
    "country_code": "PL",
    "latitude": "51.09258000",
    "longitude": "22.28414000",
    "wikiDataId": null
  },
  {
    "id": 85997,
    "name": "Bychawa",
    "state_id": 1638,
    "state_code": "06",
    "country_id": 176,
    "country_code": "PL",
    "latitude": "51.01608000",
    "longitude": "22.53296000",
    "wikiDataId": null
  },
  {
    "id": 86027,
    "name": "Chełm",
    "state_id": 1638,
    "state_code": "06",
    "country_id": 176,
    "country_code": "PL",
    "latitude": "51.14312000",
    "longitude": "23.47160000",
    "wikiDataId": null
  },
  {
    "id": 86045,
    "name": "Chodel",
    "state_id": 1638,
    "state_code": "06",
    "country_id": 176,
    "country_code": "PL",
    "latitude": "51.11177000",
    "longitude": "22.13269000",
    "wikiDataId": null
  },
  {
    "id": 86061,
    "name": "Chrzanów",
    "state_id": 1638,
    "state_code": "06",
    "country_id": 176,
    "country_code": "PL",
    "latitude": "50.77256000",
    "longitude": "22.60351000",
    "wikiDataId": null
  },
  {
    "id": 86097,
    "name": "Cyców",
    "state_id": 1638,
    "state_code": "06",
    "country_id": 176,
    "country_code": "PL",
    "latitude": "51.29928000",
    "longitude": "23.14124000",
    "wikiDataId": null
  },
  {
    "id": 86124,
    "name": "Czemierniki",
    "state_id": 1638,
    "state_code": "06",
    "country_id": 176,
    "country_code": "PL",
    "latitude": "51.67298000",
    "longitude": "22.63887000",
    "wikiDataId": null
  },
  {
    "id": 86248,
    "name": "Dęblin",
    "state_id": 1638,
    "state_code": "06",
    "country_id": 176,
    "country_code": "PL",
    "latitude": "51.55912000",
    "longitude": "21.84829000",
    "wikiDataId": null
  },
  {
    "id": 86253,
    "name": "Dębowa Kłoda",
    "state_id": 1638,
    "state_code": "06",
    "country_id": 176,
    "country_code": "PL",
    "latitude": "51.59446000",
    "longitude": "23.00640000",
    "wikiDataId": null
  },
  {
    "id": 86192,
    "name": "Dołhobyczów",
    "state_id": 1638,
    "state_code": "06",
    "country_id": 176,
    "country_code": "PL",
    "latitude": "50.58591000",
    "longitude": "24.03594000",
    "wikiDataId": null
  },
  {
    "id": 86190,
    "name": "Dorohusk",
    "state_id": 1638,
    "state_code": "06",
    "country_id": 176,
    "country_code": "PL",
    "latitude": "51.15475000",
    "longitude": "23.80325000",
    "wikiDataId": null
  },
  {
    "id": 86196,
    "name": "Drelów",
    "state_id": 1638,
    "state_code": "06",
    "country_id": 176,
    "country_code": "PL",
    "latitude": "51.91219000",
    "longitude": "22.87165000",
    "wikiDataId": null
  },
  {
    "id": 86205,
    "name": "Dubienka",
    "state_id": 1638,
    "state_code": "06",
    "country_id": 176,
    "country_code": "PL",
    "latitude": "51.04862000",
    "longitude": "23.89252000",
    "wikiDataId": null
  },
  {
    "id": 86232,
    "name": "Dzwola",
    "state_id": 1638,
    "state_code": "06",
    "country_id": 176,
    "country_code": "PL",
    "latitude": "50.69657000",
    "longitude": "22.56729000",
    "wikiDataId": null
  },
  {
    "id": 86267,
    "name": "Fajsławice",
    "state_id": 1638,
    "state_code": "06",
    "country_id": 176,
    "country_code": "PL",
    "latitude": "51.09592000",
    "longitude": "22.96323000",
    "wikiDataId": null
  },
  {
    "id": 86271,
    "name": "Firlej",
    "state_id": 1638,
    "state_code": "06",
    "country_id": 176,
    "country_code": "PL",
    "latitude": "51.55882000",
    "longitude": "22.50841000",
    "wikiDataId": null
  },
  {
    "id": 86273,
    "name": "Frampol",
    "state_id": 1638,
    "state_code": "06",
    "country_id": 176,
    "country_code": "PL",
    "latitude": "50.67159000",
    "longitude": "22.67061000",
    "wikiDataId": null
  },
  {
    "id": 86282,
    "name": "Garbów",
    "state_id": 1638,
    "state_code": "06",
    "country_id": 176,
    "country_code": "PL",
    "latitude": "51.35517000",
    "longitude": "22.32937000",
    "wikiDataId": null
  },
  {
    "id": 86320,
    "name": "Godziszów",
    "state_id": 1638,
    "state_code": "06",
    "country_id": 176,
    "country_code": "PL",
    "latitude": "50.74889000",
    "longitude": "22.49794000",
    "wikiDataId": null
  },
  {
    "id": 86321,
    "name": "Godziszów Pierwszy",
    "state_id": 1638,
    "state_code": "06",
    "country_id": 176,
    "country_code": "PL",
    "latitude": "50.75753000",
    "longitude": "22.48386000",
    "wikiDataId": null
  },
  {
    "id": 86332,
    "name": "Goraj",
    "state_id": 1638,
    "state_code": "06",
    "country_id": 176,
    "country_code": "PL",
    "latitude": "50.72184000",
    "longitude": "22.66651000",
    "wikiDataId": null
  },
  {
    "id": 86337,
    "name": "Gorzków",
    "state_id": 1638,
    "state_code": "06",
    "country_id": 176,
    "country_code": "PL",
    "latitude": "50.94778000",
    "longitude": "23.01267000",
    "wikiDataId": null
  },
  {
    "id": 86360,
    "name": "Gościeradów",
    "state_id": 1638,
    "state_code": "06",
    "country_id": 176,
    "country_code": "PL",
    "latitude": "50.86859000",
    "longitude": "22.00536000",
    "wikiDataId": null
  },
  {
    "id": 86365,
    "name": "Grabowiec",
    "state_id": 1638,
    "state_code": "06",
    "country_id": 176,
    "country_code": "PL",
    "latitude": "50.82090000",
    "longitude": "23.55057000",
    "wikiDataId": null
  },
  {
    "id": 86444,
    "name": "Hańsk",
    "state_id": 1638,
    "state_code": "06",
    "country_id": 176,
    "country_code": "PL",
    "latitude": "51.41286000",
    "longitude": "23.39942000",
    "wikiDataId": null
  },
  {
    "id": 86450,
    "name": "Horodło",
    "state_id": 1638,
    "state_code": "06",
    "country_id": 176,
    "country_code": "PL",
    "latitude": "50.89459000",
    "longitude": "24.03723000",
    "wikiDataId": null
  },
  {
    "id": 86452,
    "name": "Hrubieszów",
    "state_id": 1638,
    "state_code": "06",
    "country_id": 176,
    "country_code": "PL",
    "latitude": "50.80502000",
    "longitude": "23.89251000",
    "wikiDataId": null
  },
  {
    "id": 86468,
    "name": "Izbica",
    "state_id": 1638,
    "state_code": "06",
    "country_id": 176,
    "country_code": "PL",
    "latitude": "50.88728000",
    "longitude": "23.15248000",
    "wikiDataId": null
  },
  {
    "id": 86486,
    "name": "Jabłoń",
    "state_id": 1638,
    "state_code": "06",
    "country_id": 176,
    "country_code": "PL",
    "latitude": "51.72501000",
    "longitude": "23.08743000",
    "wikiDataId": null
  },
  {
    "id": 86481,
    "name": "Jabłonna",
    "state_id": 1638,
    "state_code": "06",
    "country_id": 176,
    "country_code": "PL",
    "latitude": "51.08875000",
    "longitude": "22.59364000",
    "wikiDataId": null
  },
  {
    "id": 86491,
    "name": "Jakubowice Murowane",
    "state_id": 1638,
    "state_code": "06",
    "country_id": 176,
    "country_code": "PL",
    "latitude": "51.26992000",
    "longitude": "22.63415000",
    "wikiDataId": null
  },
  {
    "id": 86503,
    "name": "Janów Lubelski",
    "state_id": 1638,
    "state_code": "06",
    "country_id": 176,
    "country_code": "PL",
    "latitude": "50.70695000",
    "longitude": "22.41039000",
    "wikiDataId": null
  },
  {
    "id": 86504,
    "name": "Janów Podlaski",
    "state_id": 1638,
    "state_code": "06",
    "country_id": 176,
    "country_code": "PL",
    "latitude": "52.19398000",
    "longitude": "23.21218000",
    "wikiDataId": null
  },
  {
    "id": 86500,
    "name": "Janowiec",
    "state_id": 1638,
    "state_code": "06",
    "country_id": 176,
    "country_code": "PL",
    "latitude": "51.32359000",
    "longitude": "21.88940000",
    "wikiDataId": null
  },
  {
    "id": 86506,
    "name": "Jarczów",
    "state_id": 1638,
    "state_code": "06",
    "country_id": 176,
    "country_code": "PL",
    "latitude": "50.42438000",
    "longitude": "23.58576000",
    "wikiDataId": null
  },
  {
    "id": 86521,
    "name": "Jastków",
    "state_id": 1638,
    "state_code": "06",
    "country_id": 176,
    "country_code": "PL",
    "latitude": "51.30411000",
    "longitude": "22.43546000",
    "wikiDataId": null
  },
  {
    "id": 86557,
    "name": "Jeziorzany",
    "state_id": 1638,
    "state_code": "06",
    "country_id": 176,
    "country_code": "PL",
    "latitude": "51.60245000",
    "longitude": "22.27667000",
    "wikiDataId": null
  },
  {
    "id": 86575,
    "name": "Józefów",
    "state_id": 1638,
    "state_code": "06",
    "country_id": 176,
    "country_code": "PL",
    "latitude": "50.48119000",
    "longitude": "23.05404000",
    "wikiDataId": null
  },
  {
    "id": 86577,
    "name": "Józefów nad Wisłą",
    "state_id": 1638,
    "state_code": "06",
    "country_id": 176,
    "country_code": "PL",
    "latitude": "51.04183000",
    "longitude": "21.83018000",
    "wikiDataId": null
  },
  {
    "id": 86603,
    "name": "Kamionka",
    "state_id": 1638,
    "state_code": "06",
    "country_id": 176,
    "country_code": "PL",
    "latitude": "51.47165000",
    "longitude": "22.46275000",
    "wikiDataId": null
  },
  {
    "id": 86610,
    "name": "Karczmiska",
    "state_id": 1638,
    "state_code": "06",
    "country_id": 176,
    "country_code": "PL",
    "latitude": "51.22952000",
    "longitude": "21.98158000",
    "wikiDataId": null
  },
  {
    "id": 86626,
    "name": "Kazimierz Dolny",
    "state_id": 1638,
    "state_code": "06",
    "country_id": 176,
    "country_code": "PL",
    "latitude": "51.31911000",
    "longitude": "21.95502000",
    "wikiDataId": null
  },
  {
    "id": 86863,
    "name": "Kłoczew",
    "state_id": 1638,
    "state_code": "06",
    "country_id": 176,
    "country_code": "PL",
    "latitude": "51.72134000",
    "longitude": "21.96493000",
    "wikiDataId": null
  },
  {
    "id": 86672,
    "name": "Kock",
    "state_id": 1638,
    "state_code": "06",
    "country_id": 176,
    "country_code": "PL",
    "latitude": "51.63997000",
    "longitude": "22.44391000",
    "wikiDataId": null
  },
  {
    "id": 86674,
    "name": "Kodeń",
    "state_id": 1638,
    "state_code": "06",
    "country_id": 176,
    "country_code": "PL",
    "latitude": "51.91171000",
    "longitude": "23.60301000",
    "wikiDataId": null
  },
  {
    "id": 86683,
    "name": "Komarów-Osada",
    "state_id": 1638,
    "state_code": "06",
    "country_id": 176,
    "country_code": "PL",
    "latitude": "50.62888000",
    "longitude": "23.47740000",
    "wikiDataId": null
  },
  {
    "id": 86684,
    "name": "Komarówka Podlaska",
    "state_id": 1638,
    "state_code": "06",
    "country_id": 176,
    "country_code": "PL",
    "latitude": "51.80315000",
    "longitude": "22.94392000",
    "wikiDataId": null
  },
  {
    "id": 86751,
    "name": "Końskowola",
    "state_id": 1638,
    "state_code": "06",
    "country_id": 176,
    "country_code": "PL",
    "latitude": "51.40922000",
    "longitude": "22.05175000",
    "wikiDataId": null
  },
  {
    "id": 86697,
    "name": "Konstantynów",
    "state_id": 1638,
    "state_code": "06",
    "country_id": 176,
    "country_code": "PL",
    "latitude": "52.20746000",
    "longitude": "23.08530000",
    "wikiDataId": null
  },
  {
    "id": 86736,
    "name": "Kozubszczyzna",
    "state_id": 1638,
    "state_code": "06",
    "country_id": 176,
    "country_code": "PL",
    "latitude": "51.22323000",
    "longitude": "22.42747000",
    "wikiDataId": null
  },
  {
    "id": 86776,
    "name": "Kraśniczyn",
    "state_id": 1638,
    "state_code": "06",
    "country_id": 176,
    "country_code": "PL",
    "latitude": "50.93171000",
    "longitude": "23.34929000",
    "wikiDataId": null
  },
  {
    "id": 86777,
    "name": "Kraśnik",
    "state_id": 1638,
    "state_code": "06",
    "country_id": 176,
    "country_code": "PL",
    "latitude": "50.92360000",
    "longitude": "22.22706000",
    "wikiDataId": null
  },
  {
    "id": 86770,
    "name": "Krasnobród",
    "state_id": 1638,
    "state_code": "06",
    "country_id": 176,
    "country_code": "PL",
    "latitude": "50.54551000",
    "longitude": "23.21308000",
    "wikiDataId": null
  },
  {
    "id": 86773,
    "name": "Krasnystaw",
    "state_id": 1638,
    "state_code": "06",
    "country_id": 176,
    "country_code": "PL",
    "latitude": "50.98464000",
    "longitude": "23.17420000",
    "wikiDataId": null
  },
  {
    "id": 86796,
    "name": "Krynice",
    "state_id": 1638,
    "state_code": "06",
    "country_id": 176,
    "country_code": "PL",
    "latitude": "50.58760000",
    "longitude": "23.38157000",
    "wikiDataId": null
  },
  {
    "id": 86802,
    "name": "Krzczonów",
    "state_id": 1638,
    "state_code": "06",
    "country_id": 176,
    "country_code": "PL",
    "latitude": "51.00727000",
    "longitude": "22.71097000",
    "wikiDataId": null
  },
  {
    "id": 86819,
    "name": "Krzywda",
    "state_id": 1638,
    "state_code": "06",
    "country_id": 176,
    "country_code": "PL",
    "latitude": "51.79519000",
    "longitude": "22.19994000",
    "wikiDataId": null
  },
  {
    "id": 86832,
    "name": "Księżomierz",
    "state_id": 1638,
    "state_code": "06",
    "country_id": 176,
    "country_code": "PL",
    "latitude": "50.90855000",
    "longitude": "21.98965000",
    "wikiDataId": null
  },
  {
    "id": 86833,
    "name": "Księżpol",
    "state_id": 1638,
    "state_code": "06",
    "country_id": 176,
    "country_code": "PL",
    "latitude": "50.42323000",
    "longitude": "22.73526000",
    "wikiDataId": null
  },
  {
    "id": 86843,
    "name": "Kurów",
    "state_id": 1638,
    "state_code": "06",
    "country_id": 176,
    "country_code": "PL",
    "latitude": "51.38941000",
    "longitude": "22.18637000",
    "wikiDataId": null
  },
  {
    "id": 86890,
    "name": "Leśna Podlaska",
    "state_id": 1638,
    "state_code": "06",
    "country_id": 176,
    "country_code": "PL",
    "latitude": "52.13317000",
    "longitude": "23.02786000",
    "wikiDataId": null
  },
  {
    "id": 86932,
    "name": "Lubartów",
    "state_id": 1638,
    "state_code": "06",
    "country_id": 176,
    "country_code": "PL",
    "latitude": "51.46026000",
    "longitude": "22.60952000",
    "wikiDataId": null
  },
  {
    "id": 86947,
    "name": "Lublin",
    "state_id": 1638,
    "state_code": "06",
    "country_id": 176,
    "country_code": "PL",
    "latitude": "51.25000000",
    "longitude": "22.56667000",
    "wikiDataId": null
  },
  {
    "id": 86962,
    "name": "Lubycza Królewska",
    "state_id": 1638,
    "state_code": "06",
    "country_id": 176,
    "country_code": "PL",
    "latitude": "50.34102000",
    "longitude": "23.51941000",
    "wikiDataId": null
  },
  {
    "id": 86964,
    "name": "Ludwin",
    "state_id": 1638,
    "state_code": "06",
    "country_id": 176,
    "country_code": "PL",
    "latitude": "51.34605000",
    "longitude": "22.90581000",
    "wikiDataId": null
  },
  {
    "id": 88757,
    "name": "Łabunie",
    "state_id": 1638,
    "state_code": "06",
    "country_id": 176,
    "country_code": "PL",
    "latitude": "50.65517000",
    "longitude": "23.36620000",
    "wikiDataId": null
  },
  {
    "id": 88772,
    "name": "Łaszczów",
    "state_id": 1638,
    "state_code": "06",
    "country_id": 176,
    "country_code": "PL",
    "latitude": "50.53332000",
    "longitude": "23.72562000",
    "wikiDataId": null
  },
  {
    "id": 88773,
    "name": "Łaziska",
    "state_id": 1638,
    "state_code": "06",
    "country_id": 176,
    "country_code": "PL",
    "latitude": "51.14226000",
    "longitude": "21.87919000",
    "wikiDataId": null
  },
  {
    "id": 88816,
    "name": "Łęczna",
    "state_id": 1638,
    "state_code": "06",
    "country_id": 176,
    "country_code": "PL",
    "latitude": "51.30121000",
    "longitude": "22.88135000",
    "wikiDataId": null
  },
  {
    "id": 88784,
    "name": "Łomazy",
    "state_id": 1638,
    "state_code": "06",
    "country_id": 176,
    "country_code": "PL",
    "latitude": "51.90435000",
    "longitude": "23.17656000",
    "wikiDataId": null
  },
  {
    "id": 88788,
    "name": "Łopiennik Górny",
    "state_id": 1638,
    "state_code": "06",
    "country_id": 176,
    "country_code": "PL",
    "latitude": "51.04080000",
    "longitude": "23.01833000",
    "wikiDataId": null
  },
  {
    "id": 88805,
    "name": "Łuków",
    "state_id": 1638,
    "state_code": "06",
    "country_id": 176,
    "country_code": "PL",
    "latitude": "51.92900000",
    "longitude": "22.37956000",
    "wikiDataId": null
  },
  {
    "id": 88803,
    "name": "Łukowa",
    "state_id": 1638,
    "state_code": "06",
    "country_id": 176,
    "country_code": "PL",
    "latitude": "50.37426000",
    "longitude": "22.94349000",
    "wikiDataId": null
  },
  {
    "id": 86996,
    "name": "Markuszów",
    "state_id": 1638,
    "state_code": "06",
    "country_id": 176,
    "country_code": "PL",
    "latitude": "51.37457000",
    "longitude": "22.25804000",
    "wikiDataId": null
  },
  {
    "id": 87014,
    "name": "Mełgiew",
    "state_id": 1638,
    "state_code": "06",
    "country_id": 176,
    "country_code": "PL",
    "latitude": "51.22519000",
    "longitude": "22.78414000",
    "wikiDataId": null
  },
  {
    "id": 87058,
    "name": "Miączyn",
    "state_id": 1638,
    "state_code": "06",
    "country_id": 176,
    "country_code": "PL",
    "latitude": "50.73825000",
    "longitude": "23.50130000",
    "wikiDataId": null
  },
  {
    "id": 87022,
    "name": "Michałów",
    "state_id": 1638,
    "state_code": "06",
    "country_id": 176,
    "country_code": "PL",
    "latitude": "50.54709000",
    "longitude": "23.60361000",
    "wikiDataId": null
  },
  {
    "id": 87025,
    "name": "Michów",
    "state_id": 1638,
    "state_code": "06",
    "country_id": 176,
    "country_code": "PL",
    "latitude": "51.52573000",
    "longitude": "22.31435000",
    "wikiDataId": null
  },
  {
    "id": 87064,
    "name": "Międzyrzec Podlaski",
    "state_id": 1638,
    "state_code": "06",
    "country_id": 176,
    "country_code": "PL",
    "latitude": "51.98640000",
    "longitude": "22.78248000",
    "wikiDataId": null
  },
  {
    "id": 87046,
    "name": "Milanów",
    "state_id": 1638,
    "state_code": "06",
    "country_id": 176,
    "country_code": "PL",
    "latitude": "51.70374000",
    "longitude": "22.88830000",
    "wikiDataId": null
  },
  {
    "id": 87049,
    "name": "Milejów",
    "state_id": 1638,
    "state_code": "06",
    "country_id": 176,
    "country_code": "PL",
    "latitude": "51.23226000",
    "longitude": "22.92443000",
    "wikiDataId": null
  },
  {
    "id": 87052,
    "name": "Mircze",
    "state_id": 1638,
    "state_code": "06",
    "country_id": 176,
    "country_code": "PL",
    "latitude": "50.65164000",
    "longitude": "23.89604000",
    "wikiDataId": null
  },
  {
    "id": 87081,
    "name": "Modliborzyce",
    "state_id": 1638,
    "state_code": "06",
    "country_id": 176,
    "country_code": "PL",
    "latitude": "50.75416000",
    "longitude": "22.32945000",
    "wikiDataId": null
  },
  {
    "id": 87143,
    "name": "Nałęczów",
    "state_id": 1638,
    "state_code": "06",
    "country_id": 176,
    "country_code": "PL",
    "latitude": "51.28581000",
    "longitude": "22.21539000",
    "wikiDataId": null
  },
  {
    "id": 87155,
    "name": "Niedrzwica Duża",
    "state_id": 1638,
    "state_code": "06",
    "country_id": 176,
    "country_code": "PL",
    "latitude": "51.11462000",
    "longitude": "22.38911000",
    "wikiDataId": null
  },
  {
    "id": 87157,
    "name": "Niedźwiada",
    "state_id": 1638,
    "state_code": "06",
    "country_id": 176,
    "country_code": "PL",
    "latitude": "51.54409000",
    "longitude": "22.69140000",
    "wikiDataId": null
  },
  {
    "id": 87161,
    "name": "Nielisz",
    "state_id": 1638,
    "state_code": "06",
    "country_id": 176,
    "country_code": "PL",
    "latitude": "50.80067000",
    "longitude": "23.04451000",
    "wikiDataId": null
  },
  {
    "id": 87162,
    "name": "Niemce",
    "state_id": 1638,
    "state_code": "06",
    "country_id": 176,
    "country_code": "PL",
    "latitude": "51.36155000",
    "longitude": "22.63939000",
    "wikiDataId": null
  },
  {
    "id": 87193,
    "name": "Nowodwór",
    "state_id": 1638,
    "state_code": "06",
    "country_id": 176,
    "country_code": "PL",
    "latitude": "51.63901000",
    "longitude": "22.10183000",
    "wikiDataId": null
  },
  {
    "id": 87222,
    "name": "Obsza",
    "state_id": 1638,
    "state_code": "06",
    "country_id": 176,
    "country_code": "PL",
    "latitude": "50.31520000",
    "longitude": "22.95688000",
    "wikiDataId": null
  },
  {
    "id": 87263,
    "name": "Opole Lubelskie",
    "state_id": 1638,
    "state_code": "06",
    "country_id": 176,
    "country_code": "PL",
    "latitude": "51.14775000",
    "longitude": "21.96897000",
    "wikiDataId": null
  },
  {
    "id": 87309,
    "name": "Ostrów Lubelski",
    "state_id": 1638,
    "state_code": "06",
    "country_id": 176,
    "country_code": "PL",
    "latitude": "51.49416000",
    "longitude": "22.85287000",
    "wikiDataId": null
  },
  {
    "id": 87313,
    "name": "Ostrówek",
    "state_id": 1638,
    "state_code": "06",
    "country_id": 176,
    "country_code": "PL",
    "latitude": "51.58150000",
    "longitude": "22.61227000",
    "wikiDataId": null
  },
  {
    "id": 87347,
    "name": "Parczew",
    "state_id": 1638,
    "state_code": "06",
    "country_id": 176,
    "country_code": "PL",
    "latitude": "51.64021000",
    "longitude": "22.90057000",
    "wikiDataId": null
  },
  {
    "id": 87370,
    "name": "Piaski",
    "state_id": 1638,
    "state_code": "06",
    "country_id": 176,
    "country_code": "PL",
    "latitude": "51.13892000",
    "longitude": "22.84856000",
    "wikiDataId": null
  },
  {
    "id": 87399,
    "name": "Piszczac",
    "state_id": 1638,
    "state_code": "06",
    "country_id": 176,
    "country_code": "PL",
    "latitude": "51.98118000",
    "longitude": "23.37719000",
    "wikiDataId": null
  },
  {
    "id": 87414,
    "name": "Podedwórze",
    "state_id": 1638,
    "state_code": "06",
    "country_id": 176,
    "country_code": "PL",
    "latitude": "51.68815000",
    "longitude": "23.19961000",
    "wikiDataId": null
  },
  {
    "id": 87428,
    "name": "Pokrówka",
    "state_id": 1638,
    "state_code": "06",
    "country_id": 176,
    "country_code": "PL",
    "latitude": "51.09479000",
    "longitude": "23.46345000",
    "wikiDataId": null
  },
  {
    "id": 87439,
    "name": "Poniatowa",
    "state_id": 1638,
    "state_code": "06",
    "country_id": 176,
    "country_code": "PL",
    "latitude": "51.17983000",
    "longitude": "22.13093000",
    "wikiDataId": null
  },
  {
    "id": 87452,
    "name": "Potok Górny",
    "state_id": 1638,
    "state_code": "06",
    "country_id": 176,
    "country_code": "PL",
    "latitude": "50.38477000",
    "longitude": "22.56188000",
    "wikiDataId": null
  },
  {
    "id": 87453,
    "name": "Potok Wielki",
    "state_id": 1638,
    "state_code": "06",
    "country_id": 176,
    "country_code": "PL",
    "latitude": "50.79150000",
    "longitude": "22.21642000",
    "wikiDataId": null
  },
  {
    "id": 87832,
    "name": "Przytoczno",
    "state_id": 1638,
    "state_code": "06",
    "country_id": 176,
    "country_code": "PL",
    "latitude": "51.61951000",
    "longitude": "22.27135000",
    "wikiDataId": null
  },
  {
    "id": 87846,
    "name": "Puchaczów",
    "state_id": 1638,
    "state_code": "06",
    "country_id": 176,
    "country_code": "PL",
    "latitude": "51.31050000",
    "longitude": "22.97370000",
    "wikiDataId": null
  },
  {
    "id": 87851,
    "name": "Puławy",
    "state_id": 1638,
    "state_code": "06",
    "country_id": 176,
    "country_code": "PL",
    "latitude": "51.41655000",
    "longitude": "21.96939000",
    "wikiDataId": null
  },
  {
    "id": 87871,
    "name": "Rachanie",
    "state_id": 1638,
    "state_code": "06",
    "country_id": 176,
    "country_code": "PL",
    "latitude": "50.53842000",
    "longitude": "23.54688000",
    "wikiDataId": null
  },
  {
    "id": 87879,
    "name": "Radecznica",
    "state_id": 1638,
    "state_code": "06",
    "country_id": 176,
    "country_code": "PL",
    "latitude": "50.75155000",
    "longitude": "22.82976000",
    "wikiDataId": null
  },
  {
    "id": 87904,
    "name": "Radzyń Podlaski",
    "state_id": 1638,
    "state_code": "06",
    "country_id": 176,
    "country_code": "PL",
    "latitude": "51.78333000",
    "longitude": "22.61667000",
    "wikiDataId": null
  },
  {
    "id": 87933,
    "name": "Rejowiec",
    "state_id": 1638,
    "state_code": "06",
    "country_id": 176,
    "country_code": "PL",
    "latitude": "51.09134000",
    "longitude": "23.28192000",
    "wikiDataId": null
  },
  {
    "id": 87934,
    "name": "Rejowiec Fabryczny",
    "state_id": 1638,
    "state_code": "06",
    "country_id": 176,
    "country_code": "PL",
    "latitude": "51.11414000",
    "longitude": "23.24724000",
    "wikiDataId": null
  },
  {
    "id": 87951,
    "name": "Rogóźno",
    "state_id": 1638,
    "state_code": "06",
    "country_id": 176,
    "country_code": "PL",
    "latitude": "50.46417000",
    "longitude": "23.39041000",
    "wikiDataId": null
  },
  {
    "id": 87958,
    "name": "Rokitno",
    "state_id": 1638,
    "state_code": "06",
    "country_id": 176,
    "country_code": "PL",
    "latitude": "52.12142000",
    "longitude": "23.29514000",
    "wikiDataId": null
  },
  {
    "id": 87972,
    "name": "Ruda-Huta",
    "state_id": 1638,
    "state_code": "06",
    "country_id": 176,
    "country_code": "PL",
    "latitude": "51.23666000",
    "longitude": "23.59486000",
    "wikiDataId": null
  },
  {
    "id": 87978,
    "name": "Rudnik",
    "state_id": 1638,
    "state_code": "06",
    "country_id": 176,
    "country_code": "PL",
    "latitude": "50.88035000",
    "longitude": "22.97293000",
    "wikiDataId": null
  },
  {
    "id": 87992,
    "name": "Rybczewice",
    "state_id": 1638,
    "state_code": "06",
    "country_id": 176,
    "country_code": "PL",
    "latitude": "51.02876000",
    "longitude": "22.85053000",
    "wikiDataId": null
  },
  {
    "id": 88008,
    "name": "Ryki",
    "state_id": 1638,
    "state_code": "06",
    "country_id": 176,
    "country_code": "PL",
    "latitude": "51.62574000",
    "longitude": "21.93274000",
    "wikiDataId": null
  },
  {
    "id": 88018,
    "name": "Rzeczyca",
    "state_id": 1638,
    "state_code": "06",
    "country_id": 176,
    "country_code": "PL",
    "latitude": "51.96225000",
    "longitude": "22.74942000",
    "wikiDataId": null
  },
  {
    "id": 88053,
    "name": "Sawin",
    "state_id": 1638,
    "state_code": "06",
    "country_id": 176,
    "country_code": "PL",
    "latitude": "51.27443000",
    "longitude": "23.43375000",
    "wikiDataId": null
  },
  {
    "id": 88056,
    "name": "Serniki",
    "state_id": 1638,
    "state_code": "06",
    "country_id": 176,
    "country_code": "PL",
    "latitude": "51.43716000",
    "longitude": "22.65853000",
    "wikiDataId": null
  },
  {
    "id": 88058,
    "name": "Serokomla",
    "state_id": 1638,
    "state_code": "06",
    "country_id": 176,
    "country_code": "PL",
    "latitude": "51.70070000",
    "longitude": "22.33237000",
    "wikiDataId": null
  },
  {
    "id": 88074,
    "name": "Siemień",
    "state_id": 1638,
    "state_code": "06",
    "country_id": 176,
    "country_code": "PL",
    "latitude": "51.62883000",
    "longitude": "22.77243000",
    "wikiDataId": null
  },
  {
    "id": 88082,
    "name": "Siennica Różana",
    "state_id": 1638,
    "state_code": "06",
    "country_id": 176,
    "country_code": "PL",
    "latitude": "51.00123000",
    "longitude": "23.32260000",
    "wikiDataId": null
  },
  {
    "id": 88094,
    "name": "Sitno",
    "state_id": 1638,
    "state_code": "06",
    "country_id": 176,
    "country_code": "PL",
    "latitude": "50.74944000",
    "longitude": "23.36260000",
    "wikiDataId": null
  },
  {
    "id": 88106,
    "name": "Skierbieszów",
    "state_id": 1638,
    "state_code": "06",
    "country_id": 176,
    "country_code": "PL",
    "latitude": "50.85158000",
    "longitude": "23.35917000",
    "wikiDataId": null
  },
  {
    "id": 88335,
    "name": "Sławatycze",
    "state_id": 1638,
    "state_code": "06",
    "country_id": 176,
    "country_code": "PL",
    "latitude": "51.76338000",
    "longitude": "23.55460000",
    "wikiDataId": null
  },
  {
    "id": 88150,
    "name": "Sosnowica",
    "state_id": 1638,
    "state_code": "06",
    "country_id": 176,
    "country_code": "PL",
    "latitude": "51.52065000",
    "longitude": "23.09215000",
    "wikiDataId": null
  },
  {
    "id": 88153,
    "name": "Sosnówka",
    "state_id": 1638,
    "state_code": "06",
    "country_id": 176,
    "country_code": "PL",
    "latitude": "51.75084000",
    "longitude": "23.33814000",
    "wikiDataId": null
  },
  {
    "id": 88161,
    "name": "Spiczyn",
    "state_id": 1638,
    "state_code": "06",
    "country_id": 176,
    "country_code": "PL",
    "latitude": "51.34128000",
    "longitude": "22.75354000",
    "wikiDataId": null
  },
  {
    "id": 88197,
    "name": "Stary Zamość",
    "state_id": 1638,
    "state_code": "06",
    "country_id": 176,
    "country_code": "PL",
    "latitude": "50.82004000",
    "longitude": "23.17154000",
    "wikiDataId": null
  },
  {
    "id": 88244,
    "name": "Stężyca",
    "state_id": 1638,
    "state_code": "06",
    "country_id": 176,
    "country_code": "PL",
    "latitude": "51.58187000",
    "longitude": "21.77087000",
    "wikiDataId": null
  },
  {
    "id": 88206,
    "name": "Stoczek Łukowski",
    "state_id": 1638,
    "state_code": "06",
    "country_id": 176,
    "country_code": "PL",
    "latitude": "51.96135000",
    "longitude": "21.97137000",
    "wikiDataId": null
  },
  {
    "id": 88234,
    "name": "Strzyżowice",
    "state_id": 1638,
    "state_code": "06",
    "country_id": 176,
    "country_code": "PL",
    "latitude": "51.04830000",
    "longitude": "22.44018000",
    "wikiDataId": null
  },
  {
    "id": 88273,
    "name": "Sułów",
    "state_id": 1638,
    "state_code": "06",
    "country_id": 176,
    "country_code": "PL",
    "latitude": "50.90661000",
    "longitude": "22.36061000",
    "wikiDataId": null
  },
  {
    "id": 88266,
    "name": "Susiec",
    "state_id": 1638,
    "state_code": "06",
    "country_id": 176,
    "country_code": "PL",
    "latitude": "50.41973000",
    "longitude": "23.19626000",
    "wikiDataId": null
  },
  {
    "id": 88843,
    "name": "Świdnik",
    "state_id": 1638,
    "state_code": "06",
    "country_id": 176,
    "country_code": "PL",
    "latitude": "51.21898000",
    "longitude": "22.69621000",
    "wikiDataId": null
  },
  {
    "id": 88288,
    "name": "Szastarka",
    "state_id": 1638,
    "state_code": "06",
    "country_id": 176,
    "country_code": "PL",
    "latitude": "50.85527000",
    "longitude": "22.31971000",
    "wikiDataId": null
  },
  {
    "id": 88292,
    "name": "Szczebrzeszyn",
    "state_id": 1638,
    "state_code": "06",
    "country_id": 176,
    "country_code": "PL",
    "latitude": "50.69499000",
    "longitude": "22.97954000",
    "wikiDataId": null
  },
  {
    "id": 88358,
    "name": "Tarnawatka",
    "state_id": 1638,
    "state_code": "06",
    "country_id": 176,
    "country_code": "PL",
    "latitude": "50.53154000",
    "longitude": "23.39590000",
    "wikiDataId": null
  },
  {
    "id": 88360,
    "name": "Tarnogród",
    "state_id": 1638,
    "state_code": "06",
    "country_id": 176,
    "country_code": "PL",
    "latitude": "50.36090000",
    "longitude": "22.74174000",
    "wikiDataId": null
  },
  {
    "id": 88371,
    "name": "Telatyn",
    "state_id": 1638,
    "state_code": "06",
    "country_id": 176,
    "country_code": "PL",
    "latitude": "50.52712000",
    "longitude": "23.83956000",
    "wikiDataId": null
  },
  {
    "id": 88374,
    "name": "Terespol",
    "state_id": 1638,
    "state_code": "06",
    "country_id": 176,
    "country_code": "PL",
    "latitude": "52.07550000",
    "longitude": "23.61614000",
    "wikiDataId": null
  },
  {
    "id": 88375,
    "name": "Tereszpol",
    "state_id": 1638,
    "state_code": "06",
    "country_id": 176,
    "country_code": "PL",
    "latitude": "50.58373000",
    "longitude": "22.87980000",
    "wikiDataId": null
  },
  {
    "id": 88379,
    "name": "Tomaszów Lubelski",
    "state_id": 1638,
    "state_code": "06",
    "country_id": 176,
    "country_code": "PL",
    "latitude": "50.44767000",
    "longitude": "23.41616000",
    "wikiDataId": null
  },
  {
    "id": 88388,
    "name": "Trawniki",
    "state_id": 1638,
    "state_code": "06",
    "country_id": 176,
    "country_code": "PL",
    "latitude": "51.13633000",
    "longitude": "22.99816000",
    "wikiDataId": null
  },
  {
    "id": 88405,
    "name": "Trzebieszów",
    "state_id": 1638,
    "state_code": "06",
    "country_id": 176,
    "country_code": "PL",
    "latitude": "51.99006000",
    "longitude": "22.55502000",
    "wikiDataId": null
  },
  {
    "id": 88413,
    "name": "Trzydnik Duży",
    "state_id": 1638,
    "state_code": "06",
    "country_id": 176,
    "country_code": "PL",
    "latitude": "50.84887000",
    "longitude": "22.13359000",
    "wikiDataId": null
  },
  {
    "id": 88425,
    "name": "Turobin",
    "state_id": 1638,
    "state_code": "06",
    "country_id": 176,
    "country_code": "PL",
    "latitude": "50.82367000",
    "longitude": "22.74273000",
    "wikiDataId": null
  },
  {
    "id": 88443,
    "name": "Tyszowce",
    "state_id": 1638,
    "state_code": "06",
    "country_id": 176,
    "country_code": "PL",
    "latitude": "50.61699000",
    "longitude": "23.69927000",
    "wikiDataId": null
  },
  {
    "id": 88454,
    "name": "Ulhówek",
    "state_id": 1638,
    "state_code": "06",
    "country_id": 176,
    "country_code": "PL",
    "latitude": "50.44969000",
    "longitude": "23.79956000",
    "wikiDataId": null
  },
  {
    "id": 88466,
    "name": "Ułęż",
    "state_id": 1638,
    "state_code": "06",
    "country_id": 176,
    "country_code": "PL",
    "latitude": "51.59195000",
    "longitude": "22.10741000",
    "wikiDataId": null
  },
  {
    "id": 88459,
    "name": "Urszulin",
    "state_id": 1638,
    "state_code": "06",
    "country_id": 176,
    "country_code": "PL",
    "latitude": "51.39390000",
    "longitude": "23.19480000",
    "wikiDataId": null
  },
  {
    "id": 88461,
    "name": "Urzędów",
    "state_id": 1638,
    "state_code": "06",
    "country_id": 176,
    "country_code": "PL",
    "latitude": "50.99323000",
    "longitude": "22.14260000",
    "wikiDataId": null
  },
  {
    "id": 88468,
    "name": "Uścimów Stary",
    "state_id": 1638,
    "state_code": "06",
    "country_id": 176,
    "country_code": "PL",
    "latitude": "51.46962000",
    "longitude": "22.95516000",
    "wikiDataId": null
  },
  {
    "id": 88637,
    "name": "Wąwolnica",
    "state_id": 1638,
    "state_code": "06",
    "country_id": 176,
    "country_code": "PL",
    "latitude": "51.29467000",
    "longitude": "22.14681000",
    "wikiDataId": null
  },
  {
    "id": 88491,
    "name": "Werbkowice",
    "state_id": 1638,
    "state_code": "06",
    "country_id": 176,
    "country_code": "PL",
    "latitude": "50.75373000",
    "longitude": "23.76411000",
    "wikiDataId": null
  },
  {
    "id": 88540,
    "name": "Wilkołaz",
    "state_id": 1638,
    "state_code": "06",
    "country_id": 176,
    "country_code": "PL",
    "latitude": "51.01473000",
    "longitude": "22.35014000",
    "wikiDataId": null
  },
  {
    "id": 88541,
    "name": "Wilków",
    "state_id": 1638,
    "state_code": "06",
    "country_id": 176,
    "country_code": "PL",
    "latitude": "51.26224000",
    "longitude": "21.87756000",
    "wikiDataId": null
  },
  {
    "id": 88546,
    "name": "Wisznice",
    "state_id": 1638,
    "state_code": "06",
    "country_id": 176,
    "country_code": "PL",
    "latitude": "51.78924000",
    "longitude": "23.20836000",
    "wikiDataId": null
  },
  {
    "id": 88650,
    "name": "Włodawa",
    "state_id": 1638,
    "state_code": "06",
    "country_id": 176,
    "country_code": "PL",
    "latitude": "51.55000000",
    "longitude": "23.55000000",
    "wikiDataId": null
  },
  {
    "id": 88570,
    "name": "Wohyń",
    "state_id": 1638,
    "state_code": "06",
    "country_id": 176,
    "country_code": "PL",
    "latitude": "51.75642000",
    "longitude": "22.78582000",
    "wikiDataId": null
  },
  {
    "id": 88573,
    "name": "Wojciechów",
    "state_id": 1638,
    "state_code": "06",
    "country_id": 176,
    "country_code": "PL",
    "latitude": "51.23543000",
    "longitude": "22.24551000",
    "wikiDataId": null
  },
  {
    "id": 88574,
    "name": "Wojcieszków",
    "state_id": 1638,
    "state_code": "06",
    "country_id": 176,
    "country_code": "PL",
    "latitude": "51.76922000",
    "longitude": "22.31589000",
    "wikiDataId": null
  },
  {
    "id": 88579,
    "name": "Wojsławice",
    "state_id": 1638,
    "state_code": "06",
    "country_id": 176,
    "country_code": "PL",
    "latitude": "50.91916000",
    "longitude": "23.54602000",
    "wikiDataId": null
  },
  {
    "id": 88589,
    "name": "Wola Sernicka",
    "state_id": 1638,
    "state_code": "06",
    "country_id": 176,
    "country_code": "PL",
    "latitude": "51.44978000",
    "longitude": "22.68351000",
    "wikiDataId": null
  },
  {
    "id": 88590,
    "name": "Wola Uhruska",
    "state_id": 1638,
    "state_code": "06",
    "country_id": 176,
    "country_code": "PL",
    "latitude": "51.32139000",
    "longitude": "23.62627000",
    "wikiDataId": null
  },
  {
    "id": 88621,
    "name": "Wysokie",
    "state_id": 1638,
    "state_code": "06",
    "country_id": 176,
    "country_code": "PL",
    "latitude": "50.91093000",
    "longitude": "22.66600000",
    "wikiDataId": null
  },
  {
    "id": 88678,
    "name": "Zakrzew",
    "state_id": 1638,
    "state_code": "06",
    "country_id": 176,
    "country_code": "PL",
    "latitude": "50.89004000",
    "longitude": "22.59115000",
    "wikiDataId": null
  },
  {
    "id": 88682,
    "name": "Zakrzówek",
    "state_id": 1638,
    "state_code": "06",
    "country_id": 176,
    "country_code": "PL",
    "latitude": "50.95124000",
    "longitude": "22.38138000",
    "wikiDataId": null
  },
  {
    "id": 88691,
    "name": "Zamch",
    "state_id": 1638,
    "state_code": "06",
    "country_id": 176,
    "country_code": "PL",
    "latitude": "50.31713000",
    "longitude": "23.02786000",
    "wikiDataId": null
  },
  {
    "id": 88692,
    "name": "Zamość",
    "state_id": 1638,
    "state_code": "06",
    "country_id": 176,
    "country_code": "PL",
    "latitude": "50.72314000",
    "longitude": "23.25196000",
    "wikiDataId": null
  },
  {
    "id": 88903,
    "name": "Żółkiewka",
    "state_id": 1638,
    "state_code": "06",
    "country_id": 176,
    "country_code": "PL",
    "latitude": "50.90991000",
    "longitude": "22.83465000",
    "wikiDataId": null
  },
  {
    "id": 88735,
    "name": "Zwierzyniec",
    "state_id": 1638,
    "state_code": "06",
    "country_id": 176,
    "country_code": "PL",
    "latitude": "50.61400000",
    "longitude": "22.97512000",
    "wikiDataId": null
  },
  {
    "id": 88900,
    "name": "Żyrzyn",
    "state_id": 1638,
    "state_code": "06",
    "country_id": 176,
    "country_code": "PL",
    "latitude": "51.49918000",
    "longitude": "22.09170000",
    "wikiDataId": null
  }
]