[
  {
    "id": 48246,
    "name": "Ammanford",
    "state_id": 2433,
    "state_code": "SWA",
    "country_id": 232,
    "country_code": "GB",
    "latitude": "51.79279000",
    "longitude": "-3.98833000",
    "wikiDataId": null
  },
  {
    "id": 48533,
    "name": "Bishopston",
    "state_id": 2433,
    "state_code": "SWA",
    "country_id": 232,
    "country_code": "GB",
    "latitude": "51.57750000",
    "longitude": "-4.04806000",
    "wikiDataId": null
  },
  {
    "id": 48784,
    "name": "Burry Port",
    "state_id": 2433,
    "state_code": "SWA",
    "country_id": 232,
    "country_code": "GB",
    "latitude": "51.68435000",
    "longitude": "-4.24687000",
    "wikiDataId": null
  },
  {
    "id": 49005,
    "name": "City and County of Swansea",
    "state_id": 2433,
    "state_code": "SWA",
    "country_id": 232,
    "country_code": "GB",
    "latitude": "51.58333000",
    "longitude": "-4.00000000",
    "wikiDataId": null
  },
  {
    "id": 49042,
    "name": "Clydach",
    "state_id": 2433,
    "state_code": "SWA",
    "country_id": 232,
    "country_code": "GB",
    "latitude": "51.68333000",
    "longitude": "-3.90000000",
    "wikiDataId": null
  },
  {
    "id": 49165,
    "name": "Crofty",
    "state_id": 2433,
    "state_code": "SWA",
    "country_id": 232,
    "country_code": "GB",
    "latitude": "51.63448000",
    "longitude": "-4.12937000",
    "wikiDataId": null
  },
  {
    "id": 49647,
    "name": "Glanamman",
    "state_id": 2433,
    "state_code": "SWA",
    "country_id": 232,
    "country_code": "GB",
    "latitude": "51.80000000",
    "longitude": "-3.93333000",
    "wikiDataId": null
  },
  {
    "id": 49684,
    "name": "Gorseinon",
    "state_id": 2433,
    "state_code": "SWA",
    "country_id": 232,
    "country_code": "GB",
    "latitude": "51.66931000",
    "longitude": "-4.04163000",
    "wikiDataId": null
  },
  {
    "id": 49759,
    "name": "Grovesend",
    "state_id": 2433,
    "state_code": "SWA",
    "country_id": 232,
    "country_code": "GB",
    "latitude": "51.68472000",
    "longitude": "-4.03833000",
    "wikiDataId": null
  },
  {
    "id": 50350,
    "name": "Llanelli",
    "state_id": 2433,
    "state_code": "SWA",
    "country_id": 232,
    "country_code": "GB",
    "latitude": "51.68195000",
    "longitude": "-4.16191000",
    "wikiDataId": null
  },
  {
    "id": 50875,
    "name": "Pen-clawdd",
    "state_id": 2433,
    "state_code": "SWA",
    "country_id": 232,
    "country_code": "GB",
    "latitude": "51.64028000",
    "longitude": "-4.09917000",
    "wikiDataId": null
  },
  {
    "id": 50937,
    "name": "Pontarddulais",
    "state_id": 2433,
    "state_code": "SWA",
    "country_id": 232,
    "country_code": "GB",
    "latitude": "51.71423000",
    "longitude": "-4.03859000",
    "wikiDataId": null
  },
  {
    "id": 50941,
    "name": "Pontlliw",
    "state_id": 2433,
    "state_code": "SWA",
    "country_id": 232,
    "country_code": "GB",
    "latitude": "51.69139000",
    "longitude": "-4.01056000",
    "wikiDataId": null
  },
  {
    "id": 51375,
    "name": "Southgate",
    "state_id": 2433,
    "state_code": "SWA",
    "country_id": 232,
    "country_code": "GB",
    "latitude": "51.56944000",
    "longitude": "-4.08972000",
    "wikiDataId": null
  },
  {
    "id": 51532,
    "name": "Swansea",
    "state_id": 2433,
    "state_code": "SWA",
    "country_id": 232,
    "country_code": "GB",
    "latitude": "51.62079000",
    "longitude": "-3.94323000",
    "wikiDataId": null
  },
  {
    "id": 51611,
    "name": "Three Crosses",
    "state_id": 2433,
    "state_code": "SWA",
    "country_id": 232,
    "country_code": "GB",
    "latitude": "51.62865000",
    "longitude": "-4.06263000",
    "wikiDataId": null
  },
  {
    "id": 51684,
    "name": "Tycroes",
    "state_id": 2433,
    "state_code": "SWA",
    "country_id": 232,
    "country_code": "GB",
    "latitude": "51.77806000",
    "longitude": "-4.02000000",
    "wikiDataId": null
  }
]