[
  {
    "id": 131405,
    "name": "Bindura",
    "state_id": 1955,
    "state_code": "MC",
    "country_id": 247,
    "country_code": "ZW",
    "latitude": "-17.30192000",
    "longitude": "31.33056000",
    "wikiDataId": null
  },
  {
    "id": 131406,
    "name": "Bindura District",
    "state_id": 1955,
    "state_code": "MC",
    "country_id": 247,
    "country_code": "ZW",
    "latitude": "-17.21230000",
    "longitude": "31.30300000",
    "wikiDataId": null
  },
  {
    "id": 131412,
    "name": "Centenary",
    "state_id": 1955,
    "state_code": "MC",
    "country_id": 247,
    "country_code": "ZW",
    "latitude": "-16.72289000",
    "longitude": "31.11462000",
    "wikiDataId": null
  },
  {
    "id": 131413,
    "name": "Centenary District",
    "state_id": 1955,
    "state_code": "MC",
    "country_id": 247,
    "country_code": "ZW",
    "latitude": "-16.41667000",
    "longitude": "31.16667000",
    "wikiDataId": null
  },
  {
    "id": 131428,
    "name": "Concession",
    "state_id": 1955,
    "state_code": "MC",
    "country_id": 247,
    "country_code": "ZW",
    "latitude": "-17.38333000",
    "longitude": "30.95000000",
    "wikiDataId": null
  },
  {
    "id": 131434,
    "name": "Glendale",
    "state_id": 1955,
    "state_code": "MC",
    "country_id": 247,
    "country_code": "ZW",
    "latitude": "-17.35514000",
    "longitude": "31.06718000",
    "wikiDataId": null
  },
  {
    "id": 131437,
    "name": "Guruve District",
    "state_id": 1955,
    "state_code": "MC",
    "country_id": 247,
    "country_code": "ZW",
    "latitude": "-16.37206000",
    "longitude": "30.60607000",
    "wikiDataId": null
  },
  {
    "id": 131472,
    "name": "Mazowe",
    "state_id": 1955,
    "state_code": "MC",
    "country_id": 247,
    "country_code": "ZW",
    "latitude": "-17.50404000",
    "longitude": "30.97388000",
    "wikiDataId": null
  },
  {
    "id": 131473,
    "name": "Mazowe District",
    "state_id": 1955,
    "state_code": "MC",
    "country_id": 247,
    "country_code": "ZW",
    "latitude": "-17.28080000",
    "longitude": "30.93231000",
    "wikiDataId": null
  },
  {
    "id": 131476,
    "name": "Mount Darwin",
    "state_id": 1955,
    "state_code": "MC",
    "country_id": 247,
    "country_code": "ZW",
    "latitude": "-16.77251000",
    "longitude": "31.58381000",
    "wikiDataId": null
  },
  {
    "id": 131485,
    "name": "Mvurwi",
    "state_id": 1955,
    "state_code": "MC",
    "country_id": 247,
    "country_code": "ZW",
    "latitude": "-17.03333000",
    "longitude": "30.85000000",
    "wikiDataId": null
  },
  {
    "id": 131498,
    "name": "Rushinga District",
    "state_id": 1955,
    "state_code": "MC",
    "country_id": 247,
    "country_code": "ZW",
    "latitude": "-16.60792000",
    "longitude": "32.31434000",
    "wikiDataId": null
  },
  {
    "id": 131500,
    "name": "Shamva",
    "state_id": 1955,
    "state_code": "MC",
    "country_id": 247,
    "country_code": "ZW",
    "latitude": "-17.31159000",
    "longitude": "31.57561000",
    "wikiDataId": null
  },
  {
    "id": 131501,
    "name": "Shamva District",
    "state_id": 1955,
    "state_code": "MC",
    "country_id": 247,
    "country_code": "ZW",
    "latitude": "-17.12366000",
    "longitude": "31.64146000",
    "wikiDataId": null
  }
]