[
  {
    "id": 4880,
    "name": "Autonomous City of Buenos Aires",
    "country_id": 11,
    "country_code": "AR",
    "state_code": "C",
    "type": "city",
    "latitude": "-34.61612310",
    "longitude": "-58.43562120",
    "iso3166_2": "AR-C",
    "native": "Ciudad autónoma de Buenos Aires",
    "timezone": "America/Argentina/Buenos_Aires"
  },
  {
    "id": 3656,
    "name": "Buenos Aires",
    "country_id": 11,
    "country_code": "AR",
    "state_code": "B",
    "type": "province",
    "latitude": "-37.14984030",
    "longitude": "-60.13194560",
    "iso3166_2": "AR-B",
    "native": "Buenos Aires",
    "timezone": "America/Argentina/Buenos_Aires"
  },
  {
    "id": 3647,
    "name": "Catamarca",
    "country_id": 11,
    "country_code": "AR",
    "state_code": "K",
    "type": "province",
    "latitude": "-28.47158770",
    "longitude": "-65.78772090",
    "iso3166_2": "AR-K",
    "native": "Catamarca",
    "timezone": "America/Argentina/Catamarca"
  },
  {
    "id": 3640,
    "name": "Chaco",
    "country_id": 11,
    "country_code": "AR",
    "state_code": "H",
    "type": "province",
    "latitude": "-26.38296470",
    "longitude": "-60.88160920",
    "iso3166_2": "AR-H",
    "native": "Chaco",
    "timezone": "America/Argentina/Cordoba"
  },
  {
    "id": 3651,
    "name": "Chubut",
    "country_id": 11,
    "country_code": "AR",
    "state_code": "U",
    "type": "province",
    "latitude": "-43.71283560",
    "longitude": "-68.74618170",
    "iso3166_2": "AR-U",
    "native": "Chubut",
    "timezone": "America/Argentina/Catamarca"
  },
  {
    "id": 3642,
    "name": "Córdoba",
    "country_id": 11,
    "country_code": "AR",
    "state_code": "X",
    "type": "province",
    "latitude": "-31.41668670",
    "longitude": "-64.18341930",
    "iso3166_2": "AR-X",
    "native": "Córdoba",
    "timezone": "America/Argentina/Cordoba"
  },
  {
    "id": 3638,
    "name": "Corrientes",
    "country_id": 11,
    "country_code": "AR",
    "state_code": "W",
    "type": "province",
    "latitude": "-27.48186840",
    "longitude": "-58.79558720",
    "iso3166_2": "AR-W",
    "native": "Corrientes",
    "timezone": "America/Argentina/Cordoba"
  },
  {
    "id": 3654,
    "name": "Entre Ríos",
    "country_id": 11,
    "country_code": "AR",
    "state_code": "E",
    "type": "province",
    "latitude": "-31.62528420",
    "longitude": "-59.35395780",
    "iso3166_2": "AR-E",
    "native": "Entre Ríos",
    "timezone": "America/Argentina/Cordoba"
  },
  {
    "id": 3652,
    "name": "Formosa",
    "country_id": 11,
    "country_code": "AR",
    "state_code": "P",
    "type": "province",
    "latitude": "-26.18529830",
    "longitude": "-58.17449760",
    "iso3166_2": "AR-P",
    "native": "Formosa",
    "timezone": "America/Argentina/Cordoba"
  },
  {
    "id": 3645,
    "name": "Jujuy",
    "country_id": 11,
    "country_code": "AR",
    "state_code": "Y",
    "type": "province",
    "latitude": "-23.31614580",
    "longitude": "-65.75952880",
    "iso3166_2": "AR-Y",
    "native": "Jujuy",
    "timezone": "America/Argentina/Jujuy"
  },
  {
    "id": 3655,
    "name": "La Pampa",
    "country_id": 11,
    "country_code": "AR",
    "state_code": "L",
    "type": "province",
    "latitude": "-37.23146430",
    "longitude": "-65.39729480",
    "iso3166_2": "AR-L",
    "native": "La Pampa",
    "timezone": "America/Argentina/Buenos_Aires"
  },
  {
    "id": 3653,
    "name": "La Rioja",
    "country_id": 11,
    "country_code": "AR",
    "state_code": "F",
    "type": "province",
    "latitude": "-29.41937930",
    "longitude": "-66.85599320",
    "iso3166_2": "AR-F",
    "native": "La Rioja",
    "timezone": "America/Argentina/La_Rioja"
  },
  {
    "id": 3646,
    "name": "Mendoza",
    "country_id": 11,
    "country_code": "AR",
    "state_code": "M",
    "type": "province",
    "latitude": "-32.88945870",
    "longitude": "-68.84583860",
    "iso3166_2": "AR-M",
    "native": "Mendoza",
    "timezone": "America/Argentina/Mendoza"
  },
  {
    "id": 3644,
    "name": "Misiones",
    "country_id": 11,
    "country_code": "AR",
    "state_code": "N",
    "type": "province",
    "latitude": "-26.73722400",
    "longitude": "-54.43152570",
    "iso3166_2": "AR-N",
    "native": "Misiones",
    "timezone": "America/Argentina/Cordoba"
  },
  {
    "id": 3648,
    "name": "Neuquén",
    "country_id": 11,
    "country_code": "AR",
    "state_code": "Q",
    "type": "province",
    "latitude": "-38.95196790",
    "longitude": "-68.05917410",
    "iso3166_2": "AR-Q",
    "native": "Neuquén",
    "timezone": "America/Argentina/Salta"
  },
  {
    "id": 3639,
    "name": "Río Negro",
    "country_id": 11,
    "country_code": "AR",
    "state_code": "R",
    "type": "province",
    "latitude": "-39.72963210",
    "longitude": "-65.34181890",
    "iso3166_2": "AR-R",
    "native": "Río Negro",
    "timezone": "America/Argentina/Salta"
  },
  {
    "id": 3643,
    "name": "Salta",
    "country_id": 11,
    "country_code": "AR",
    "state_code": "A",
    "type": "province",
    "latitude": "-24.78929460",
    "longitude": "-65.41031940",
    "iso3166_2": "AR-A",
    "native": "Salta",
    "timezone": "America/Argentina/Salta"
  },
  {
    "id": 3634,
    "name": "San Juan",
    "country_id": 11,
    "country_code": "AR",
    "state_code": "J",
    "type": "province",
    "latitude": "-31.53709090",
    "longitude": "-68.52518020",
    "iso3166_2": "AR-J",
    "native": "San Juan",
    "timezone": "America/Argentina/San_Juan"
  },
  {
    "id": 3636,
    "name": "San Luis",
    "country_id": 11,
    "country_code": "AR",
    "state_code": "D",
    "type": "province",
    "latitude": "-33.29620420",
    "longitude": "-66.32949480",
    "iso3166_2": "AR-D",
    "native": "San Luis",
    "timezone": "America/Argentina/San_Luis"
  },
  {
    "id": 3649,
    "name": "Santa Cruz",
    "country_id": 11,
    "country_code": "AR",
    "state_code": "Z",
    "type": "province",
    "latitude": "-48.56933270",
    "longitude": "-70.16067670",
    "iso3166_2": "AR-Z",
    "native": "Santa Cruz",
    "timezone": "America/Argentina/Rio_Gallegos"
  },
  {
    "id": 3641,
    "name": "Santa Fe",
    "country_id": 11,
    "country_code": "AR",
    "state_code": "S",
    "type": "province",
    "latitude": "-31.61869510",
    "longitude": "-60.70195610",
    "iso3166_2": "AR-S",
    "native": "Santa Fe",
    "timezone": "America/Argentina/Cordoba"
  },
  {
    "id": 3635,
    "name": "Santiago del Estero",
    "country_id": 11,
    "country_code": "AR",
    "state_code": "G",
    "type": "province",
    "latitude": "-27.78335740",
    "longitude": "-64.26416700",
    "iso3166_2": "AR-G",
    "native": "Santiago del Estero",
    "timezone": "America/Argentina/Cordoba"
  },
  {
    "id": 3650,
    "name": "Tierra del Fuego",
    "country_id": 11,
    "country_code": "AR",
    "state_code": "V",
    "type": "province",
    "latitude": "-54.40710640",
    "longitude": "-67.89748950",
    "iso3166_2": "AR-V",
    "native": "Tierra del Fuego",
    "timezone": "America/Argentina/Ushuaia"
  },
  {
    "id": 3637,
    "name": "Tucumán",
    "country_id": 11,
    "country_code": "AR",
    "state_code": "T",
    "type": "province",
    "latitude": "-26.83037030",
    "longitude": "-65.20381330",
    "iso3166_2": "AR-T",
    "native": "Tucumán",
    "timezone": "America/Argentina/Tucuman"
  }
]