[
  {
    "id": 18859,
    "name": "Abengourou",
    "state_id": 2654,
    "state_code": "CM",
    "country_id": 54,
    "country_code": "CI",
    "latitude": "6.72972000",
    "longitude": "-3.49639000",
    "wikiDataId": null
  },
  {
    "id": 18862,
    "name": "Aboisso",
    "state_id": 2654,
    "state_code": "CM",
    "country_id": 54,
    "country_code": "CI",
    "latitude": "5.46779000",
    "longitude": "-3.20711000",
    "wikiDataId": null
  },
  {
    "id": 18863,
    "name": "Adiaké",
    "state_id": 2654,
    "state_code": "CM",
    "country_id": 54,
    "country_code": "CI",
    "latitude": "5.28634000",
    "longitude": "-3.30403000",
    "wikiDataId": null
  },
  {
    "id": 18867,
    "name": "Agnibilékrou",
    "state_id": 2654,
    "state_code": "CM",
    "country_id": 54,
    "country_code": "CI",
    "latitude": "7.13113000",
    "longitude": "-3.20415000",
    "wikiDataId": null
  },
  {
    "id": 18872,
    "name": "Ayamé",
    "state_id": 2654,
    "state_code": "CM",
    "country_id": 54,
    "country_code": "CI",
    "latitude": "5.60520000",
    "longitude": "-3.15709000",
    "wikiDataId": null
  },
  {
    "id": 18880,
    "name": "Bonoua",
    "state_id": 2654,
    "state_code": "CM",
    "country_id": 54,
    "country_code": "CI",
    "latitude": "5.27247000",
    "longitude": "-3.59625000",
    "wikiDataId": null
  },
  {
    "id": 18903,
    "name": "Grand-Bassam",
    "state_id": 2654,
    "state_code": "CM",
    "country_id": 54,
    "country_code": "CI",
    "latitude": "5.21180000",
    "longitude": "-3.73884000",
    "wikiDataId": null
  },
  {
    "id": 18913,
    "name": "Indénié-Djuablin",
    "state_id": 2654,
    "state_code": "CM",
    "country_id": 54,
    "country_code": "CI",
    "latitude": "6.74434000",
    "longitude": "-3.49400000",
    "wikiDataId": null
  },
  {
    "id": 18931,
    "name": "Sud-Comoé",
    "state_id": 2654,
    "state_code": "CM",
    "country_id": 54,
    "country_code": "CI",
    "latitude": "5.49961000",
    "longitude": "-3.24080000",
    "wikiDataId": null
  }
]