[
  {
    "id": 9784,
    "name": "Bembèrèkè",
    "state_id": 3078,
    "state_code": "BO",
    "country_id": 24,
    "country_code": "BJ",
    "latitude": "10.22827000",
    "longitude": "2.66335000",
    "wikiDataId": null
  },
  {
    "id": 9786,
    "name": "Bétérou",
    "state_id": 3078,
    "state_code": "BO",
    "country_id": 24,
    "country_code": "BJ",
    "latitude": "9.19916000",
    "longitude": "2.25855000",
    "wikiDataId": null
  },
  {
    "id": 9805,
    "name": "Nikki",
    "state_id": 3078,
    "state_code": "BO",
    "country_id": 24,
    "country_code": "BJ",
    "latitude": "9.94009000",
    "longitude": "3.21075000",
    "wikiDataId": null
  },
  {
    "id": 9807,
    "name": "Parakou",
    "state_id": 3078,
    "state_code": "BO",
    "country_id": 24,
    "country_code": "BJ",
    "latitude": "9.33716000",
    "longitude": "2.63031000",
    "wikiDataId": null
  },
  {
    "id": 9815,
    "name": "Tchaourou",
    "state_id": 3078,
    "state_code": "BO",
    "country_id": 24,
    "country_code": "BJ",
    "latitude": "8.88649000",
    "longitude": "2.59753000",
    "wikiDataId": null
  }
]