[
  {
    "id": 79926,
    "name": "Adam",
    "state_id": 3058,
    "state_code": "DA",
    "country_id": 166,
    "country_code": "OM",
    "latitude": "22.37934000",
    "longitude": "57.52718000",
    "wikiDataId": null
  },
  {
    "id": 79930,
    "name": "Bahlā’",
    "state_id": 3058,
    "state_code": "DA",
    "country_id": 166,
    "country_code": "OM",
    "latitude": "22.97886000",
    "longitude": "57.30470000",
    "wikiDataId": null
  },
  {
    "id": 79934,
    "name": "Bidbid",
    "state_id": 3058,
    "state_code": "DA",
    "country_id": 166,
    "country_code": "OM",
    "latitude": "23.40787000",
    "longitude": "58.12830000",
    "wikiDataId": null
  },
  {
    "id": 79937,
    "name": "Izkī",
    "state_id": 3058,
    "state_code": "DA",
    "country_id": 166,
    "country_code": "OM",
    "latitude": "22.93333000",
    "longitude": "57.76667000",
    "wikiDataId": null
  },
  {
    "id": 79942,
    "name": "Nizwá",
    "state_id": 3058,
    "state_code": "DA",
    "country_id": 166,
    "country_code": "OM",
    "latitude": "22.93333000",
    "longitude": "57.53333000",
    "wikiDataId": null
  },
  {
    "id": 79948,
    "name": "Sufālat Samā’il",
    "state_id": 3058,
    "state_code": "DA",
    "country_id": 166,
    "country_code": "OM",
    "latitude": "23.31667000",
    "longitude": "58.01667000",
    "wikiDataId": null
  }
]