[
  {
    "id": 31610,
    "name": "Iisaku",
    "state_id": 3569,
    "state_code": "44",
    "country_id": 69,
    "country_code": "EE",
    "latitude": "59.10139000",
    "longitude": "27.30806000",
    "wikiDataId": null
  },
  {
    "id": 31616,
    "name": "Jõhvi",
    "state_id": 3569,
    "state_code": "44",
    "country_id": 69,
    "country_code": "EE",
    "latitude": "59.35917000",
    "longitude": "27.42111000",
    "wikiDataId": null
  },
  {
    "id": 31617,
    "name": "Jõhvi vald",
    "state_id": 3569,
    "state_code": "44",
    "country_id": 69,
    "country_code": "EE",
    "latitude": "59.35653000",
    "longitude": "27.39304000",
    "wikiDataId": null
  },
  {
    "id": 31634,
    "name": "Kiviõli",
    "state_id": 3569,
    "state_code": "44",
    "country_id": 69,
    "country_code": "EE",
    "latitude": "59.35306000",
    "longitude": "26.97111000",
    "wikiDataId": null
  },
  {
    "id": 31638,
    "name": "Kohtla-Järve",
    "state_id": 3569,
    "state_code": "44",
    "country_id": 69,
    "country_code": "EE",
    "latitude": "59.39861000",
    "longitude": "27.27306000",
    "wikiDataId": null
  },
  {
    "id": 31639,
    "name": "Kohtla-Nõmme",
    "state_id": 3569,
    "state_code": "44",
    "country_id": 69,
    "country_code": "EE",
    "latitude": "59.35167000",
    "longitude": "27.17500000",
    "wikiDataId": null
  },
  {
    "id": 31657,
    "name": "Lüganuse vald",
    "state_id": 3569,
    "state_code": "44",
    "country_id": 69,
    "country_code": "EE",
    "latitude": "59.39262000",
    "longitude": "27.07641000",
    "wikiDataId": null
  },
  {
    "id": 31665,
    "name": "Narva",
    "state_id": 3569,
    "state_code": "44",
    "country_id": 69,
    "country_code": "EE",
    "latitude": "59.37722000",
    "longitude": "28.19028000",
    "wikiDataId": null
  },
  {
    "id": 31666,
    "name": "Narva-Jõesuu",
    "state_id": 3569,
    "state_code": "44",
    "country_id": 69,
    "country_code": "EE",
    "latitude": "59.45889000",
    "longitude": "28.04083000",
    "wikiDataId": null
  },
  {
    "id": 31667,
    "name": "Narva-Jõesuu linn",
    "state_id": 3569,
    "state_code": "44",
    "country_id": 69,
    "country_code": "EE",
    "latitude": "59.44127000",
    "longitude": "28.02142000",
    "wikiDataId": null
  },
  {
    "id": 31687,
    "name": "Püssi",
    "state_id": 3569,
    "state_code": "44",
    "country_id": 69,
    "country_code": "EE",
    "latitude": "59.36000000",
    "longitude": "27.04972000",
    "wikiDataId": null
  },
  {
    "id": 31709,
    "name": "Sillamäe",
    "state_id": 3569,
    "state_code": "44",
    "country_id": 69,
    "country_code": "EE",
    "latitude": "59.39697000",
    "longitude": "27.76331000",
    "wikiDataId": null
  },
  {
    "id": 31724,
    "name": "Toila",
    "state_id": 3569,
    "state_code": "44",
    "country_id": 69,
    "country_code": "EE",
    "latitude": "59.42127000",
    "longitude": "27.50807000",
    "wikiDataId": null
  },
  {
    "id": 31745,
    "name": "Voka",
    "state_id": 3569,
    "state_code": "44",
    "country_id": 69,
    "country_code": "EE",
    "latitude": "59.40776000",
    "longitude": "27.58263000",
    "wikiDataId": null
  }
]