[
  {
    "id": 48270,
    "name": "Ardingly",
    "state_id": 2395,
    "state_code": "BNH",
    "country_id": 232,
    "country_code": "GB",
    "latitude": "51.04865000",
    "longitude": "-0.07716000",
    "wikiDataId": null
  },
  {
    "id": 48341,
    "name": "Balcombe",
    "state_id": 2395,
    "state_code": "BNH",
    "country_id": 232,
    "country_code": "GB",
    "latitude": "51.05726000",
    "longitude": "-0.13450000",
    "wikiDataId": null
  },
  {
    "id": 48695,
    "name": "Brighton",
    "state_id": 2395,
    "state_code": "BNH",
    "country_id": 232,
    "country_code": "GB",
    "latitude": "50.82838000",
    "longitude": "-0.13947000",
    "wikiDataId": null
  },
  {
    "id": 48696,
    "name": "Brighton and Hove",
    "state_id": 2395,
    "state_code": "BNH",
    "country_id": 232,
    "country_code": "GB",
    "latitude": "50.83333000",
    "longitude": "-0.13333000",
    "wikiDataId": null
  },
  {
    "id": 48714,
    "name": "Broadwater",
    "state_id": 2395,
    "state_code": "BNH",
    "country_id": 232,
    "country_code": "GB",
    "latitude": "50.82887000",
    "longitude": "-0.37594000",
    "wikiDataId": null
  },
  {
    "id": 48766,
    "name": "Burgess Hill",
    "state_id": 2395,
    "state_code": "BNH",
    "country_id": 232,
    "country_code": "GB",
    "latitude": "50.95843000",
    "longitude": "-0.13287000",
    "wikiDataId": null
  },
  {
    "id": 49132,
    "name": "Cowfold",
    "state_id": 2395,
    "state_code": "BNH",
    "country_id": 232,
    "country_code": "GB",
    "latitude": "50.98945000",
    "longitude": "-0.27243000",
    "wikiDataId": null
  },
  {
    "id": 49193,
    "name": "Cuckfield",
    "state_id": 2395,
    "state_code": "BNH",
    "country_id": 232,
    "country_code": "GB",
    "latitude": "51.01073000",
    "longitude": "-0.14068000",
    "wikiDataId": null
  },
  {
    "id": 49294,
    "name": "Ditchling",
    "state_id": 2395,
    "state_code": "BNH",
    "country_id": 232,
    "country_code": "GB",
    "latitude": "50.92100000",
    "longitude": "-0.11536000",
    "wikiDataId": null
  },
  {
    "id": 49799,
    "name": "Handcross",
    "state_id": 2395,
    "state_code": "BNH",
    "country_id": 232,
    "country_code": "GB",
    "latitude": "51.05383000",
    "longitude": "-0.20076000",
    "wikiDataId": null
  },
  {
    "id": 49834,
    "name": "Hassocks",
    "state_id": 2395,
    "state_code": "BNH",
    "country_id": 232,
    "country_code": "GB",
    "latitude": "50.92814000",
    "longitude": "-0.16617000",
    "wikiDataId": null
  },
  {
    "id": 49867,
    "name": "Haywards Heath",
    "state_id": 2395,
    "state_code": "BNH",
    "country_id": 232,
    "country_code": "GB",
    "latitude": "50.99769000",
    "longitude": "-0.10313000",
    "wikiDataId": null
  },
  {
    "id": 49901,
    "name": "Henfield",
    "state_id": 2395,
    "state_code": "BNH",
    "country_id": 232,
    "country_code": "GB",
    "latitude": "50.92995000",
    "longitude": "-0.27071000",
    "wikiDataId": null
  },
  {
    "id": 50000,
    "name": "Horsted Keynes",
    "state_id": 2395,
    "state_code": "BNH",
    "country_id": 232,
    "country_code": "GB",
    "latitude": "51.03659000",
    "longitude": "-0.02798000",
    "wikiDataId": null
  },
  {
    "id": 50011,
    "name": "Hove",
    "state_id": 2395,
    "state_code": "BNH",
    "country_id": 232,
    "country_code": "GB",
    "latitude": "50.83088000",
    "longitude": "-0.16720000",
    "wikiDataId": null
  },
  {
    "id": 50032,
    "name": "Hurstpierpoint",
    "state_id": 2395,
    "state_code": "BNH",
    "country_id": 232,
    "country_code": "GB",
    "latitude": "50.93388000",
    "longitude": "-0.18007000",
    "wikiDataId": null
  },
  {
    "id": 50238,
    "name": "Lancing",
    "state_id": 2395,
    "state_code": "BNH",
    "country_id": 232,
    "country_code": "GB",
    "latitude": "50.82882000",
    "longitude": "-0.32247000",
    "wikiDataId": null
  },
  {
    "id": 50294,
    "name": "Lewes",
    "state_id": 2395,
    "state_code": "BNH",
    "country_id": 232,
    "country_code": "GB",
    "latitude": "50.87398000",
    "longitude": "0.00880000",
    "wikiDataId": null
  },
  {
    "id": 50713,
    "name": "Newhaven",
    "state_id": 2395,
    "state_code": "BNH",
    "country_id": 232,
    "country_code": "GB",
    "latitude": "50.79693000",
    "longitude": "0.05545000",
    "wikiDataId": null
  },
  {
    "id": 50714,
    "name": "Newick",
    "state_id": 2395,
    "state_code": "BNH",
    "country_id": 232,
    "country_code": "GB",
    "latitude": "50.97518000",
    "longitude": "0.01579000",
    "wikiDataId": null
  },
  {
    "id": 50863,
    "name": "Peacehaven",
    "state_id": 2395,
    "state_code": "BNH",
    "country_id": 232,
    "country_code": "GB",
    "latitude": "50.79270000",
    "longitude": "-0.00652000",
    "wikiDataId": null
  },
  {
    "id": 50924,
    "name": "Plumpton Green",
    "state_id": 2395,
    "state_code": "BNH",
    "country_id": 232,
    "country_code": "GB",
    "latitude": "50.93420000",
    "longitude": "-0.06120000",
    "wikiDataId": null
  },
  {
    "id": 50970,
    "name": "Portslade",
    "state_id": 2395,
    "state_code": "BNH",
    "country_id": 232,
    "country_code": "GB",
    "latitude": "50.84286000",
    "longitude": "-0.21608000",
    "wikiDataId": null
  },
  {
    "id": 51082,
    "name": "Ringmer",
    "state_id": 2395,
    "state_code": "BNH",
    "country_id": 232,
    "country_code": "GB",
    "latitude": "50.89264000",
    "longitude": "0.05472000",
    "wikiDataId": null
  },
  {
    "id": 51123,
    "name": "Rottingdean",
    "state_id": 2395,
    "state_code": "BNH",
    "country_id": 232,
    "country_code": "GB",
    "latitude": "50.80984000",
    "longitude": "-0.05939000",
    "wikiDataId": null
  },
  {
    "id": 51221,
    "name": "Seaford",
    "state_id": 2395,
    "state_code": "BNH",
    "country_id": 232,
    "country_code": "GB",
    "latitude": "50.77141000",
    "longitude": "0.10268000",
    "wikiDataId": null
  },
  {
    "id": 51291,
    "name": "Shoreham-by-Sea",
    "state_id": 2395,
    "state_code": "BNH",
    "country_id": 232,
    "country_code": "GB",
    "latitude": "50.83413000",
    "longitude": "-0.27431000",
    "wikiDataId": null
  },
  {
    "id": 51349,
    "name": "South Chailey",
    "state_id": 2395,
    "state_code": "BNH",
    "country_id": 232,
    "country_code": "GB",
    "latitude": "50.93831000",
    "longitude": "-0.02105000",
    "wikiDataId": null
  },
  {
    "id": 51362,
    "name": "South Nutfield",
    "state_id": 2395,
    "state_code": "BNH",
    "country_id": 232,
    "country_code": "GB",
    "latitude": "51.01667000",
    "longitude": "-0.13333000",
    "wikiDataId": null
  },
  {
    "id": 51447,
    "name": "Steyning",
    "state_id": 2395,
    "state_code": "BNH",
    "country_id": 232,
    "country_code": "GB",
    "latitude": "50.88744000",
    "longitude": "-0.32787000",
    "wikiDataId": null
  },
  {
    "id": 51952,
    "name": "Wivelsfield Green",
    "state_id": 2395,
    "state_code": "BNH",
    "country_id": 232,
    "country_code": "GB",
    "latitude": "50.96313000",
    "longitude": "-0.07133000",
    "wikiDataId": null
  },
  {
    "id": 51991,
    "name": "Worthing",
    "state_id": 2395,
    "state_code": "BNH",
    "country_id": 232,
    "country_code": "GB",
    "latitude": "50.81795000",
    "longitude": "-0.37538000",
    "wikiDataId": null
  }
]