[
  {
    "id": 107113,
    "name": "Akıncılar",
    "state_id": 2181,
    "state_code": "58",
    "country_id": 225,
    "country_code": "TR",
    "latitude": "40.07172000",
    "longitude": "38.34330000",
    "wikiDataId": null
  },
  {
    "id": 107149,
    "name": "Altınyayla",
    "state_id": 2181,
    "state_code": "58",
    "country_id": 225,
    "country_code": "TR",
    "latitude": "39.27249000",
    "longitude": "36.75098000",
    "wikiDataId": null
  },
  {
    "id": 107500,
    "name": "Divriği",
    "state_id": 2181,
    "state_code": "58",
    "country_id": 225,
    "country_code": "TR",
    "latitude": "39.37100000",
    "longitude": "38.11370000",
    "wikiDataId": null
  },
  {
    "id": 107523,
    "name": "Doğanşar",
    "state_id": 2181,
    "state_code": "58",
    "country_id": 225,
    "country_code": "TR",
    "latitude": "40.20841000",
    "longitude": "37.53123000",
    "wikiDataId": null
  },
  {
    "id": 107658,
    "name": "Gemerek",
    "state_id": 2181,
    "state_code": "58",
    "country_id": 225,
    "country_code": "TR",
    "latitude": "39.18342000",
    "longitude": "36.07189000",
    "wikiDataId": null
  },
  {
    "id": 107700,
    "name": "Gölova",
    "state_id": 2181,
    "state_code": "58",
    "country_id": 225,
    "country_code": "TR",
    "latitude": "40.06194000",
    "longitude": "38.60667000",
    "wikiDataId": null
  },
  {
    "id": 107757,
    "name": "Gürün",
    "state_id": 2181,
    "state_code": "58",
    "country_id": 225,
    "country_code": "TR",
    "latitude": "38.72225000",
    "longitude": "37.27097000",
    "wikiDataId": null
  },
  {
    "id": 107772,
    "name": "Hafik",
    "state_id": 2181,
    "state_code": "58",
    "country_id": 225,
    "country_code": "TR",
    "latitude": "39.85639000",
    "longitude": "37.38639000",
    "wikiDataId": null
  },
  {
    "id": 108894,
    "name": "İmranlı",
    "state_id": 2181,
    "state_code": "58",
    "country_id": 225,
    "country_code": "TR",
    "latitude": "39.87544000",
    "longitude": "38.11358000",
    "wikiDataId": null
  },
  {
    "id": 107883,
    "name": "Kangal",
    "state_id": 2181,
    "state_code": "58",
    "country_id": 225,
    "country_code": "TR",
    "latitude": "39.23354000",
    "longitude": "37.39111000",
    "wikiDataId": null
  },
  {
    "id": 108029,
    "name": "Koyulhisar",
    "state_id": 2181,
    "state_code": "58",
    "country_id": 225,
    "country_code": "TR",
    "latitude": "40.30184000",
    "longitude": "37.82336000",
    "wikiDataId": null
  },
  {
    "id": 108187,
    "name": "Merkez",
    "state_id": 2181,
    "state_code": "58",
    "country_id": 225,
    "country_code": "TR",
    "latitude": "39.71613000",
    "longitude": "36.97695000",
    "wikiDataId": null
  },
  {
    "id": 108938,
    "name": "Şarkışla",
    "state_id": 2181,
    "state_code": "58",
    "country_id": 225,
    "country_code": "TR",
    "latitude": "39.35186000",
    "longitude": "36.40976000",
    "wikiDataId": null
  },
  {
    "id": 108513,
    "name": "Suşehri",
    "state_id": 2181,
    "state_code": "58",
    "country_id": 225,
    "country_code": "TR",
    "latitude": "40.16005000",
    "longitude": "38.08413000",
    "wikiDataId": null
  },
  {
    "id": 108618,
    "name": "Ulaş",
    "state_id": 2181,
    "state_code": "58",
    "country_id": 225,
    "country_code": "TR",
    "latitude": "39.44492000",
    "longitude": "37.03900000",
    "wikiDataId": null
  },
  {
    "id": 108747,
    "name": "Yıldızeli",
    "state_id": 2181,
    "state_code": "58",
    "country_id": 225,
    "country_code": "TR",
    "latitude": "39.87601000",
    "longitude": "36.60652000",
    "wikiDataId": null
  },
  {
    "id": 108749,
    "name": "Zara",
    "state_id": 2181,
    "state_code": "58",
    "country_id": 225,
    "country_code": "TR",
    "latitude": "39.82406000",
    "longitude": "37.77499000",
    "wikiDataId": null
  }
]