[
  {
    "id": 153360,
    "name": "Ayancık",
    "state_id": 4854,
    "state_code": "57",
    "country_id": 225,
    "country_code": "TR",
    "latitude": "41.95000000",
    "longitude": "34.58333300",
    "wikiDataId": null
  },
  {
    "id": 142113,
    "name": "Boyabat",
    "state_id": 4854,
    "state_code": "57",
    "country_id": 225,
    "country_code": "TR",
    "latitude": "41.46889000",
    "longitude": "34.76667000",
    "wikiDataId": null
  },
  {
    "id": 142115,
    "name": "Dikmen",
    "state_id": 4854,
    "state_code": "57",
    "country_id": 225,
    "country_code": "TR",
    "latitude": "41.66000000",
    "longitude": "35.27055556",
    "wikiDataId": null
  },
  {
    "id": 142116,
    "name": "Durağan",
    "state_id": 4854,
    "state_code": "57",
    "country_id": 225,
    "country_code": "TR",
    "latitude": "41.42555556",
    "longitude": "35.05777778",
    "wikiDataId": null
  },
  {
    "id": 142117,
    "name": "Erfelek",
    "state_id": 4854,
    "state_code": "57",
    "country_id": 225,
    "country_code": "TR",
    "latitude": "41.87926000",
    "longitude": "34.91838000",
    "wikiDataId": null
  },
  {
    "id": 142119,
    "name": "Gerze",
    "state_id": 4854,
    "state_code": "57",
    "country_id": 225,
    "country_code": "TR",
    "latitude": "41.81000000",
    "longitude": "35.19027778",
    "wikiDataId": null
  },
  {
    "id": 142120,
    "name": "Merkez",
    "state_id": 4854,
    "state_code": "57",
    "country_id": 225,
    "country_code": "TR",
    "latitude": "41.91835000",
    "longitude": "35.00687000",
    "wikiDataId": null
  },
  {
    "id": 142121,
    "name": "Saraydüzü",
    "state_id": 4854,
    "state_code": "57",
    "country_id": 225,
    "country_code": "TR",
    "latitude": "41.33722222",
    "longitude": "34.85361111",
    "wikiDataId": null
  },
  {
    "id": 142123,
    "name": "Türkeli",
    "state_id": 4854,
    "state_code": "57",
    "country_id": 225,
    "country_code": "TR",
    "latitude": "41.94777778",
    "longitude": "34.33861111",
    "wikiDataId": null
  }
]