[
  {
    "id": 31915,
    "name": "Abla",
    "state_id": 5095,
    "state_code": "AL",
    "country_id": 207,
    "country_code": "ES",
    "latitude": "37.14245000",
    "longitude": "-2.77808000",
    "wikiDataId": null
  },
  {
    "id": 31918,
    "name": "Abrucena",
    "state_id": 5095,
    "state_code": "AL",
    "country_id": 207,
    "country_code": "ES",
    "latitude": "37.13226000",
    "longitude": "-2.79711000",
    "wikiDataId": null
  },
  {
    "id": 31936,
    "name": "Adra",
    "state_id": 5095,
    "state_code": "AL",
    "country_id": 207,
    "country_code": "ES",
    "latitude": "36.74961000",
    "longitude": "-3.02055000",
    "wikiDataId": null
  },
  {
    "id": 32063,
    "name": "Albánchez",
    "state_id": 5095,
    "state_code": "AL",
    "country_id": 207,
    "country_code": "ES",
    "latitude": "37.28361000",
    "longitude": "-2.18229000",
    "wikiDataId": null
  },
  {
    "id": 151347,
    "name": "Alboloduy",
    "state_id": 5095,
    "state_code": "AL",
    "country_id": 207,
    "country_code": "ES",
    "latitude": "37.03299600",
    "longitude": "-2.62109820",
    "wikiDataId": null
  },
  {
    "id": 32056,
    "name": "Albox",
    "state_id": 5095,
    "state_code": "AL",
    "country_id": 207,
    "country_code": "ES",
    "latitude": "37.38856000",
    "longitude": "-2.14949000",
    "wikiDataId": null
  },
  {
    "id": 32103,
    "name": "Alcolea",
    "state_id": 5095,
    "state_code": "AL",
    "country_id": 207,
    "country_code": "ES",
    "latitude": "36.97458000",
    "longitude": "-2.96150000",
    "wikiDataId": null
  },
  {
    "id": 32138,
    "name": "Alcóntar",
    "state_id": 5095,
    "state_code": "AL",
    "country_id": 207,
    "country_code": "ES",
    "latitude": "37.33647000",
    "longitude": "-2.59725000",
    "wikiDataId": null
  },
  {
    "id": 32130,
    "name": "Alcudia de Monteagud",
    "state_id": 5095,
    "state_code": "AL",
    "country_id": 207,
    "country_code": "ES",
    "latitude": "37.23529000",
    "longitude": "-2.26650000",
    "wikiDataId": null
  },
  {
    "id": 32232,
    "name": "Alhabia",
    "state_id": 5095,
    "state_code": "AL",
    "country_id": 207,
    "country_code": "ES",
    "latitude": "36.99003000",
    "longitude": "-2.58655000",
    "wikiDataId": null
  },
  {
    "id": 32233,
    "name": "Alhama de Almería",
    "state_id": 5095,
    "state_code": "AL",
    "country_id": 207,
    "country_code": "ES",
    "latitude": "36.95692000",
    "longitude": "-2.56861000",
    "wikiDataId": null
  },
  {
    "id": 32245,
    "name": "Alicún",
    "state_id": 5095,
    "state_code": "AL",
    "country_id": 207,
    "country_code": "ES",
    "latitude": "36.96580000",
    "longitude": "-2.60212000",
    "wikiDataId": null
  },
  {
    "id": 32290,
    "name": "Almería",
    "state_id": 5095,
    "state_code": "AL",
    "country_id": 207,
    "country_code": "ES",
    "latitude": "37.16667000",
    "longitude": "-2.33333000",
    "wikiDataId": null
  },
  {
    "id": 32316,
    "name": "Almócita",
    "state_id": 5095,
    "state_code": "AL",
    "country_id": 207,
    "country_code": "ES",
    "latitude": "37.00262000",
    "longitude": "-2.79051000",
    "wikiDataId": null
  },
  {
    "id": 32336,
    "name": "Alsodux",
    "state_id": 5095,
    "state_code": "AL",
    "country_id": 207,
    "country_code": "ES",
    "latitude": "37.00247000",
    "longitude": "-2.59476000",
    "wikiDataId": null
  },
  {
    "id": 32390,
    "name": "Antas",
    "state_id": 5095,
    "state_code": "AL",
    "country_id": 207,
    "country_code": "ES",
    "latitude": "37.24536000",
    "longitude": "-1.91760000",
    "wikiDataId": null
  },
  {
    "id": 32426,
    "name": "Arboleas",
    "state_id": 5095,
    "state_code": "AL",
    "country_id": 207,
    "country_code": "ES",
    "latitude": "37.35024000",
    "longitude": "-2.07384000",
    "wikiDataId": null
  },
  {
    "id": 32491,
    "name": "Armuña de Almanzora",
    "state_id": 5095,
    "state_code": "AL",
    "country_id": 207,
    "country_code": "ES",
    "latitude": "37.35030000",
    "longitude": "-2.41150000",
    "wikiDataId": null
  },
  {
    "id": 151348,
    "name": "Bacares",
    "state_id": 5095,
    "state_code": "AL",
    "country_id": 207,
    "country_code": "ES",
    "latitude": "37.26077300",
    "longitude": "-2.45346140",
    "wikiDataId": null
  },
  {
    "id": 32699,
    "name": "Bayárcal",
    "state_id": 5095,
    "state_code": "AL",
    "country_id": 207,
    "country_code": "ES",
    "latitude": "37.03073000",
    "longitude": "-2.99606000",
    "wikiDataId": null
  },
  {
    "id": 32696,
    "name": "Bayarque",
    "state_id": 5095,
    "state_code": "AL",
    "country_id": 207,
    "country_code": "ES",
    "latitude": "37.33062000",
    "longitude": "-2.43610000",
    "wikiDataId": null
  },
  {
    "id": 33057,
    "name": "Bédar",
    "state_id": 5095,
    "state_code": "AL",
    "country_id": 207,
    "country_code": "ES",
    "latitude": "37.19389000",
    "longitude": "-1.98166000",
    "wikiDataId": null
  },
  {
    "id": 32732,
    "name": "Beires",
    "state_id": 5095,
    "state_code": "AL",
    "country_id": 207,
    "country_code": "ES",
    "latitude": "37.01237000",
    "longitude": "-2.79134000",
    "wikiDataId": null
  },
  {
    "id": 32762,
    "name": "Benahadux",
    "state_id": 5095,
    "state_code": "AL",
    "country_id": 207,
    "country_code": "ES",
    "latitude": "36.92493000",
    "longitude": "-2.45941000",
    "wikiDataId": null
  },
  {
    "id": 32823,
    "name": "Benitagla",
    "state_id": 5095,
    "state_code": "AL",
    "country_id": 207,
    "country_code": "ES",
    "latitude": "37.23138000",
    "longitude": "-2.23935000",
    "wikiDataId": null
  },
  {
    "id": 32824,
    "name": "Benizalón",
    "state_id": 5095,
    "state_code": "AL",
    "country_id": 207,
    "country_code": "ES",
    "latitude": "37.21213000",
    "longitude": "-2.24180000",
    "wikiDataId": null
  },
  {
    "id": 32827,
    "name": "Bentarique",
    "state_id": 5095,
    "state_code": "AL",
    "country_id": 207,
    "country_code": "ES",
    "latitude": "36.98823000",
    "longitude": "-2.61991000",
    "wikiDataId": null
  },
  {
    "id": 32853,
    "name": "Berja",
    "state_id": 5095,
    "state_code": "AL",
    "country_id": 207,
    "country_code": "ES",
    "latitude": "36.84693000",
    "longitude": "-2.94966000",
    "wikiDataId": null
  },
  {
    "id": 33245,
    "name": "Canjáyar",
    "state_id": 5095,
    "state_code": "AL",
    "country_id": 207,
    "country_code": "ES",
    "latitude": "37.00959000",
    "longitude": "-2.73943000",
    "wikiDataId": null
  },
  {
    "id": 33260,
    "name": "Cantoria",
    "state_id": 5095,
    "state_code": "AL",
    "country_id": 207,
    "country_code": "ES",
    "latitude": "37.35146000",
    "longitude": "-2.19209000",
    "wikiDataId": null
  },
  {
    "id": 33285,
    "name": "Carboneras",
    "state_id": 5095,
    "state_code": "AL",
    "country_id": 207,
    "country_code": "ES",
    "latitude": "36.99666000",
    "longitude": "-1.89651000",
    "wikiDataId": null
  },
  {
    "id": 33488,
    "name": "Castro de Filabres",
    "state_id": 5095,
    "state_code": "AL",
    "country_id": 207,
    "country_code": "ES",
    "latitude": "37.18484000",
    "longitude": "-2.44024000",
    "wikiDataId": null
  },
  {
    "id": 33627,
    "name": "Chercos",
    "state_id": 5095,
    "state_code": "AL",
    "country_id": 207,
    "country_code": "ES",
    "latitude": "37.25450000",
    "longitude": "-2.26657000",
    "wikiDataId": null
  },
  {
    "id": 33643,
    "name": "Chirivel",
    "state_id": 5095,
    "state_code": "AL",
    "country_id": 207,
    "country_code": "ES",
    "latitude": "37.59527000",
    "longitude": "-2.26844000",
    "wikiDataId": null
  },
  {
    "id": 33902,
    "name": "Cóbdar",
    "state_id": 5095,
    "state_code": "AL",
    "country_id": 207,
    "country_code": "ES",
    "latitude": "37.26166000",
    "longitude": "-2.21098000",
    "wikiDataId": null
  },
  {
    "id": 33876,
    "name": "Cuevas del Almanzora",
    "state_id": 5095,
    "state_code": "AL",
    "country_id": 207,
    "country_code": "ES",
    "latitude": "37.29678000",
    "longitude": "-1.88218000",
    "wikiDataId": null
  },
  {
    "id": 33911,
    "name": "Dalías",
    "state_id": 5095,
    "state_code": "AL",
    "country_id": 207,
    "country_code": "ES",
    "latitude": "36.82179000",
    "longitude": "-2.87138000",
    "wikiDataId": null
  },
  {
    "id": 151359,
    "name": "El Ejido",
    "state_id": 5095,
    "state_code": "AL",
    "country_id": 207,
    "country_code": "ES",
    "latitude": "36.77071590",
    "longitude": "-2.79790100",
    "wikiDataId": null
  },
  {
    "id": 34060,
    "name": "Enix",
    "state_id": 5095,
    "state_code": "AL",
    "country_id": 207,
    "country_code": "ES",
    "latitude": "36.87732000",
    "longitude": "-2.60180000",
    "wikiDataId": null
  },
  {
    "id": 151349,
    "name": "Felix",
    "state_id": 5095,
    "state_code": "AL",
    "country_id": 207,
    "country_code": "ES",
    "latitude": "36.86961030",
    "longitude": "-2.70832870",
    "wikiDataId": null
  },
  {
    "id": 34194,
    "name": "Fiñana",
    "state_id": 5095,
    "state_code": "AL",
    "country_id": 207,
    "country_code": "ES",
    "latitude": "37.17150000",
    "longitude": "-2.84011000",
    "wikiDataId": null
  },
  {
    "id": 34188,
    "name": "Fines",
    "state_id": 5095,
    "state_code": "AL",
    "country_id": 207,
    "country_code": "ES",
    "latitude": "37.36074000",
    "longitude": "-2.25810000",
    "wikiDataId": null
  },
  {
    "id": 34205,
    "name": "Fondón",
    "state_id": 5095,
    "state_code": "AL",
    "country_id": 207,
    "country_code": "ES",
    "latitude": "36.98020000",
    "longitude": "-2.85957000",
    "wikiDataId": null
  },
  {
    "id": 34558,
    "name": "Gádor",
    "state_id": 5095,
    "state_code": "AL",
    "country_id": 207,
    "country_code": "ES",
    "latitude": "36.95322000",
    "longitude": "-2.49254000",
    "wikiDataId": null
  },
  {
    "id": 151350,
    "name": "Gallardos Los",
    "state_id": 5095,
    "state_code": "AL",
    "country_id": 207,
    "country_code": "ES",
    "latitude": "37.16889990",
    "longitude": "-1.94015240",
    "wikiDataId": null
  },
  {
    "id": 34427,
    "name": "Garrucha",
    "state_id": 5095,
    "state_code": "AL",
    "country_id": 207,
    "country_code": "ES",
    "latitude": "37.18141000",
    "longitude": "-1.82252000",
    "wikiDataId": null
  },
  {
    "id": 34562,
    "name": "Gérgal",
    "state_id": 5095,
    "state_code": "AL",
    "country_id": 207,
    "country_code": "ES",
    "latitude": "37.11886000",
    "longitude": "-2.54012000",
    "wikiDataId": null
  },
  {
    "id": 34706,
    "name": "Huécija",
    "state_id": 5095,
    "state_code": "AL",
    "country_id": 207,
    "country_code": "ES",
    "latitude": "36.96804000",
    "longitude": "-2.60941000",
    "wikiDataId": null
  },
  {
    "id": 34711,
    "name": "Huércal de Almería",
    "state_id": 5095,
    "state_code": "AL",
    "country_id": 207,
    "country_code": "ES",
    "latitude": "36.88507000",
    "longitude": "-2.43760000",
    "wikiDataId": null
  },
  {
    "id": 34712,
    "name": "Huércal-Overa",
    "state_id": 5095,
    "state_code": "AL",
    "country_id": 207,
    "country_code": "ES",
    "latitude": "37.38918000",
    "longitude": "-1.94300000",
    "wikiDataId": null
  },
  {
    "id": 34746,
    "name": "Illar",
    "state_id": 5095,
    "state_code": "AL",
    "country_id": 207,
    "country_code": "ES",
    "latitude": "36.98562000",
    "longitude": "-2.63871000",
    "wikiDataId": null
  },
  {
    "id": 34757,
    "name": "Instinción",
    "state_id": 5095,
    "state_code": "AL",
    "country_id": 207,
    "country_code": "ES",
    "latitude": "36.99344000",
    "longitude": "-2.66046000",
    "wikiDataId": null
  },
  {
    "id": 151360,
    "name": "La Mojonera",
    "state_id": 5095,
    "state_code": "AL",
    "country_id": 207,
    "country_code": "ES",
    "latitude": "36.75318160",
    "longitude": "-2.68223560",
    "wikiDataId": null
  },
  {
    "id": 34977,
    "name": "Laroya",
    "state_id": 5095,
    "state_code": "AL",
    "country_id": 207,
    "country_code": "ES",
    "latitude": "37.29771000",
    "longitude": "-2.33419000",
    "wikiDataId": null
  },
  {
    "id": 151358,
    "name": "Las Tres Villas",
    "state_id": 5095,
    "state_code": "AL",
    "country_id": 207,
    "country_code": "ES",
    "latitude": "37.15910470",
    "longitude": "-2.71827280",
    "wikiDataId": null
  },
  {
    "id": 35004,
    "name": "Laujar de Andarax",
    "state_id": 5095,
    "state_code": "AL",
    "country_id": 207,
    "country_code": "ES",
    "latitude": "36.99516000",
    "longitude": "-2.89033000",
    "wikiDataId": null
  },
  {
    "id": 151351,
    "name": "Líjar",
    "state_id": 5095,
    "state_code": "AL",
    "country_id": 207,
    "country_code": "ES",
    "latitude": "37.29487710",
    "longitude": "-2.21844010",
    "wikiDataId": null
  },
  {
    "id": 35147,
    "name": "Lubrín",
    "state_id": 5095,
    "state_code": "AL",
    "country_id": 207,
    "country_code": "ES",
    "latitude": "37.21538000",
    "longitude": "-2.06677000",
    "wikiDataId": null
  },
  {
    "id": 35148,
    "name": "Lucainena de las Torres",
    "state_id": 5095,
    "state_code": "AL",
    "country_id": 207,
    "country_code": "ES",
    "latitude": "37.04037000",
    "longitude": "-2.20095000",
    "wikiDataId": null
  },
  {
    "id": 35177,
    "name": "Lúcar",
    "state_id": 5095,
    "state_code": "AL",
    "country_id": 207,
    "country_code": "ES",
    "latitude": "37.40035000",
    "longitude": "-2.42496000",
    "wikiDataId": null
  },
  {
    "id": 35179,
    "name": "Macael",
    "state_id": 5095,
    "state_code": "AL",
    "country_id": 207,
    "country_code": "ES",
    "latitude": "37.33318000",
    "longitude": "-2.30087000",
    "wikiDataId": null
  },
  {
    "id": 35312,
    "name": "María",
    "state_id": 5095,
    "state_code": "AL",
    "country_id": 207,
    "country_code": "ES",
    "latitude": "37.71023000",
    "longitude": "-2.16454000",
    "wikiDataId": null
  },
  {
    "id": 35473,
    "name": "Mojacar",
    "state_id": 5095,
    "state_code": "AL",
    "country_id": 207,
    "country_code": "ES",
    "latitude": "37.14020000",
    "longitude": "-1.85102000",
    "wikiDataId": null
  },
  {
    "id": 151352,
    "name": "Nacimiento",
    "state_id": 5095,
    "state_code": "AL",
    "country_id": 207,
    "country_code": "ES",
    "latitude": "37.10611060",
    "longitude": "-2.64839840",
    "wikiDataId": null
  },
  {
    "id": 35844,
    "name": "Níjar",
    "state_id": 5095,
    "state_code": "AL",
    "country_id": 207,
    "country_code": "ES",
    "latitude": "36.96655000",
    "longitude": "-2.20595000",
    "wikiDataId": null
  },
  {
    "id": 35863,
    "name": "Ohanes",
    "state_id": 5095,
    "state_code": "AL",
    "country_id": 207,
    "country_code": "ES",
    "latitude": "37.03861000",
    "longitude": "-2.74524000",
    "wikiDataId": null
  },
  {
    "id": 35914,
    "name": "Olula de Castro",
    "state_id": 5095,
    "state_code": "AL",
    "country_id": 207,
    "country_code": "ES",
    "latitude": "37.17475000",
    "longitude": "-2.47430000",
    "wikiDataId": null
  },
  {
    "id": 35915,
    "name": "Olula del Río",
    "state_id": 5095,
    "state_code": "AL",
    "country_id": 207,
    "country_code": "ES",
    "latitude": "37.35445000",
    "longitude": "-2.29754000",
    "wikiDataId": null
  },
  {
    "id": 35948,
    "name": "Oria",
    "state_id": 5095,
    "state_code": "AL",
    "country_id": 207,
    "country_code": "ES",
    "latitude": "37.48530000",
    "longitude": "-2.29292000",
    "wikiDataId": null
  },
  {
    "id": 35997,
    "name": "Padules",
    "state_id": 5095,
    "state_code": "AL",
    "country_id": 207,
    "country_code": "ES",
    "latitude": "36.99813000",
    "longitude": "-2.77367000",
    "wikiDataId": null
  },
  {
    "id": 36072,
    "name": "Partaloa",
    "state_id": 5095,
    "state_code": "AL",
    "country_id": 207,
    "country_code": "ES",
    "latitude": "37.40764000",
    "longitude": "-2.22526000",
    "wikiDataId": null
  },
  {
    "id": 36081,
    "name": "Paterna del Río",
    "state_id": 5095,
    "state_code": "AL",
    "country_id": 207,
    "country_code": "ES",
    "latitude": "37.02222000",
    "longitude": "-2.95343000",
    "wikiDataId": null
  },
  {
    "id": 151353,
    "name": "Pechina",
    "state_id": 5095,
    "state_code": "AL",
    "country_id": 207,
    "country_code": "ES",
    "latitude": "36.91639570",
    "longitude": "-2.44030120",
    "wikiDataId": null
  },
  {
    "id": 36469,
    "name": "Pulpí",
    "state_id": 5095,
    "state_code": "AL",
    "country_id": 207,
    "country_code": "ES",
    "latitude": "37.41154000",
    "longitude": "-1.74496000",
    "wikiDataId": null
  },
  {
    "id": 36475,
    "name": "Purchena",
    "state_id": 5095,
    "state_code": "AL",
    "country_id": 207,
    "country_code": "ES",
    "latitude": "37.34744000",
    "longitude": "-2.36080000",
    "wikiDataId": null
  },
  {
    "id": 36714,
    "name": "Rágol",
    "state_id": 5095,
    "state_code": "AL",
    "country_id": 207,
    "country_code": "ES",
    "latitude": "36.99523000",
    "longitude": "-2.68178000",
    "wikiDataId": null
  },
  {
    "id": 36630,
    "name": "Rioja",
    "state_id": 5095,
    "state_code": "AL",
    "country_id": 207,
    "country_code": "ES",
    "latitude": "36.94508000",
    "longitude": "-2.46302000",
    "wikiDataId": null
  },
  {
    "id": 36675,
    "name": "Roquetas de Mar",
    "state_id": 5095,
    "state_code": "AL",
    "country_id": 207,
    "country_code": "ES",
    "latitude": "36.76419000",
    "longitude": "-2.61475000",
    "wikiDataId": null
  },
  {
    "id": 151354,
    "name": "Santa Cruz de Marchena",
    "state_id": 5095,
    "state_code": "AL",
    "country_id": 207,
    "country_code": "ES",
    "latitude": "37.01663910",
    "longitude": "-2.60249350",
    "wikiDataId": null
  },
  {
    "id": 37059,
    "name": "Santa Fe de Mondújar",
    "state_id": 5095,
    "state_code": "AL",
    "country_id": 207,
    "country_code": "ES",
    "latitude": "36.97479000",
    "longitude": "-2.53126000",
    "wikiDataId": null
  },
  {
    "id": 151355,
    "name": "Senés",
    "state_id": 5095,
    "state_code": "AL",
    "country_id": 207,
    "country_code": "ES",
    "latitude": "37.20414570",
    "longitude": "-2.34628560",
    "wikiDataId": null
  },
  {
    "id": 37228,
    "name": "Serón",
    "state_id": 5095,
    "state_code": "AL",
    "country_id": 207,
    "country_code": "ES",
    "latitude": "37.34485000",
    "longitude": "-2.50913000",
    "wikiDataId": null
  },
  {
    "id": 37248,
    "name": "Sierro",
    "state_id": 5095,
    "state_code": "AL",
    "country_id": 207,
    "country_code": "ES",
    "latitude": "37.32237000",
    "longitude": "-2.39844000",
    "wikiDataId": null
  },
  {
    "id": 37288,
    "name": "Somontín",
    "state_id": 5095,
    "state_code": "AL",
    "country_id": 207,
    "country_code": "ES",
    "latitude": "37.39176000",
    "longitude": "-2.38828000",
    "wikiDataId": null
  },
  {
    "id": 37298,
    "name": "Sorbas",
    "state_id": 5095,
    "state_code": "AL",
    "country_id": 207,
    "country_code": "ES",
    "latitude": "37.09761000",
    "longitude": "-2.12349000",
    "wikiDataId": null
  },
  {
    "id": 37331,
    "name": "Suflí",
    "state_id": 5095,
    "state_code": "AL",
    "country_id": 207,
    "country_code": "ES",
    "latitude": "37.33866000",
    "longitude": "-2.38817000",
    "wikiDataId": null
  },
  {
    "id": 37343,
    "name": "Tabernas",
    "state_id": 5095,
    "state_code": "AL",
    "country_id": 207,
    "country_code": "ES",
    "latitude": "37.04992000",
    "longitude": "-2.39084000",
    "wikiDataId": null
  },
  {
    "id": 151356,
    "name": "Taberno",
    "state_id": 5095,
    "state_code": "AL",
    "country_id": 207,
    "country_code": "ES",
    "latitude": "37.46927500",
    "longitude": "-2.07816410",
    "wikiDataId": null
  },
  {
    "id": 37350,
    "name": "Tahal",
    "state_id": 5095,
    "state_code": "AL",
    "country_id": 207,
    "country_code": "ES",
    "latitude": "37.22797000",
    "longitude": "-2.28470000",
    "wikiDataId": null
  },
  {
    "id": 37406,
    "name": "Terque",
    "state_id": 5095,
    "state_code": "AL",
    "country_id": 207,
    "country_code": "ES",
    "latitude": "36.98393000",
    "longitude": "-2.59679000",
    "wikiDataId": null
  },
  {
    "id": 37667,
    "name": "Tíjola",
    "state_id": 5095,
    "state_code": "AL",
    "country_id": 207,
    "country_code": "ES",
    "latitude": "37.34606000",
    "longitude": "-2.43326000",
    "wikiDataId": null
  },
  {
    "id": 37656,
    "name": "Turre",
    "state_id": 5095,
    "state_code": "AL",
    "country_id": 207,
    "country_code": "ES",
    "latitude": "37.15224000",
    "longitude": "-1.89497000",
    "wikiDataId": null
  },
  {
    "id": 37657,
    "name": "Turrillas",
    "state_id": 5095,
    "state_code": "AL",
    "country_id": 207,
    "country_code": "ES",
    "latitude": "37.02948000",
    "longitude": "-2.26607000",
    "wikiDataId": null
  },
  {
    "id": 37679,
    "name": "Uleila del Campo",
    "state_id": 5095,
    "state_code": "AL",
    "country_id": 207,
    "country_code": "ES",
    "latitude": "37.18460000",
    "longitude": "-2.20491000",
    "wikiDataId": null
  },
  {
    "id": 37697,
    "name": "Urrácal",
    "state_id": 5095,
    "state_code": "AL",
    "country_id": 207,
    "country_code": "ES",
    "latitude": "37.39740000",
    "longitude": "-2.36485000",
    "wikiDataId": null
  },
  {
    "id": 37926,
    "name": "Velefique",
    "state_id": 5095,
    "state_code": "AL",
    "country_id": 207,
    "country_code": "ES",
    "latitude": "37.19407000",
    "longitude": "-2.40155000",
    "wikiDataId": null
  },
  {
    "id": 38415,
    "name": "Vélez-Blanco",
    "state_id": 5095,
    "state_code": "AL",
    "country_id": 207,
    "country_code": "ES",
    "latitude": "37.69178000",
    "longitude": "-2.09587000",
    "wikiDataId": null
  },
  {
    "id": 151357,
    "name": "Vélez-Rubio",
    "state_id": 5095,
    "state_code": "AL",
    "country_id": 207,
    "country_code": "ES",
    "latitude": "37.64835010",
    "longitude": "-2.07682030",
    "wikiDataId": null
  },
  {
    "id": 37947,
    "name": "Vera",
    "state_id": 5095,
    "state_code": "AL",
    "country_id": 207,
    "country_code": "ES",
    "latitude": "37.24345000",
    "longitude": "-1.85905000",
    "wikiDataId": null
  },
  {
    "id": 37961,
    "name": "Viator",
    "state_id": 5095,
    "state_code": "AL",
    "country_id": 207,
    "country_code": "ES",
    "latitude": "36.89006000",
    "longitude": "-2.42695000",
    "wikiDataId": null
  },
  {
    "id": 38417,
    "name": "Vícar",
    "state_id": 5095,
    "state_code": "AL",
    "country_id": 207,
    "country_code": "ES",
    "latitude": "36.83155000",
    "longitude": "-2.64273000",
    "wikiDataId": null
  },
  {
    "id": 38510,
    "name": "Zurgena",
    "state_id": 5095,
    "state_code": "AL",
    "country_id": 207,
    "country_code": "ES",
    "latitude": "37.34218000",
    "longitude": "-2.03985000",
    "wikiDataId": null
  }
]