[
  {
    "id": 79688,
    "name": "Åseral",
    "state_id": 1014,
    "state_code": "42",
    "country_id": 165,
    "country_code": "NO",
    "latitude": "58.61730000",
    "longitude": "7.41118000",
    "wikiDataId": null
  },
  {
    "id": 79049,
    "name": "Audnedal",
    "state_id": 1014,
    "state_code": "42",
    "country_id": 165,
    "country_code": "NO",
    "latitude": "58.28378000",
    "longitude": "7.35487000",
    "wikiDataId": null
  },
  {
    "id": 79134,
    "name": "Farsund",
    "state_id": 1014,
    "state_code": "42",
    "country_id": 165,
    "country_code": "NO",
    "latitude": "58.09538000",
    "longitude": "6.80403000",
    "wikiDataId": null
  },
  {
    "id": 79149,
    "name": "Flekkefjord",
    "state_id": 1014,
    "state_code": "42",
    "country_id": 165,
    "country_code": "NO",
    "latitude": "58.29791000",
    "longitude": "6.66345000",
    "wikiDataId": null
  },
  {
    "id": 79246,
    "name": "Hægebostad",
    "state_id": 1014,
    "state_code": "42",
    "country_id": 165,
    "country_code": "NO",
    "latitude": "58.37572000",
    "longitude": "7.21973000",
    "wikiDataId": null
  },
  {
    "id": 79260,
    "name": "Justvik",
    "state_id": 1014,
    "state_code": "42",
    "country_id": 165,
    "country_code": "NO",
    "latitude": "58.19691000",
    "longitude": "8.03107000",
    "wikiDataId": null
  },
  {
    "id": 79287,
    "name": "Kristiansand",
    "state_id": 1014,
    "state_code": "42",
    "country_id": 165,
    "country_code": "NO",
    "latitude": "58.14642000",
    "longitude": "7.99687000",
    "wikiDataId": null
  },
  {
    "id": 79292,
    "name": "Kvinesdal",
    "state_id": 1014,
    "state_code": "42",
    "country_id": 165,
    "country_code": "NO",
    "latitude": "58.23894000",
    "longitude": "6.71445000",
    "wikiDataId": null
  },
  {
    "id": 79322,
    "name": "Liknes",
    "state_id": 1014,
    "state_code": "42",
    "country_id": 165,
    "country_code": "NO",
    "latitude": "58.31216000",
    "longitude": "6.96180000",
    "wikiDataId": null
  },
  {
    "id": 79325,
    "name": "Lindesnes",
    "state_id": 1014,
    "state_code": "42",
    "country_id": 165,
    "country_code": "NO",
    "latitude": "58.08435000",
    "longitude": "7.30162000",
    "wikiDataId": null
  },
  {
    "id": 79337,
    "name": "Lyngdal",
    "state_id": 1014,
    "state_code": "42",
    "country_id": 165,
    "country_code": "NO",
    "latitude": "58.13829000",
    "longitude": "7.06836000",
    "wikiDataId": null
  },
  {
    "id": 79350,
    "name": "Mandal",
    "state_id": 1014,
    "state_code": "42",
    "country_id": 165,
    "country_code": "NO",
    "latitude": "58.02633000",
    "longitude": "7.45014000",
    "wikiDataId": null
  },
  {
    "id": 79353,
    "name": "Marnardal",
    "state_id": 1014,
    "state_code": "42",
    "country_id": 165,
    "country_code": "NO",
    "latitude": "58.19802000",
    "longitude": "7.52802000",
    "wikiDataId": null
  },
  {
    "id": 79400,
    "name": "Nodeland",
    "state_id": 1014,
    "state_code": "42",
    "country_id": 165,
    "country_code": "NO",
    "latitude": "58.15517000",
    "longitude": "7.83576000",
    "wikiDataId": null
  },
  {
    "id": 79499,
    "name": "Sirdal",
    "state_id": 1014,
    "state_code": "42",
    "country_id": 165,
    "country_code": "NO",
    "latitude": "58.66510000",
    "longitude": "6.71585000",
    "wikiDataId": null
  },
  {
    "id": 79523,
    "name": "Skålevik",
    "state_id": 1014,
    "state_code": "42",
    "country_id": 165,
    "country_code": "NO",
    "latitude": "58.07955000",
    "longitude": "8.01602000",
    "wikiDataId": null
  },
  {
    "id": 79533,
    "name": "Songdalen",
    "state_id": 1014,
    "state_code": "42",
    "country_id": 165,
    "country_code": "NO",
    "latitude": "58.15273000",
    "longitude": "7.83677000",
    "wikiDataId": null
  },
  {
    "id": 79576,
    "name": "Søgne",
    "state_id": 1014,
    "state_code": "42",
    "country_id": 165,
    "country_code": "NO",
    "latitude": "58.09663000",
    "longitude": "7.81491000",
    "wikiDataId": null
  },
  {
    "id": 79554,
    "name": "Strai",
    "state_id": 1014,
    "state_code": "42",
    "country_id": 165,
    "country_code": "NO",
    "latitude": "58.18930000",
    "longitude": "7.92826000",
    "wikiDataId": null
  },
  {
    "id": 79602,
    "name": "Tonstad",
    "state_id": 1014,
    "state_code": "42",
    "country_id": 165,
    "country_code": "NO",
    "latitude": "58.66263000",
    "longitude": "6.71694000",
    "wikiDataId": null
  },
  {
    "id": 79613,
    "name": "Tveit",
    "state_id": 1014,
    "state_code": "42",
    "country_id": 165,
    "country_code": "NO",
    "latitude": "58.23366000",
    "longitude": "8.12199000",
    "wikiDataId": null
  },
  {
    "id": 79631,
    "name": "Vanse",
    "state_id": 1014,
    "state_code": "42",
    "country_id": 165,
    "country_code": "NO",
    "latitude": "58.09812000",
    "longitude": "6.69184000",
    "wikiDataId": null
  },
  {
    "id": 79639,
    "name": "Vennesla",
    "state_id": 1014,
    "state_code": "42",
    "country_id": 165,
    "country_code": "NO",
    "latitude": "58.34271000",
    "longitude": "7.97596000",
    "wikiDataId": null
  },
  {
    "id": 79643,
    "name": "Vestbygd",
    "state_id": 1014,
    "state_code": "42",
    "country_id": 165,
    "country_code": "NO",
    "latitude": "58.09991000",
    "longitude": "6.58696000",
    "wikiDataId": null
  },
  {
    "id": 79649,
    "name": "Vigeland",
    "state_id": 1014,
    "state_code": "42",
    "country_id": 165,
    "country_code": "NO",
    "latitude": "58.08437000",
    "longitude": "7.30497000",
    "wikiDataId": null
  }
]