[
  {
    "id": 48227,
    "name": "Alresford",
    "state_id": 2410,
    "state_code": "ESS",
    "country_id": 232,
    "country_code": "GB",
    "latitude": "51.85389000",
    "longitude": "1.00203000",
    "wikiDataId": null
  },
  {
    "id": 48492,
    "name": "Bicknacre",
    "state_id": 2410,
    "state_code": "ESS",
    "country_id": 232,
    "country_code": "GB",
    "latitude": "51.69403000",
    "longitude": "0.58519000",
    "wikiDataId": null
  },
  {
    "id": 48541,
    "name": "Black Notley",
    "state_id": 2410,
    "state_code": "ESS",
    "country_id": 232,
    "country_code": "GB",
    "latitude": "51.85301000",
    "longitude": "0.56846000",
    "wikiDataId": null
  },
  {
    "id": 48596,
    "name": "Boreham",
    "state_id": 2410,
    "state_code": "ESS",
    "country_id": 232,
    "country_code": "GB",
    "latitude": "51.75955000",
    "longitude": "0.54116000",
    "wikiDataId": null
  },
  {
    "id": 48653,
    "name": "Braintree",
    "state_id": 2410,
    "state_code": "ESS",
    "country_id": 232,
    "country_code": "GB",
    "latitude": "51.87819000",
    "longitude": "0.55292000",
    "wikiDataId": null
  },
  {
    "id": 48764,
    "name": "Bures Saint Mary",
    "state_id": 2410,
    "state_code": "ESS",
    "country_id": 232,
    "country_code": "GB",
    "latitude": "51.97240000",
    "longitude": "0.77488000",
    "wikiDataId": null
  },
  {
    "id": 48879,
    "name": "Castle Hedingham",
    "state_id": 2410,
    "state_code": "ESS",
    "country_id": 232,
    "country_code": "GB",
    "latitude": "51.99015000",
    "longitude": "0.59882000",
    "wikiDataId": null
  },
  {
    "id": 48944,
    "name": "Chelmsford",
    "state_id": 2410,
    "state_code": "ESS",
    "country_id": 232,
    "country_code": "GB",
    "latitude": "51.73575000",
    "longitude": "0.46958000",
    "wikiDataId": null
  },
  {
    "id": 49019,
    "name": "Clare",
    "state_id": 2410,
    "state_code": "ESS",
    "country_id": 232,
    "country_code": "GB",
    "latitude": "52.07861000",
    "longitude": "0.58167000",
    "wikiDataId": null
  },
  {
    "id": 49059,
    "name": "Coggeshall",
    "state_id": 2410,
    "state_code": "ESS",
    "country_id": 232,
    "country_code": "GB",
    "latitude": "51.87077000",
    "longitude": "0.68536000",
    "wikiDataId": null
  },
  {
    "id": 49061,
    "name": "Colchester",
    "state_id": 2410,
    "state_code": "ESS",
    "country_id": 232,
    "country_code": "GB",
    "latitude": "51.88921000",
    "longitude": "0.90421000",
    "wikiDataId": null
  },
  {
    "id": 49229,
    "name": "Danbury",
    "state_id": 2410,
    "state_code": "ESS",
    "country_id": 232,
    "country_code": "GB",
    "latitude": "51.71645000",
    "longitude": "0.58245000",
    "wikiDataId": null
  },
  {
    "id": 49379,
    "name": "Earls Colne",
    "state_id": 2410,
    "state_code": "ESS",
    "country_id": 232,
    "country_code": "GB",
    "latitude": "51.92744000",
    "longitude": "0.70107000",
    "wikiDataId": null
  },
  {
    "id": 49448,
    "name": "Eight Ash Green",
    "state_id": 2410,
    "state_code": "ESS",
    "country_id": 232,
    "country_code": "GB",
    "latitude": "51.89587000",
    "longitude": "0.82280000",
    "wikiDataId": null
  },
  {
    "id": 49459,
    "name": "Elmstead Market",
    "state_id": 2410,
    "state_code": "ESS",
    "country_id": 232,
    "country_code": "GB",
    "latitude": "51.88219000",
    "longitude": "0.99482000",
    "wikiDataId": null
  },
  {
    "id": 49461,
    "name": "Elsenham",
    "state_id": 2410,
    "state_code": "ESS",
    "country_id": 232,
    "country_code": "GB",
    "latitude": "51.91431000",
    "longitude": "0.22934000",
    "wikiDataId": null
  },
  {
    "id": 49486,
    "name": "Essex",
    "state_id": 2410,
    "state_code": "ESS",
    "country_id": 232,
    "country_code": "GB",
    "latitude": "51.83333000",
    "longitude": "0.58333000",
    "wikiDataId": null
  },
  {
    "id": 49686,
    "name": "Gosfield",
    "state_id": 2410,
    "state_code": "ESS",
    "country_id": 232,
    "country_code": "GB",
    "latitude": "51.93657000",
    "longitude": "0.59197000",
    "wikiDataId": null
  },
  {
    "id": 49708,
    "name": "Great Bardfield",
    "state_id": 2410,
    "state_code": "ESS",
    "country_id": 232,
    "country_code": "GB",
    "latitude": "51.94813000",
    "longitude": "0.43645000",
    "wikiDataId": null
  },
  {
    "id": 49715,
    "name": "Great Dunmow",
    "state_id": 2410,
    "state_code": "ESS",
    "country_id": 232,
    "country_code": "GB",
    "latitude": "51.87230000",
    "longitude": "0.36255000",
    "wikiDataId": null
  },
  {
    "id": 49723,
    "name": "Great Horkesley",
    "state_id": 2410,
    "state_code": "ESS",
    "country_id": 232,
    "country_code": "GB",
    "latitude": "51.93821000",
    "longitude": "0.87551000",
    "wikiDataId": null
  },
  {
    "id": 49726,
    "name": "Great Leighs",
    "state_id": 2410,
    "state_code": "ESS",
    "country_id": 232,
    "country_code": "GB",
    "latitude": "51.82761000",
    "longitude": "0.50640000",
    "wikiDataId": null
  },
  {
    "id": 49737,
    "name": "Great Yeldham",
    "state_id": 2410,
    "state_code": "ESS",
    "country_id": 232,
    "country_code": "GB",
    "latitude": "52.01347000",
    "longitude": "0.56540000",
    "wikiDataId": null
  },
  {
    "id": 49789,
    "name": "Halstead",
    "state_id": 2410,
    "state_code": "ESS",
    "country_id": 232,
    "country_code": "GB",
    "latitude": "51.94506000",
    "longitude": "0.63927000",
    "wikiDataId": null
  },
  {
    "id": 49838,
    "name": "Hatfield Heath",
    "state_id": 2410,
    "state_code": "ESS",
    "country_id": 232,
    "country_code": "GB",
    "latitude": "51.81233000",
    "longitude": "0.21243000",
    "wikiDataId": null
  },
  {
    "id": 49839,
    "name": "Hatfield Peverel",
    "state_id": 2410,
    "state_code": "ESS",
    "country_id": 232,
    "country_code": "GB",
    "latitude": "51.77591000",
    "longitude": "0.59489000",
    "wikiDataId": null
  },
  {
    "id": 49848,
    "name": "Haverhill",
    "state_id": 2410,
    "state_code": "ESS",
    "country_id": 232,
    "country_code": "GB",
    "latitude": "52.08226000",
    "longitude": "0.43891000",
    "wikiDataId": null
  },
  {
    "id": 49929,
    "name": "High Ongar",
    "state_id": 2410,
    "state_code": "ESS",
    "country_id": 232,
    "country_code": "GB",
    "latitude": "51.70953000",
    "longitude": "0.26221000",
    "wikiDataId": null
  },
  {
    "id": 50050,
    "name": "Ingatestone",
    "state_id": 2410,
    "state_code": "ESS",
    "country_id": 232,
    "country_code": "GB",
    "latitude": "51.67027000",
    "longitude": "0.38359000",
    "wikiDataId": null
  },
  {
    "id": 50101,
    "name": "Kedington",
    "state_id": 2410,
    "state_code": "ESS",
    "country_id": 232,
    "country_code": "GB",
    "latitude": "52.09282000",
    "longitude": "0.48675000",
    "wikiDataId": null
  },
  {
    "id": 50111,
    "name": "Kelvedon",
    "state_id": 2410,
    "state_code": "ESS",
    "country_id": 232,
    "country_code": "GB",
    "latitude": "51.84007000",
    "longitude": "0.70570000",
    "wikiDataId": null
  },
  {
    "id": 50262,
    "name": "Layer de la Haye",
    "state_id": 2410,
    "state_code": "ESS",
    "country_id": 232,
    "country_code": "GB",
    "latitude": "51.84593000",
    "longitude": "0.85745000",
    "wikiDataId": null
  },
  {
    "id": 50326,
    "name": "Little Dunmow",
    "state_id": 2410,
    "state_code": "ESS",
    "country_id": 232,
    "country_code": "GB",
    "latitude": "51.86096000",
    "longitude": "0.41478000",
    "wikiDataId": null
  },
  {
    "id": 50475,
    "name": "Maldon",
    "state_id": 2410,
    "state_code": "ESS",
    "country_id": 232,
    "country_code": "GB",
    "latitude": "51.73110000",
    "longitude": "0.67463000",
    "wikiDataId": null
  },
  {
    "id": 50508,
    "name": "Marks Tey",
    "state_id": 2410,
    "state_code": "ESS",
    "country_id": 232,
    "country_code": "GB",
    "latitude": "51.87628000",
    "longitude": "0.76424000",
    "wikiDataId": null
  },
  {
    "id": 51044,
    "name": "Rayne",
    "state_id": 2410,
    "state_code": "ESS",
    "country_id": 232,
    "country_code": "GB",
    "latitude": "51.86667000",
    "longitude": "0.58333000",
    "wikiDataId": null
  },
  {
    "id": 51125,
    "name": "Rowhedge",
    "state_id": 2410,
    "state_code": "ESS",
    "country_id": 232,
    "country_code": "GB",
    "latitude": "51.85738000",
    "longitude": "0.94534000",
    "wikiDataId": null
  },
  {
    "id": 51300,
    "name": "Sible Hedingham",
    "state_id": 2410,
    "state_code": "ESS",
    "country_id": 232,
    "country_code": "GB",
    "latitude": "51.97772000",
    "longitude": "0.59262000",
    "wikiDataId": null
  },
  {
    "id": 51309,
    "name": "Silver End",
    "state_id": 2410,
    "state_code": "ESS",
    "country_id": 232,
    "country_code": "GB",
    "latitude": "51.84734000",
    "longitude": "0.62399000",
    "wikiDataId": null
  },
  {
    "id": 51435,
    "name": "Steeple Bumpstead",
    "state_id": 2410,
    "state_code": "ESS",
    "country_id": 232,
    "country_code": "GB",
    "latitude": "52.04346000",
    "longitude": "0.44808000",
    "wikiDataId": null
  },
  {
    "id": 51454,
    "name": "Stock",
    "state_id": 2410,
    "state_code": "ESS",
    "country_id": 232,
    "country_code": "GB",
    "latitude": "51.66351000",
    "longitude": "0.44263000",
    "wikiDataId": null
  },
  {
    "id": 51548,
    "name": "Takeley",
    "state_id": 2410,
    "state_code": "ESS",
    "country_id": 232,
    "country_code": "GB",
    "latitude": "51.87089000",
    "longitude": "0.26583000",
    "wikiDataId": null
  },
  {
    "id": 51587,
    "name": "Thaxted",
    "state_id": 2410,
    "state_code": "ESS",
    "country_id": 232,
    "country_code": "GB",
    "latitude": "51.95326000",
    "longitude": "0.34478000",
    "wikiDataId": null
  },
  {
    "id": 51631,
    "name": "Tiptree",
    "state_id": 2410,
    "state_code": "ESS",
    "country_id": 232,
    "country_code": "GB",
    "latitude": "51.81230000",
    "longitude": "0.74540000",
    "wikiDataId": null
  },
  {
    "id": 51639,
    "name": "Tolleshunt Knights",
    "state_id": 2410,
    "state_code": "ESS",
    "country_id": 232,
    "country_code": "GB",
    "latitude": "51.79869000",
    "longitude": "0.77651000",
    "wikiDataId": null
  },
  {
    "id": 51805,
    "name": "West Bergholt",
    "state_id": 2410,
    "state_code": "ESS",
    "country_id": 232,
    "country_code": "GB",
    "latitude": "51.91221000",
    "longitude": "0.84986000",
    "wikiDataId": null
  },
  {
    "id": 51893,
    "name": "Wickham Bishops",
    "state_id": 2410,
    "state_code": "ESS",
    "country_id": 232,
    "country_code": "GB",
    "latitude": "51.77830000",
    "longitude": "0.66823000",
    "wikiDataId": null
  },
  {
    "id": 51944,
    "name": "Witham",
    "state_id": 2410,
    "state_code": "ESS",
    "country_id": 232,
    "country_code": "GB",
    "latitude": "51.80007000",
    "longitude": "0.64038000",
    "wikiDataId": null
  },
  {
    "id": 51953,
    "name": "Wivenhoe",
    "state_id": 2410,
    "state_code": "ESS",
    "country_id": 232,
    "country_code": "GB",
    "latitude": "51.85553000",
    "longitude": "0.95796000",
    "wikiDataId": null
  },
  {
    "id": 52000,
    "name": "Writtle",
    "state_id": 2410,
    "state_code": "ESS",
    "country_id": 232,
    "country_code": "GB",
    "latitude": "51.72906000",
    "longitude": "0.42938000",
    "wikiDataId": null
  }
]