[
  {
    "id": 48178,
    "name": "Aberlady",
    "state_id": 2462,
    "state_code": "ELN",
    "country_id": 232,
    "country_code": "GB",
    "latitude": "56.00884000",
    "longitude": "-2.85851000",
    "wikiDataId": null
  },
  {
    "id": 48220,
    "name": "Allanton",
    "state_id": 2462,
    "state_code": "ELN",
    "country_id": 232,
    "country_code": "GB",
    "latitude": "55.78333000",
    "longitude": "-2.21667000",
    "wikiDataId": null
  },
  {
    "id": 48977,
    "name": "Chirnside",
    "state_id": 2462,
    "state_code": "ELN",
    "country_id": 232,
    "country_code": "GB",
    "latitude": "55.80215000",
    "longitude": "-2.20927000",
    "wikiDataId": null
  },
  {
    "id": 49343,
    "name": "Dunbar",
    "state_id": 2462,
    "state_code": "ELN",
    "country_id": 232,
    "country_code": "GB",
    "latitude": "56.00062000",
    "longitude": "-2.51418000",
    "wikiDataId": null
  },
  {
    "id": 49362,
    "name": "Duns",
    "state_id": 2462,
    "state_code": "ELN",
    "country_id": 232,
    "country_code": "GB",
    "latitude": "55.77704000",
    "longitude": "-2.34575000",
    "wikiDataId": null
  },
  {
    "id": 49403,
    "name": "East Linton",
    "state_id": 2462,
    "state_code": "ELN",
    "country_id": 232,
    "country_code": "GB",
    "latitude": "55.98737000",
    "longitude": "-2.65682000",
    "wikiDataId": null
  },
  {
    "id": 49404,
    "name": "East Lothian",
    "state_id": 2462,
    "state_code": "ELN",
    "country_id": 232,
    "country_code": "GB",
    "latitude": "55.91667000",
    "longitude": "-2.75000000",
    "wikiDataId": null
  },
  {
    "id": 49510,
    "name": "Eyemouth",
    "state_id": 2462,
    "state_code": "ELN",
    "country_id": 232,
    "country_code": "GB",
    "latitude": "55.87130000",
    "longitude": "-2.09010000",
    "wikiDataId": null
  },
  {
    "id": 49766,
    "name": "Gullane",
    "state_id": 2462,
    "state_code": "ELN",
    "country_id": 232,
    "country_code": "GB",
    "latitude": "56.03652000",
    "longitude": "-2.82829000",
    "wikiDataId": null
  },
  {
    "id": 49772,
    "name": "Haddington",
    "state_id": 2462,
    "state_code": "ELN",
    "country_id": 232,
    "country_code": "GB",
    "latitude": "55.95612000",
    "longitude": "-2.78332000",
    "wikiDataId": null
  },
  {
    "id": 50408,
    "name": "Longniddry",
    "state_id": 2462,
    "state_code": "ELN",
    "country_id": 232,
    "country_code": "GB",
    "latitude": "55.97543000",
    "longitude": "-2.89593000",
    "wikiDataId": null
  },
  {
    "id": 50462,
    "name": "Macmerry",
    "state_id": 2462,
    "state_code": "ELN",
    "country_id": 232,
    "country_code": "GB",
    "latitude": "55.94045000",
    "longitude": "-2.90503000",
    "wikiDataId": null
  },
  {
    "id": 50749,
    "name": "North Berwick",
    "state_id": 2462,
    "state_code": "ELN",
    "country_id": 232,
    "country_code": "GB",
    "latitude": "56.05825000",
    "longitude": "-2.72290000",
    "wikiDataId": null
  },
  {
    "id": 50816,
    "name": "Ormiston",
    "state_id": 2462,
    "state_code": "ELN",
    "country_id": 232,
    "country_code": "GB",
    "latitude": "55.91302000",
    "longitude": "-2.93985000",
    "wikiDataId": null
  },
  {
    "id": 50879,
    "name": "Pencaitland",
    "state_id": 2462,
    "state_code": "ELN",
    "country_id": 232,
    "country_code": "GB",
    "latitude": "55.90727000",
    "longitude": "-2.89490000",
    "wikiDataId": null
  },
  {
    "id": 51659,
    "name": "Tranent",
    "state_id": 2462,
    "state_code": "ELN",
    "country_id": 232,
    "country_code": "GB",
    "latitude": "55.94439000",
    "longitude": "-2.95412000",
    "wikiDataId": null
  }
]