[
  {
    "id": 885,
    "name": "Al Jazirah",
    "country_id": 209,
    "country_code": "SD",
    "state_code": "GZ",
    "type": "state",
    "latitude": "14.66715370",
    "longitude": "33.22236100",
    "iso3166_2": "SD-GZ",
    "native": "الجزيرة",
    "timezone": "Africa/Khartoum"
  },
  {
    "id": 886,
    "name": "Al Qadarif",
    "country_id": 209,
    "country_code": "SD",
    "state_code": "GD",
    "type": "state",
    "latitude": "14.04094100",
    "longitude": "35.39883200",
    "iso3166_2": "SD-GD",
    "native": "القضارف",
    "timezone": "Africa/Khartoum"
  },
  {
    "id": 887,
    "name": "Blue Nile",
    "country_id": 209,
    "country_code": "SD",
    "state_code": "NB",
    "type": "state",
    "latitude": "11.95669720",
    "longitude": "34.12289400",
    "iso3166_2": "SD-NB",
    "native": "النيل الأزرق",
    "timezone": "Africa/Khartoum"
  },
  {
    "id": 896,
    "name": "Central Darfur",
    "country_id": 209,
    "country_code": "SD",
    "state_code": "DC",
    "type": "state",
    "latitude": "12.12970930",
    "longitude": "23.35416870",
    "iso3166_2": "SD-DC",
    "native": "وسط دارفور",
    "timezone": "Africa/Khartoum"
  },
  {
    "id": 892,
    "name": "East Darfur",
    "country_id": 209,
    "country_code": "SD",
    "state_code": "DE",
    "type": "state",
    "latitude": "11.22319830",
    "longitude": "26.58580410",
    "iso3166_2": "SD-DE",
    "native": "شرق دارفور",
    "timezone": "Africa/Khartoum"
  },
  {
    "id": 884,
    "name": "Kassala",
    "country_id": 209,
    "country_code": "SD",
    "state_code": "KA",
    "type": "state",
    "latitude": "15.45201100",
    "longitude": "36.37706990",
    "iso3166_2": "SD-KA",
    "native": "كسلا",
    "timezone": "Africa/Khartoum"
  },
  {
    "id": 881,
    "name": "Khartoum",
    "country_id": 209,
    "country_code": "SD",
    "state_code": "KH",
    "type": "state",
    "latitude": "15.50383010",
    "longitude": "32.57389790",
    "iso3166_2": "SD-KH",
    "native": "الخرطوم",
    "timezone": "Africa/Khartoum"
  },
  {
    "id": 890,
    "name": "North Darfur",
    "country_id": 209,
    "country_code": "SD",
    "state_code": "DN",
    "type": "state",
    "latitude": "16.00000000",
    "longitude": "26.00000000",
    "iso3166_2": "SD-DN",
    "native": "شمال دارفور",
    "timezone": "Africa/Khartoum"
  },
  {
    "id": 893,
    "name": "North Kordofan",
    "country_id": 209,
    "country_code": "SD",
    "state_code": "KN",
    "type": "state",
    "latitude": "14.41693020",
    "longitude": "29.46836900",
    "iso3166_2": "SD-KN",
    "native": "شمال كردفان",
    "timezone": "Africa/Khartoum"
  },
  {
    "id": 895,
    "name": "Northern",
    "country_id": 209,
    "country_code": "SD",
    "state_code": "NO",
    "type": "state",
    "latitude": "19.00000000",
    "longitude": "30.00000000",
    "iso3166_2": "SD-NO",
    "native": "شمالي",
    "timezone": "Africa/Khartoum"
  },
  {
    "id": 880,
    "name": "Red Sea",
    "country_id": 209,
    "country_code": "SD",
    "state_code": "RS",
    "type": "state",
    "latitude": "20.00000000",
    "longitude": "36.00000000",
    "iso3166_2": "SD-RS",
    "native": "البحر الأحمر",
    "timezone": "Africa/Khartoum"
  },
  {
    "id": 891,
    "name": "River Nile",
    "country_id": 209,
    "country_code": "SD",
    "state_code": "NR",
    "type": "state",
    "latitude": "19.01055960",
    "longitude": "33.01831800",
    "iso3166_2": "SD-NR",
    "native": "نهر النيل",
    "timezone": "Africa/Khartoum"
  },
  {
    "id": 882,
    "name": "Sennar",
    "country_id": 209,
    "country_code": "SD",
    "state_code": "SI",
    "type": "state",
    "latitude": "13.54240540",
    "longitude": "33.61035550",
    "iso3166_2": "SD-SI",
    "native": "سنار",
    "timezone": "Africa/Khartoum"
  },
  {
    "id": 894,
    "name": "South Darfur",
    "country_id": 209,
    "country_code": "SD",
    "state_code": "DS",
    "type": "state",
    "latitude": "11.00000000",
    "longitude": "25.00000000",
    "iso3166_2": "SD-DS",
    "native": "جنوب دارفور",
    "timezone": "Africa/Khartoum"
  },
  {
    "id": 883,
    "name": "South Kordofan",
    "country_id": 209,
    "country_code": "SD",
    "state_code": "KS",
    "type": "state",
    "latitude": "11.00000000",
    "longitude": "31.00000000",
    "iso3166_2": "SD-KS",
    "native": "جنوب كردفان",
    "timezone": "Africa/Khartoum"
  },
  {
    "id": 888,
    "name": "West Darfur",
    "country_id": 209,
    "country_code": "SD",
    "state_code": "DW",
    "type": "state",
    "latitude": "13.51100520",
    "longitude": "22.70334270",
    "iso3166_2": "SD-DW",
    "native": "غرب دارفور",
    "timezone": "Africa/Khartoum"
  },
  {
    "id": 889,
    "name": "West Kordofan",
    "country_id": 209,
    "country_code": "SD",
    "state_code": "GK",
    "type": "state",
    "latitude": "11.75228030",
    "longitude": "28.20460260",
    "iso3166_2": "SD-GK",
    "native": "غرب كردفان",
    "timezone": "Africa/Khartoum"
  },
  {
    "id": 879,
    "name": "White Nile",
    "country_id": 209,
    "country_code": "SD",
    "state_code": "NW",
    "type": "state",
    "latitude": "12.49998380",
    "longitude": "32.50001660",
    "iso3166_2": "SD-NW",
    "native": "النيل الأبيض",
    "timezone": "Africa/Khartoum"
  }
]