[
  {
    "id": 97542,
    "name": "Aksay",
    "state_id": 1837,
    "state_code": "ROS",
    "country_id": 182,
    "country_code": "RU",
    "latitude": "47.25838000",
    "longitude": "39.86675000",
    "wikiDataId": null
  },
  {
    "id": 97598,
    "name": "Almaznyy",
    "state_id": 1837,
    "state_code": "ROS",
    "country_id": 182,
    "country_code": "RU",
    "latitude": "48.04476000",
    "longitude": "40.04501000",
    "wikiDataId": null
  },
  {
    "id": 97622,
    "name": "Anastasiyevka",
    "state_id": 1837,
    "state_code": "ROS",
    "country_id": 182,
    "country_code": "RU",
    "latitude": "47.56072000",
    "longitude": "38.52837000",
    "wikiDataId": null
  },
  {
    "id": 97731,
    "name": "Ayutinskiy",
    "state_id": 1837,
    "state_code": "ROS",
    "country_id": 182,
    "country_code": "RU",
    "latitude": "47.78228000",
    "longitude": "40.14763000",
    "wikiDataId": null
  },
  {
    "id": 97734,
    "name": "Azov",
    "state_id": 1837,
    "state_code": "ROS",
    "country_id": 182,
    "country_code": "RU",
    "latitude": "47.10779000",
    "longitude": "39.41648000",
    "wikiDataId": null
  },
  {
    "id": 97752,
    "name": "Bagayevskaya",
    "state_id": 1837,
    "state_code": "ROS",
    "country_id": 182,
    "country_code": "RU",
    "latitude": "47.32411000",
    "longitude": "40.38791000",
    "wikiDataId": null
  },
  {
    "id": 97811,
    "name": "Bataysk",
    "state_id": 1837,
    "state_code": "ROS",
    "country_id": 182,
    "country_code": "RU",
    "latitude": "47.13975000",
    "longitude": "39.75181000",
    "wikiDataId": null
  },
  {
    "id": 97842,
    "name": "Belaya Kalitva",
    "state_id": 1837,
    "state_code": "ROS",
    "country_id": 182,
    "country_code": "RU",
    "latitude": "48.18585000",
    "longitude": "40.77424000",
    "wikiDataId": null
  },
  {
    "id": 97985,
    "name": "Bokovskaya",
    "state_id": 1837,
    "state_code": "ROS",
    "country_id": 182,
    "country_code": "RU",
    "latitude": "49.22899000",
    "longitude": "41.83060000",
    "wikiDataId": null
  },
  {
    "id": 98101,
    "name": "Bystrogorskiy",
    "state_id": 1837,
    "state_code": "ROS",
    "country_id": 182,
    "country_code": "RU",
    "latitude": "48.20813000",
    "longitude": "41.14097000",
    "wikiDataId": null
  },
  {
    "id": 98110,
    "name": "Chaltyr",
    "state_id": 1837,
    "state_code": "ROS",
    "country_id": 182,
    "country_code": "RU",
    "latitude": "47.28477000",
    "longitude": "39.48232000",
    "wikiDataId": null
  },
  {
    "id": 98186,
    "name": "Chertkovo",
    "state_id": 1837,
    "state_code": "ROS",
    "country_id": 182,
    "country_code": "RU",
    "latitude": "49.38451000",
    "longitude": "40.14723000",
    "wikiDataId": null
  },
  {
    "id": 98310,
    "name": "Donetsk",
    "state_id": 1837,
    "state_code": "ROS",
    "country_id": 182,
    "country_code": "RU",
    "latitude": "48.33962000",
    "longitude": "39.95948000",
    "wikiDataId": null
  },
  {
    "id": 98311,
    "name": "Donskoy",
    "state_id": 1837,
    "state_code": "ROS",
    "country_id": 182,
    "country_code": "RU",
    "latitude": "47.41404000",
    "longitude": "40.25742000",
    "wikiDataId": null
  },
  {
    "id": 98340,
    "name": "Dubovskoye",
    "state_id": 1837,
    "state_code": "ROS",
    "country_id": 182,
    "country_code": "RU",
    "latitude": "47.41420000",
    "longitude": "42.76970000",
    "wikiDataId": null
  },
  {
    "id": 98489,
    "name": "Gigant",
    "state_id": 1837,
    "state_code": "ROS",
    "country_id": 182,
    "country_code": "RU",
    "latitude": "46.50665000",
    "longitude": "41.34185000",
    "wikiDataId": null
  },
  {
    "id": 98501,
    "name": "Glubokiy",
    "state_id": 1837,
    "state_code": "ROS",
    "country_id": 182,
    "country_code": "RU",
    "latitude": "48.52716000",
    "longitude": "40.33144000",
    "wikiDataId": null
  },
  {
    "id": 98538,
    "name": "Gornyatskiy",
    "state_id": 1837,
    "state_code": "ROS",
    "country_id": 182,
    "country_code": "RU",
    "latitude": "48.29649000",
    "longitude": "40.92404000",
    "wikiDataId": null
  },
  {
    "id": 98540,
    "name": "Gornyy",
    "state_id": 1837,
    "state_code": "ROS",
    "country_id": 182,
    "country_code": "RU",
    "latitude": "47.81592000",
    "longitude": "40.20363000",
    "wikiDataId": null
  },
  {
    "id": 98595,
    "name": "Grushevskaya",
    "state_id": 1837,
    "state_code": "ROS",
    "country_id": 182,
    "country_code": "RU",
    "latitude": "47.44056000",
    "longitude": "39.95111000",
    "wikiDataId": null
  },
  {
    "id": 98608,
    "name": "Gukovo",
    "state_id": 1837,
    "state_code": "ROS",
    "country_id": 182,
    "country_code": "RU",
    "latitude": "48.06212000",
    "longitude": "39.93550000",
    "wikiDataId": null
  },
  {
    "id": 98612,
    "name": "Gundorovskiy",
    "state_id": 1837,
    "state_code": "ROS",
    "country_id": 182,
    "country_code": "RU",
    "latitude": "46.78047000",
    "longitude": "41.89680000",
    "wikiDataId": null
  },
  {
    "id": 98776,
    "name": "Kagal’nitskaya",
    "state_id": 1837,
    "state_code": "ROS",
    "country_id": 182,
    "country_code": "RU",
    "latitude": "46.88056000",
    "longitude": "40.14657000",
    "wikiDataId": null
  },
  {
    "id": 98785,
    "name": "Kalinin",
    "state_id": 1837,
    "state_code": "ROS",
    "country_id": 182,
    "country_code": "RU",
    "latitude": "47.24678000",
    "longitude": "39.51088000",
    "wikiDataId": null
  },
  {
    "id": 98818,
    "name": "Kamenolomni",
    "state_id": 1837,
    "state_code": "ROS",
    "country_id": 182,
    "country_code": "RU",
    "latitude": "47.66853000",
    "longitude": "40.20510000",
    "wikiDataId": null
  },
  {
    "id": 98819,
    "name": "Kamensk-Shakhtinskiy",
    "state_id": 1837,
    "state_code": "ROS",
    "country_id": 182,
    "country_code": "RU",
    "latitude": "48.31779000",
    "longitude": "40.25948000",
    "wikiDataId": null
  },
  {
    "id": 98890,
    "name": "Kashary",
    "state_id": 1837,
    "state_code": "ROS",
    "country_id": 182,
    "country_code": "RU",
    "latitude": "49.04001000",
    "longitude": "41.00557000",
    "wikiDataId": null
  },
  {
    "id": 98927,
    "name": "Kazanskaya",
    "state_id": 1837,
    "state_code": "ROS",
    "country_id": 182,
    "country_code": "RU",
    "latitude": "49.79333000",
    "longitude": "41.14667000",
    "wikiDataId": null
  },
  {
    "id": 99066,
    "name": "Kirovskaya",
    "state_id": 1837,
    "state_code": "ROS",
    "country_id": 182,
    "country_code": "RU",
    "latitude": "46.97480000",
    "longitude": "40.04020000",
    "wikiDataId": null
  },
  {
    "id": 99134,
    "name": "Koksovyy",
    "state_id": 1837,
    "state_code": "ROS",
    "country_id": 182,
    "country_code": "RU",
    "latitude": "48.19742000",
    "longitude": "40.64325000",
    "wikiDataId": null
  },
  {
    "id": 99189,
    "name": "Konstantinovsk",
    "state_id": 1837,
    "state_code": "ROS",
    "country_id": 182,
    "country_code": "RU",
    "latitude": "47.58278000",
    "longitude": "41.09222000",
    "wikiDataId": null
  },
  {
    "id": 99284,
    "name": "Krasnaya Polyana",
    "state_id": 1837,
    "state_code": "ROS",
    "country_id": 182,
    "country_code": "RU",
    "latitude": "46.11293000",
    "longitude": "41.50157000",
    "wikiDataId": null
  },
  {
    "id": 99293,
    "name": "Krasnoarmeyskiy",
    "state_id": 1837,
    "state_code": "ROS",
    "country_id": 182,
    "country_code": "RU",
    "latitude": "47.01140000",
    "longitude": "42.20720000",
    "wikiDataId": null
  },
  {
    "id": 99341,
    "name": "Krasnovka",
    "state_id": 1837,
    "state_code": "ROS",
    "country_id": 182,
    "country_code": "RU",
    "latitude": "48.81769000",
    "longitude": "40.09226000",
    "wikiDataId": null
  },
  {
    "id": 99344,
    "name": "Krasnoyarskaya",
    "state_id": 1837,
    "state_code": "ROS",
    "country_id": 182,
    "country_code": "RU",
    "latitude": "47.65010000",
    "longitude": "42.04430000",
    "wikiDataId": null
  },
  {
    "id": 99373,
    "name": "Krasnyy Sulin",
    "state_id": 1837,
    "state_code": "ROS",
    "country_id": 182,
    "country_code": "RU",
    "latitude": "47.89221000",
    "longitude": "40.07037000",
    "wikiDataId": null
  },
  {
    "id": 99385,
    "name": "Krasyukovskaya",
    "state_id": 1837,
    "state_code": "ROS",
    "country_id": 182,
    "country_code": "RU",
    "latitude": "47.55222000",
    "longitude": "40.10885000",
    "wikiDataId": null
  },
  {
    "id": 99395,
    "name": "Krivyanskaya",
    "state_id": 1837,
    "state_code": "ROS",
    "country_id": 182,
    "country_code": "RU",
    "latitude": "47.39689000",
    "longitude": "40.16680000",
    "wikiDataId": null
  },
  {
    "id": 99407,
    "name": "Krym",
    "state_id": 1837,
    "state_code": "ROS",
    "country_id": 182,
    "country_code": "RU",
    "latitude": "47.30025000",
    "longitude": "39.51637000",
    "wikiDataId": null
  },
  {
    "id": 99431,
    "name": "Kuleshovka",
    "state_id": 1837,
    "state_code": "ROS",
    "country_id": 182,
    "country_code": "RU",
    "latitude": "47.07802000",
    "longitude": "39.55794000",
    "wikiDataId": null
  },
  {
    "id": 99494,
    "name": "Kuybyshevo",
    "state_id": 1837,
    "state_code": "ROS",
    "country_id": 182,
    "country_code": "RU",
    "latitude": "47.81228000",
    "longitude": "38.90731000",
    "wikiDataId": null
  },
  {
    "id": 99607,
    "name": "Letnik",
    "state_id": 1837,
    "state_code": "ROS",
    "country_id": 182,
    "country_code": "RU",
    "latitude": "46.01100000",
    "longitude": "41.26570000",
    "wikiDataId": null
  },
  {
    "id": 99625,
    "name": "Likhovskoy",
    "state_id": 1837,
    "state_code": "ROS",
    "country_id": 182,
    "country_code": "RU",
    "latitude": "48.15188000",
    "longitude": "40.17925000",
    "wikiDataId": null
  },
  {
    "id": 99626,
    "name": "Likhoy",
    "state_id": 1837,
    "state_code": "ROS",
    "country_id": 182,
    "country_code": "RU",
    "latitude": "48.12662000",
    "longitude": "40.20556000",
    "wikiDataId": null
  },
  {
    "id": 99806,
    "name": "Martynovskiy Rayon",
    "state_id": 1837,
    "state_code": "ROS",
    "country_id": 182,
    "country_code": "RU",
    "latitude": "47.24867000",
    "longitude": "41.49792000",
    "wikiDataId": null
  },
  {
    "id": 99809,
    "name": "Masalovka",
    "state_id": 1837,
    "state_code": "ROS",
    "country_id": 182,
    "country_code": "RU",
    "latitude": "48.40372000",
    "longitude": "40.26064000",
    "wikiDataId": null
  },
  {
    "id": 99815,
    "name": "Matveyev Kurgan",
    "state_id": 1837,
    "state_code": "ROS",
    "country_id": 182,
    "country_code": "RU",
    "latitude": "47.56450000",
    "longitude": "38.86947000",
    "wikiDataId": null
  },
  {
    "id": 99832,
    "name": "Mayskiy",
    "state_id": 1837,
    "state_code": "ROS",
    "country_id": 182,
    "country_code": "RU",
    "latitude": "47.69600000",
    "longitude": "40.10259000",
    "wikiDataId": null
  },
  {
    "id": 99838,
    "name": "Mechetinskaya",
    "state_id": 1837,
    "state_code": "ROS",
    "country_id": 182,
    "country_code": "RU",
    "latitude": "46.77130000",
    "longitude": "40.45597000",
    "wikiDataId": null
  },
  {
    "id": 99857,
    "name": "Melikhovskaya",
    "state_id": 1837,
    "state_code": "ROS",
    "country_id": 182,
    "country_code": "RU",
    "latitude": "47.48106000",
    "longitude": "40.48669000",
    "wikiDataId": null
  },
  {
    "id": 99910,
    "name": "Millerovo",
    "state_id": 1837,
    "state_code": "ROS",
    "country_id": 182,
    "country_code": "RU",
    "latitude": "48.92265000",
    "longitude": "40.39673000",
    "wikiDataId": null
  },
  {
    "id": 99912,
    "name": "Milyutinskaya",
    "state_id": 1837,
    "state_code": "ROS",
    "country_id": 182,
    "country_code": "RU",
    "latitude": "48.62788000",
    "longitude": "41.66788000",
    "wikiDataId": null
  },
  {
    "id": 99913,
    "name": "Milyutinskiy Rayon",
    "state_id": 1837,
    "state_code": "ROS",
    "country_id": 182,
    "country_code": "RU",
    "latitude": "48.66550000",
    "longitude": "41.74981000",
    "wikiDataId": null
  },
  {
    "id": 99966,
    "name": "Morozovsk",
    "state_id": 1837,
    "state_code": "ROS",
    "country_id": 182,
    "country_code": "RU",
    "latitude": "48.35502000",
    "longitude": "41.82627000",
    "wikiDataId": null
  },
  {
    "id": 100082,
    "name": "Nedvigovka",
    "state_id": 1837,
    "state_code": "ROS",
    "country_id": 182,
    "country_code": "RU",
    "latitude": "47.26873000",
    "longitude": "39.34880000",
    "wikiDataId": null
  },
  {
    "id": 100137,
    "name": "Nikolayevskaya",
    "state_id": 1837,
    "state_code": "ROS",
    "country_id": 182,
    "country_code": "RU",
    "latitude": "47.61391000",
    "longitude": "41.50230000",
    "wikiDataId": null
  },
  {
    "id": 100226,
    "name": "Novobataysk",
    "state_id": 1837,
    "state_code": "ROS",
    "country_id": 182,
    "country_code": "RU",
    "latitude": "46.89806000",
    "longitude": "39.78194000",
    "wikiDataId": null
  },
  {
    "id": 100228,
    "name": "Novobessergenovka",
    "state_id": 1837,
    "state_code": "ROS",
    "country_id": 182,
    "country_code": "RU",
    "latitude": "47.18465000",
    "longitude": "38.84625000",
    "wikiDataId": null
  },
  {
    "id": 100235,
    "name": "Novocherkassk",
    "state_id": 1837,
    "state_code": "ROS",
    "country_id": 182,
    "country_code": "RU",
    "latitude": "47.42096000",
    "longitude": "40.09185000",
    "wikiDataId": null
  },
  {
    "id": 100297,
    "name": "Novoshakhtinsk",
    "state_id": 1837,
    "state_code": "ROS",
    "country_id": 182,
    "country_code": "RU",
    "latitude": "47.76037000",
    "longitude": "39.93335000",
    "wikiDataId": null
  },
  {
    "id": 100354,
    "name": "Novyy Yegorlyk",
    "state_id": 1837,
    "state_code": "ROS",
    "country_id": 182,
    "country_code": "RU",
    "latitude": "46.39270000",
    "longitude": "41.87162000",
    "wikiDataId": null
  },
  {
    "id": 100384,
    "name": "Oblivskaya",
    "state_id": 1837,
    "state_code": "ROS",
    "country_id": 182,
    "country_code": "RU",
    "latitude": "48.53616000",
    "longitude": "42.50138000",
    "wikiDataId": null
  },
  {
    "id": 100436,
    "name": "Ol’ginskaya",
    "state_id": 1837,
    "state_code": "ROS",
    "country_id": 182,
    "country_code": "RU",
    "latitude": "47.18794000",
    "longitude": "39.94925000",
    "wikiDataId": null
  },
  {
    "id": 100473,
    "name": "Orlovskiy",
    "state_id": 1837,
    "state_code": "ROS",
    "country_id": 182,
    "country_code": "RU",
    "latitude": "46.87139000",
    "longitude": "42.05917000",
    "wikiDataId": null
  },
  {
    "id": 100612,
    "name": "Persianovka",
    "state_id": 1837,
    "state_code": "ROS",
    "country_id": 182,
    "country_code": "RU",
    "latitude": "47.52972000",
    "longitude": "39.41833000",
    "wikiDataId": null
  },
  {
    "id": 100631,
    "name": "Peschanokopskoye",
    "state_id": 1837,
    "state_code": "ROS",
    "country_id": 182,
    "country_code": "RU",
    "latitude": "46.19517000",
    "longitude": "41.08143000",
    "wikiDataId": null
  },
  {
    "id": 100633,
    "name": "Peshkovo",
    "state_id": 1837,
    "state_code": "ROS",
    "country_id": 182,
    "country_code": "RU",
    "latitude": "47.01867000",
    "longitude": "39.38845000",
    "wikiDataId": null
  },
  {
    "id": 100747,
    "name": "Pokrovskoye",
    "state_id": 1837,
    "state_code": "ROS",
    "country_id": 182,
    "country_code": "RU",
    "latitude": "47.41570000",
    "longitude": "38.89706000",
    "wikiDataId": null
  },
  {
    "id": 100781,
    "name": "Port-Katon",
    "state_id": 1837,
    "state_code": "ROS",
    "country_id": 182,
    "country_code": "RU",
    "latitude": "46.87900000",
    "longitude": "38.75600000",
    "wikiDataId": null
  },
  {
    "id": 100829,
    "name": "Primorka",
    "state_id": 1837,
    "state_code": "ROS",
    "country_id": 182,
    "country_code": "RU",
    "latitude": "47.28395000",
    "longitude": "39.06408000",
    "wikiDataId": null
  },
  {
    "id": 100863,
    "name": "Proletarsk",
    "state_id": 1837,
    "state_code": "ROS",
    "country_id": 182,
    "country_code": "RU",
    "latitude": "46.70289000",
    "longitude": "41.72717000",
    "wikiDataId": null
  },
  {
    "id": 100944,
    "name": "Rassvet",
    "state_id": 1837,
    "state_code": "ROS",
    "country_id": 182,
    "country_code": "RU",
    "latitude": "46.83333000",
    "longitude": "40.75000000",
    "wikiDataId": null
  },
  {
    "id": 100960,
    "name": "Remontnoye",
    "state_id": 1837,
    "state_code": "ROS",
    "country_id": 182,
    "country_code": "RU",
    "latitude": "46.56140000",
    "longitude": "43.65010000",
    "wikiDataId": null
  },
  {
    "id": 100975,
    "name": "Rodionovo-Nesvetaiskoye",
    "state_id": 1837,
    "state_code": "ROS",
    "country_id": 182,
    "country_code": "RU",
    "latitude": "47.60000000",
    "longitude": "39.70000000",
    "wikiDataId": null
  },
  {
    "id": 100976,
    "name": "Rodionovo-Nesvetayskaya",
    "state_id": 1837,
    "state_code": "ROS",
    "country_id": 182,
    "country_code": "RU",
    "latitude": "47.61033000",
    "longitude": "39.71212000",
    "wikiDataId": null
  },
  {
    "id": 100990,
    "name": "Romanovskaya",
    "state_id": 1837,
    "state_code": "ROS",
    "country_id": 182,
    "country_code": "RU",
    "latitude": "47.54260000",
    "longitude": "42.02850000",
    "wikiDataId": null
  },
  {
    "id": 101007,
    "name": "Rostov-na-Donu",
    "state_id": 1837,
    "state_code": "ROS",
    "country_id": 182,
    "country_code": "RU",
    "latitude": "47.23135000",
    "longitude": "39.72328000",
    "wikiDataId": null
  },
  {
    "id": 101083,
    "name": "Sal’sk",
    "state_id": 1837,
    "state_code": "ROS",
    "country_id": 182,
    "country_code": "RU",
    "latitude": "46.47470000",
    "longitude": "41.54114000",
    "wikiDataId": null
  },
  {
    "id": 101086,
    "name": "Samarskoye",
    "state_id": 1837,
    "state_code": "ROS",
    "country_id": 182,
    "country_code": "RU",
    "latitude": "46.93700000",
    "longitude": "39.68810000",
    "wikiDataId": null
  },
  {
    "id": 101088,
    "name": "Sambek",
    "state_id": 1837,
    "state_code": "ROS",
    "country_id": 182,
    "country_code": "RU",
    "latitude": "47.74306000",
    "longitude": "39.83083000",
    "wikiDataId": null
  },
  {
    "id": 101097,
    "name": "Sandata",
    "state_id": 1837,
    "state_code": "ROS",
    "country_id": 182,
    "country_code": "RU",
    "latitude": "46.27081000",
    "longitude": "41.75834000",
    "wikiDataId": null
  },
  {
    "id": 101163,
    "name": "Semikarakorsk",
    "state_id": 1837,
    "state_code": "ROS",
    "country_id": 182,
    "country_code": "RU",
    "latitude": "47.51675000",
    "longitude": "40.80577000",
    "wikiDataId": null
  },
  {
    "id": 101241,
    "name": "Shakhty",
    "state_id": 1837,
    "state_code": "ROS",
    "country_id": 182,
    "country_code": "RU",
    "latitude": "47.70911000",
    "longitude": "40.21443000",
    "wikiDataId": null
  },
  {
    "id": 101337,
    "name": "Sholokhovskiy",
    "state_id": 1837,
    "state_code": "ROS",
    "country_id": 182,
    "country_code": "RU",
    "latitude": "48.28071000",
    "longitude": "41.04592000",
    "wikiDataId": null
  },
  {
    "id": 101374,
    "name": "Sinegorskiy",
    "state_id": 1837,
    "state_code": "ROS",
    "country_id": 182,
    "country_code": "RU",
    "latitude": "48.01389000",
    "longitude": "40.84468000",
    "wikiDataId": null
  },
  {
    "id": 101378,
    "name": "Sinyavskoye",
    "state_id": 1837,
    "state_code": "ROS",
    "country_id": 182,
    "country_code": "RU",
    "latitude": "47.27703000",
    "longitude": "39.27888000",
    "wikiDataId": null
  },
  {
    "id": 101438,
    "name": "Sokolovo-Kundryuchenskiy",
    "state_id": 1837,
    "state_code": "ROS",
    "country_id": 182,
    "country_code": "RU",
    "latitude": "47.83536000",
    "longitude": "39.94711000",
    "wikiDataId": null
  },
  {
    "id": 101507,
    "name": "Sovetskaya",
    "state_id": 1837,
    "state_code": "ROS",
    "country_id": 182,
    "country_code": "RU",
    "latitude": "49.00912000",
    "longitude": "42.12178000",
    "wikiDataId": null
  },
  {
    "id": 101565,
    "name": "Staraya Stanitsa",
    "state_id": 1837,
    "state_code": "ROS",
    "country_id": 182,
    "country_code": "RU",
    "latitude": "48.34579000",
    "longitude": "40.29376000",
    "wikiDataId": null
  },
  {
    "id": 101575,
    "name": "Starocherkasskaya",
    "state_id": 1837,
    "state_code": "ROS",
    "country_id": 182,
    "country_code": "RU",
    "latitude": "47.24077000",
    "longitude": "40.04186000",
    "wikiDataId": null
  },
  {
    "id": 101740,
    "name": "Taganrog",
    "state_id": 1837,
    "state_code": "ROS",
    "country_id": 182,
    "country_code": "RU",
    "latitude": "47.23617000",
    "longitude": "38.89688000",
    "wikiDataId": null
  },
  {
    "id": 101756,
    "name": "Talovyy",
    "state_id": 1837,
    "state_code": "ROS",
    "country_id": 182,
    "country_code": "RU",
    "latitude": "47.80765000",
    "longitude": "40.10943000",
    "wikiDataId": null
  },
  {
    "id": 101765,
    "name": "Tanais",
    "state_id": 1837,
    "state_code": "ROS",
    "country_id": 182,
    "country_code": "RU",
    "latitude": "47.26837000",
    "longitude": "39.33425000",
    "wikiDataId": null
  },
  {
    "id": 101770,
    "name": "Tarasovskiy",
    "state_id": 1837,
    "state_code": "ROS",
    "country_id": 182,
    "country_code": "RU",
    "latitude": "48.72727000",
    "longitude": "40.36267000",
    "wikiDataId": null
  },
  {
    "id": 101798,
    "name": "Tatsinskiy",
    "state_id": 1837,
    "state_code": "ROS",
    "country_id": 182,
    "country_code": "RU",
    "latitude": "48.19677000",
    "longitude": "41.27558000",
    "wikiDataId": null
  },
  {
    "id": 101938,
    "name": "Tselina",
    "state_id": 1837,
    "state_code": "ROS",
    "country_id": 182,
    "country_code": "RU",
    "latitude": "46.53381000",
    "longitude": "41.03284000",
    "wikiDataId": null
  },
  {
    "id": 101949,
    "name": "Tsimlyansk",
    "state_id": 1837,
    "state_code": "ROS",
    "country_id": 182,
    "country_code": "RU",
    "latitude": "47.64611000",
    "longitude": "42.10194000",
    "wikiDataId": null
  },
  {
    "id": 102028,
    "name": "Uglegorskiy",
    "state_id": 1837,
    "state_code": "ROS",
    "country_id": 182,
    "country_code": "RU",
    "latitude": "48.24274000",
    "longitude": "41.25310000",
    "wikiDataId": null
  },
  {
    "id": 102031,
    "name": "Uglerodovskiy",
    "state_id": 1837,
    "state_code": "ROS",
    "country_id": 182,
    "country_code": "RU",
    "latitude": "48.14558000",
    "longitude": "40.06352000",
    "wikiDataId": null
  },
  {
    "id": 102118,
    "name": "Ust’-Donetskiy",
    "state_id": 1837,
    "state_code": "ROS",
    "country_id": 182,
    "country_code": "RU",
    "latitude": "47.64189000",
    "longitude": "40.87182000",
    "wikiDataId": null
  },
  {
    "id": 102292,
    "name": "Vesëlyy",
    "state_id": 1837,
    "state_code": "ROS",
    "country_id": 182,
    "country_code": "RU",
    "latitude": "47.09338000",
    "longitude": "40.74220000",
    "wikiDataId": null
  },
  {
    "id": 102289,
    "name": "Veshenskaya",
    "state_id": 1837,
    "state_code": "ROS",
    "country_id": 182,
    "country_code": "RU",
    "latitude": "49.63033000",
    "longitude": "41.73340000",
    "wikiDataId": null
  },
  {
    "id": 102344,
    "name": "Volgodonsk",
    "state_id": 1837,
    "state_code": "ROS",
    "country_id": 182,
    "country_code": "RU",
    "latitude": "47.51361000",
    "longitude": "42.15139000",
    "wikiDataId": null
  },
  {
    "id": 102524,
    "name": "Yegorlykskaya",
    "state_id": 1837,
    "state_code": "ROS",
    "country_id": 182,
    "country_code": "RU",
    "latitude": "46.56564000",
    "longitude": "40.65621000",
    "wikiDataId": null
  },
  {
    "id": 102668,
    "name": "Zavetnoye",
    "state_id": 1837,
    "state_code": "ROS",
    "country_id": 182,
    "country_code": "RU",
    "latitude": "47.11944000",
    "longitude": "43.89028000",
    "wikiDataId": null
  },
  {
    "id": 102707,
    "name": "Zernograd",
    "state_id": 1837,
    "state_code": "ROS",
    "country_id": 182,
    "country_code": "RU",
    "latitude": "46.84518000",
    "longitude": "40.30834000",
    "wikiDataId": null
  },
  {
    "id": 102734,
    "name": "Zhirnov",
    "state_id": 1837,
    "state_code": "ROS",
    "country_id": 182,
    "country_code": "RU",
    "latitude": "48.17089000",
    "longitude": "41.12608000",
    "wikiDataId": null
  },
  {
    "id": 102748,
    "name": "Zimovniki",
    "state_id": 1837,
    "state_code": "ROS",
    "country_id": 182,
    "country_code": "RU",
    "latitude": "47.14740000",
    "longitude": "42.47210000",
    "wikiDataId": null
  },
  {
    "id": 102781,
    "name": "Zverevo",
    "state_id": 1837,
    "state_code": "ROS",
    "country_id": 182,
    "country_code": "RU",
    "latitude": "48.02108000",
    "longitude": "40.12282000",
    "wikiDataId": null
  }
]