[
  {
    "id": 48819,
    "name": "Caistor",
    "state_id": 2384,
    "state_code": "NEL",
    "country_id": 232,
    "country_code": "GB",
    "latitude": "53.49673000",
    "longitude": "-0.31538000",
    "wikiDataId": null
  },
  {
    "id": 49028,
    "name": "Cleethorpes",
    "state_id": 2384,
    "state_code": "NEL",
    "country_id": 232,
    "country_code": "GB",
    "latitude": "53.56047000",
    "longitude": "-0.03225000",
    "wikiDataId": null
  },
  {
    "id": 49753,
    "name": "Grimsby",
    "state_id": 2384,
    "state_code": "NEL",
    "country_id": 232,
    "country_code": "GB",
    "latitude": "53.56539000",
    "longitude": "-0.07553000",
    "wikiDataId": null
  },
  {
    "id": 49874,
    "name": "Healing",
    "state_id": 2384,
    "state_code": "NEL",
    "country_id": 232,
    "country_code": "GB",
    "latitude": "53.58101000",
    "longitude": "-0.16202000",
    "wikiDataId": null
  },
  {
    "id": 49963,
    "name": "Hollym",
    "state_id": 2384,
    "state_code": "NEL",
    "country_id": 232,
    "country_code": "GB",
    "latitude": "53.70402000",
    "longitude": "0.04008000",
    "wikiDataId": null
  },
  {
    "id": 49970,
    "name": "Holton le Clay",
    "state_id": 2384,
    "state_code": "NEL",
    "country_id": 232,
    "country_code": "GB",
    "latitude": "53.50520000",
    "longitude": "-0.06300000",
    "wikiDataId": null
  },
  {
    "id": 50021,
    "name": "Humberston",
    "state_id": 2384,
    "state_code": "NEL",
    "country_id": 232,
    "country_code": "GB",
    "latitude": "53.53036000",
    "longitude": "-0.02465000",
    "wikiDataId": null
  },
  {
    "id": 50045,
    "name": "Immingham",
    "state_id": 2384,
    "state_code": "NEL",
    "country_id": 232,
    "country_code": "GB",
    "latitude": "53.61239000",
    "longitude": "-0.22219000",
    "wikiDataId": null
  },
  {
    "id": 50102,
    "name": "Keelby",
    "state_id": 2384,
    "state_code": "NEL",
    "country_id": 232,
    "country_code": "GB",
    "latitude": "53.57580000",
    "longitude": "-0.24701000",
    "wikiDataId": null
  },
  {
    "id": 50224,
    "name": "Laceby",
    "state_id": 2384,
    "state_code": "NEL",
    "country_id": 232,
    "country_code": "GB",
    "latitude": "53.54092000",
    "longitude": "-0.16830000",
    "wikiDataId": null
  },
  {
    "id": 50419,
    "name": "Louth",
    "state_id": 2384,
    "state_code": "NEL",
    "country_id": 232,
    "country_code": "GB",
    "latitude": "53.36664000",
    "longitude": "-0.00438000",
    "wikiDataId": null
  },
  {
    "id": 50457,
    "name": "Mablethorpe",
    "state_id": 2384,
    "state_code": "NEL",
    "country_id": 232,
    "country_code": "GB",
    "latitude": "53.34090000",
    "longitude": "0.26102000",
    "wikiDataId": null
  },
  {
    "id": 50480,
    "name": "Manby",
    "state_id": 2384,
    "state_code": "NEL",
    "country_id": 232,
    "country_code": "GB",
    "latitude": "53.36291000",
    "longitude": "0.09653000",
    "wikiDataId": null
  },
  {
    "id": 50503,
    "name": "Market Rasen",
    "state_id": 2384,
    "state_code": "NEL",
    "country_id": 232,
    "country_code": "GB",
    "latitude": "53.38764000",
    "longitude": "-0.33781000",
    "wikiDataId": null
  },
  {
    "id": 50569,
    "name": "Middle Rasen",
    "state_id": 2384,
    "state_code": "NEL",
    "country_id": 232,
    "country_code": "GB",
    "latitude": "53.38722000",
    "longitude": "-0.36202000",
    "wikiDataId": null
  },
  {
    "id": 50753,
    "name": "North East Lincolnshire",
    "state_id": 2384,
    "state_code": "NEL",
    "country_id": 232,
    "country_code": "GB",
    "latitude": "53.53333000",
    "longitude": "-0.08333000",
    "wikiDataId": null
  },
  {
    "id": 50764,
    "name": "North Somercotes",
    "state_id": 2384,
    "state_code": "NEL",
    "country_id": 232,
    "country_code": "GB",
    "latitude": "53.44573000",
    "longitude": "0.14103000",
    "wikiDataId": null
  },
  {
    "id": 50768,
    "name": "North Thoresby",
    "state_id": 2384,
    "state_code": "NEL",
    "country_id": 232,
    "country_code": "GB",
    "latitude": "53.46651000",
    "longitude": "-0.05575000",
    "wikiDataId": null
  },
  {
    "id": 50860,
    "name": "Patrington",
    "state_id": 2384,
    "state_code": "NEL",
    "country_id": 232,
    "country_code": "GB",
    "latitude": "53.68395000",
    "longitude": "-0.01330000",
    "wikiDataId": null
  },
  {
    "id": 51415,
    "name": "Stallingborough",
    "state_id": 2384,
    "state_code": "NEL",
    "country_id": 232,
    "country_code": "GB",
    "latitude": "53.58675000",
    "longitude": "-0.18489000",
    "wikiDataId": null
  },
  {
    "id": 51581,
    "name": "Tetney",
    "state_id": 2384,
    "state_code": "NEL",
    "country_id": 232,
    "country_code": "GB",
    "latitude": "53.49239000",
    "longitude": "-0.02106000",
    "wikiDataId": null
  },
  {
    "id": 51737,
    "name": "Waltham",
    "state_id": 2384,
    "state_code": "NEL",
    "country_id": 232,
    "country_code": "GB",
    "latitude": "53.51667000",
    "longitude": "-0.10000000",
    "wikiDataId": null
  },
  {
    "id": 51946,
    "name": "Withernsea",
    "state_id": 2384,
    "state_code": "NEL",
    "country_id": 232,
    "country_code": "GB",
    "latitude": "53.73110000",
    "longitude": "0.03347000",
    "wikiDataId": null
  }
]