[
  {
    "id": 153825,
    "name": "Chapchha",
    "state_id": 239,
    "state_code": "12",
    "country_id": 26,
    "country_code": "BT",
    "latitude": "27.20000000",
    "longitude": "89.55000000",
    "wikiDataId": null
  },
  {
    "id": 15706,
    "name": "Daphu",
    "state_id": 239,
    "state_code": "12",
    "country_id": 26,
    "country_code": "BT",
    "latitude": "26.96670000",
    "longitude": "89.38330000",
    "wikiDataId": null
  },
  {
    "id": 153827,
    "name": "Khitokha",
    "state_id": 239,
    "state_code": "12",
    "country_id": 26,
    "country_code": "BT",
    "latitude": "26.90000000",
    "longitude": "89.61670000",
    "wikiDataId": null
  },
  {
    "id": 153826,
    "name": "Lobnig",
    "state_id": 239,
    "state_code": "12",
    "country_id": 26,
    "country_code": "BT",
    "latitude": "27.15000000",
    "longitude": "89.55000000",
    "wikiDataId": null
  },
  {
    "id": 15726,
    "name": "Pachu",
    "state_id": 239,
    "state_code": "12",
    "country_id": 26,
    "country_code": "BT",
    "latitude": "26.90000000",
    "longitude": "89.35000000",
    "wikiDataId": null
  },
  {
    "id": 15716,
    "name": "Phuntsholing",
    "state_id": 239,
    "state_code": "12",
    "country_id": 26,
    "country_code": "BT",
    "latitude": "26.85164000",
    "longitude": "89.38837000",
    "wikiDataId": null
  }
]