[
  {
    "id": 3860,
    "name": "Busan",
    "country_id": 116,
    "country_code": "KR",
    "state_code": "26",
    "type": "metropolitan city",
    "latitude": "35.17955430",
    "longitude": "129.07564160",
    "iso3166_2": "KR-26",
    "native": "부산",
    "timezone": "Asia/Seoul"
  },
  {
    "id": 3846,
    "name": "Daegu",
    "country_id": 116,
    "country_code": "KR",
    "state_code": "27",
    "type": "metropolitan city",
    "latitude": "35.87143540",
    "longitude": "128.60144500",
    "iso3166_2": "KR-27",
    "native": "대구",
    "timezone": "Asia/Seoul"
  },
  {
    "id": 3850,
    "name": "Daejeon",
    "country_id": 116,
    "country_code": "KR",
    "state_code": "30",
    "type": "metropolitan city",
    "latitude": "36.35041190",
    "longitude": "127.38454750",
    "iso3166_2": "KR-30",
    "native": "대전",
    "timezone": "Asia/Seoul"
  },
  {
    "id": 3862,
    "name": "Gangwon",
    "country_id": 116,
    "country_code": "KR",
    "state_code": "42",
    "type": "special self-governing province",
    "latitude": "37.88500000",
    "longitude": "127.72970000",
    "iso3166_2": "KR-42",
    "native": "강원도",
    "timezone": "Asia/Seoul"
  },
  {
    "id": 3858,
    "name": "Gwangju",
    "country_id": 116,
    "country_code": "KR",
    "state_code": "29",
    "type": "metropolitan city",
    "latitude": "35.15954540",
    "longitude": "126.85260120",
    "iso3166_2": "KR-29",
    "native": "광주",
    "timezone": "Asia/Seoul"
  },
  {
    "id": 3847,
    "name": "Gyeonggi",
    "country_id": 116,
    "country_code": "KR",
    "state_code": "41",
    "type": "province",
    "latitude": "37.28846750",
    "longitude": "127.05352310",
    "iso3166_2": "KR-41",
    "native": "경기도",
    "timezone": "Asia/Seoul"
  },
  {
    "id": 3848,
    "name": "Incheon",
    "country_id": 116,
    "country_code": "KR",
    "state_code": "28",
    "type": "metropolitan city",
    "latitude": "37.45625570",
    "longitude": "126.70520620",
    "iso3166_2": "KR-28",
    "native": "인천",
    "timezone": "Asia/Seoul"
  },
  {
    "id": 3853,
    "name": "Jeju",
    "country_id": 116,
    "country_code": "KR",
    "state_code": "49",
    "type": "special self-governing province",
    "latitude": "33.49982890",
    "longitude": "126.53139020",
    "iso3166_2": "KR-49",
    "native": "제주",
    "timezone": "Asia/Seoul"
  },
  {
    "id": 3854,
    "name": "North Chungcheong",
    "country_id": 116,
    "country_code": "KR",
    "state_code": "43",
    "type": "province",
    "latitude": "36.63570000",
    "longitude": "127.49150000",
    "iso3166_2": "KR-43",
    "native": "충청북도",
    "timezone": "Asia/Seoul"
  },
  {
    "id": 3855,
    "name": "North Gyeongsang",
    "country_id": 116,
    "country_code": "KR",
    "state_code": "47",
    "type": "province",
    "latitude": "36.57540000",
    "longitude": "128.50580000",
    "iso3166_2": "KR-47",
    "native": "경상북도",
    "timezone": "Asia/Seoul"
  },
  {
    "id": 3851,
    "name": "North Jeolla",
    "country_id": 116,
    "country_code": "KR",
    "state_code": "45",
    "type": "province",
    "latitude": "35.81989990",
    "longitude": "127.10900000",
    "iso3166_2": "KR-45",
    "native": "전라북도",
    "timezone": "Asia/Seoul"
  },
  {
    "id": 3861,
    "name": "Sejong City",
    "country_id": 116,
    "country_code": "KR",
    "state_code": "50",
    "type": "special self-governing city",
    "latitude": "36.47999990",
    "longitude": "127.28900000",
    "iso3166_2": "KR-50",
    "native": "세종시",
    "timezone": "Asia/Seoul"
  },
  {
    "id": 3849,
    "name": "Seoul",
    "country_id": 116,
    "country_code": "KR",
    "state_code": "11",
    "type": "special city",
    "latitude": "37.56653500",
    "longitude": "126.97796920",
    "iso3166_2": "KR-11",
    "native": "서울",
    "timezone": "Asia/Seoul"
  },
  {
    "id": 3859,
    "name": "South Chungcheong",
    "country_id": 116,
    "country_code": "KR",
    "state_code": "44",
    "type": "province",
    "latitude": "36.65930000",
    "longitude": "126.67290000",
    "iso3166_2": "KR-44",
    "native": "충청남도",
    "timezone": "Asia/Seoul"
  },
  {
    "id": 3857,
    "name": "South Gyeongsang",
    "country_id": 116,
    "country_code": "KR",
    "state_code": "48",
    "type": "province",
    "latitude": "35.23820000",
    "longitude": "128.69250000",
    "iso3166_2": "KR-48",
    "native": "경상남도",
    "timezone": "Asia/Seoul"
  },
  {
    "id": 3856,
    "name": "South Jeolla",
    "country_id": 116,
    "country_code": "KR",
    "state_code": "46",
    "type": "province",
    "latitude": "34.81590000",
    "longitude": "126.46290000",
    "iso3166_2": "KR-46",
    "native": "전라남도",
    "timezone": "Asia/Seoul"
  },
  {
    "id": 3852,
    "name": "Ulsan",
    "country_id": 116,
    "country_code": "KR",
    "state_code": "31",
    "type": "metropolitan city",
    "latitude": "35.53837730",
    "longitude": "129.31135960",
    "iso3166_2": "KR-31",
    "native": "울산",
    "timezone": "Asia/Seoul"
  }
]