[
  {
    "id": 89914,
    "name": "Albeşti",
    "state_id": 4722,
    "state_code": "AG",
    "country_id": 181,
    "country_code": "RO",
    "latitude": "45.30955000",
    "longitude": "25.00780000",
    "wikiDataId": null
  },
  {
    "id": 89919,
    "name": "Albeştii Pământeni",
    "state_id": 4722,
    "state_code": "AG",
    "country_id": 181,
    "country_code": "RO",
    "latitude": "45.20642110",
    "longitude": "24.66780310",
    "wikiDataId": null
  },
  {
    "id": 89921,
    "name": "Albeștii Ungureni",
    "state_id": 4722,
    "state_code": "AG",
    "country_id": 181,
    "country_code": "RO",
    "latitude": "45.22529000",
    "longitude": "24.67254000",
    "wikiDataId": null
  },
  {
    "id": 89923,
    "name": "Albota",
    "state_id": 4722,
    "state_code": "AG",
    "country_id": 181,
    "country_code": "RO",
    "latitude": "44.78333000",
    "longitude": "24.85000000",
    "wikiDataId": null
  },
  {
    "id": 89924,
    "name": "Albota de Jos",
    "state_id": 4722,
    "state_code": "AG",
    "country_id": 181,
    "country_code": "RO",
    "latitude": "44.76667000",
    "longitude": "24.83333000",
    "wikiDataId": null
  },
  {
    "id": 89964,
    "name": "Aninoasa",
    "state_id": 4722,
    "state_code": "AG",
    "country_id": 181,
    "country_code": "RO",
    "latitude": "45.18333000",
    "longitude": "24.93333000",
    "wikiDataId": null
  },
  {
    "id": 89985,
    "name": "Arefu",
    "state_id": 4722,
    "state_code": "AG",
    "country_id": 181,
    "country_code": "RO",
    "latitude": "45.33333000",
    "longitude": "24.60000000",
    "wikiDataId": null
  },
  {
    "id": 89988,
    "name": "Argeșelu",
    "state_id": 4722,
    "state_code": "AG",
    "country_id": 181,
    "country_code": "RO",
    "latitude": "44.92740000",
    "longitude": "24.87115000",
    "wikiDataId": null
  },
  {
    "id": 90467,
    "name": "Băbana",
    "state_id": 4722,
    "state_code": "AG",
    "country_id": 181,
    "country_code": "RO",
    "latitude": "44.90000000",
    "longitude": "24.70000000",
    "wikiDataId": null
  },
  {
    "id": 90483,
    "name": "Bădești",
    "state_id": 4722,
    "state_code": "AG",
    "country_id": 181,
    "country_code": "RO",
    "latitude": "45.17157000",
    "longitude": "24.86064000",
    "wikiDataId": null
  },
  {
    "id": 90487,
    "name": "Băiculeşti",
    "state_id": 4722,
    "state_code": "AG",
    "country_id": 181,
    "country_code": "RO",
    "latitude": "45.06667000",
    "longitude": "24.70000000",
    "wikiDataId": null
  },
  {
    "id": 90501,
    "name": "Băjești",
    "state_id": 4722,
    "state_code": "AG",
    "country_id": 181,
    "country_code": "RO",
    "latitude": "45.02615000",
    "longitude": "24.94006000",
    "wikiDataId": null
  },
  {
    "id": 90512,
    "name": "Bălileşti",
    "state_id": 4722,
    "state_code": "AG",
    "country_id": 181,
    "country_code": "RO",
    "latitude": "45.06667000",
    "longitude": "24.93333000",
    "wikiDataId": null
  },
  {
    "id": 90548,
    "name": "Bărăști",
    "state_id": 4722,
    "state_code": "AG",
    "country_id": 181,
    "country_code": "RO",
    "latitude": "45.25369000",
    "longitude": "24.59651000",
    "wikiDataId": null
  },
  {
    "id": 90449,
    "name": "Bârla",
    "state_id": 4722,
    "state_code": "AG",
    "country_id": 181,
    "country_code": "RO",
    "latitude": "44.42606000",
    "longitude": "24.77743000",
    "wikiDataId": null
  },
  {
    "id": 90451,
    "name": "Bârlogu",
    "state_id": 4722,
    "state_code": "AG",
    "country_id": 181,
    "country_code": "RO",
    "latitude": "44.62658000",
    "longitude": "25.08066000",
    "wikiDataId": null
  },
  {
    "id": 90073,
    "name": "Başcov",
    "state_id": 4722,
    "state_code": "AG",
    "country_id": 181,
    "country_code": "RO",
    "latitude": "44.90000000",
    "longitude": "24.81667000",
    "wikiDataId": null
  },
  {
    "id": 90086,
    "name": "Beleţi",
    "state_id": 4722,
    "state_code": "AG",
    "country_id": 181,
    "country_code": "RO",
    "latitude": "44.90000000",
    "longitude": "25.08333000",
    "wikiDataId": null
  },
  {
    "id": 90102,
    "name": "Berevoeşti",
    "state_id": 4722,
    "state_code": "AG",
    "country_id": 181,
    "country_code": "RO",
    "latitude": "45.23333000",
    "longitude": "24.91667000",
    "wikiDataId": null
  },
  {
    "id": 90185,
    "name": "Bogaţi",
    "state_id": 4722,
    "state_code": "AG",
    "country_id": 181,
    "country_code": "RO",
    "latitude": "44.86667000",
    "longitude": "25.13333000",
    "wikiDataId": null
  },
  {
    "id": 90242,
    "name": "Boteni",
    "state_id": 4722,
    "state_code": "AG",
    "country_id": 181,
    "country_code": "RO",
    "latitude": "45.18333000",
    "longitude": "25.11667000",
    "wikiDataId": null
  },
  {
    "id": 90257,
    "name": "Boţeşti",
    "state_id": 4722,
    "state_code": "AG",
    "country_id": 181,
    "country_code": "RO",
    "latitude": "45.01667000",
    "longitude": "25.13333000",
    "wikiDataId": null
  },
  {
    "id": 90262,
    "name": "Bradu",
    "state_id": 4722,
    "state_code": "AG",
    "country_id": 181,
    "country_code": "RO",
    "latitude": "44.78013920",
    "longitude": "24.89776120",
    "wikiDataId": null
  },
  {
    "id": 90326,
    "name": "Brăduleţ",
    "state_id": 4722,
    "state_code": "AG",
    "country_id": 181,
    "country_code": "RO",
    "latitude": "45.28333000",
    "longitude": "24.76667000",
    "wikiDataId": null
  },
  {
    "id": 90367,
    "name": "Bucșenești",
    "state_id": 4722,
    "state_code": "AG",
    "country_id": 181,
    "country_code": "RO",
    "latitude": "45.30096000",
    "longitude": "24.65841000",
    "wikiDataId": null
  },
  {
    "id": 90368,
    "name": "Bucșenești-Lotași",
    "state_id": 4722,
    "state_code": "AG",
    "country_id": 181,
    "country_code": "RO",
    "latitude": "45.01307000",
    "longitude": "24.96845000",
    "wikiDataId": null
  },
  {
    "id": 90378,
    "name": "Budeasa Mică",
    "state_id": 4722,
    "state_code": "AG",
    "country_id": 181,
    "country_code": "RO",
    "latitude": "44.95000000",
    "longitude": "24.85000000",
    "wikiDataId": null
  },
  {
    "id": 90392,
    "name": "Bughea de Jos",
    "state_id": 4722,
    "state_code": "AG",
    "country_id": 181,
    "country_code": "RO",
    "latitude": "45.26667000",
    "longitude": "25.00000000",
    "wikiDataId": null
  },
  {
    "id": 90394,
    "name": "Bughea de Sus",
    "state_id": 4722,
    "state_code": "AG",
    "country_id": 181,
    "country_code": "RO",
    "latitude": "45.29812320",
    "longitude": "25.03283540",
    "wikiDataId": null
  },
  {
    "id": 90434,
    "name": "Buzoeşti",
    "state_id": 4722,
    "state_code": "AG",
    "country_id": 181,
    "country_code": "RO",
    "latitude": "44.58333000",
    "longitude": "24.91667000",
    "wikiDataId": null
  },
  {
    "id": 93832,
    "name": "Căldăraru",
    "state_id": 4722,
    "state_code": "AG",
    "country_id": 181,
    "country_code": "RO",
    "latitude": "44.45000000",
    "longitude": "24.95000000",
    "wikiDataId": null
  },
  {
    "id": 93838,
    "name": "Călineşti",
    "state_id": 4722,
    "state_code": "AG",
    "country_id": 181,
    "country_code": "RO",
    "latitude": "44.81667000",
    "longitude": "25.05000000",
    "wikiDataId": null
  },
  {
    "id": 93800,
    "name": "Câmpulung",
    "state_id": 4722,
    "state_code": "AG",
    "country_id": 181,
    "country_code": "RO",
    "latitude": "45.26667000",
    "longitude": "25.05000000",
    "wikiDataId": null
  },
  {
    "id": 93864,
    "name": "Căpățânenii Pământeni",
    "state_id": 4722,
    "state_code": "AG",
    "country_id": 181,
    "country_code": "RO",
    "latitude": "45.31667000",
    "longitude": "24.65000000",
    "wikiDataId": null
  },
  {
    "id": 90571,
    "name": "Capu Piscului",
    "state_id": 4722,
    "state_code": "AG",
    "country_id": 181,
    "country_code": "RO",
    "latitude": "45.17999000",
    "longitude": "24.97679000",
    "wikiDataId": null
  },
  {
    "id": 93876,
    "name": "Căteasca",
    "state_id": 4722,
    "state_code": "AG",
    "country_id": 181,
    "country_code": "RO",
    "latitude": "44.76667000",
    "longitude": "25.08333000",
    "wikiDataId": null
  },
  {
    "id": 90617,
    "name": "Ceparii Pământeni",
    "state_id": 4722,
    "state_code": "AG",
    "country_id": 181,
    "country_code": "RO",
    "latitude": "45.21667000",
    "longitude": "24.56667000",
    "wikiDataId": null
  },
  {
    "id": 90650,
    "name": "Cetăţeni",
    "state_id": 4722,
    "state_code": "AG",
    "country_id": 181,
    "country_code": "RO",
    "latitude": "45.20000000",
    "longitude": "25.18333000",
    "wikiDataId": null
  },
  {
    "id": 90699,
    "name": "Cicănești",
    "state_id": 4722,
    "state_code": "AG",
    "country_id": 181,
    "country_code": "RO",
    "latitude": "45.24601000",
    "longitude": "24.60526000",
    "wikiDataId": null
  },
  {
    "id": 90718,
    "name": "Ciofrângeni",
    "state_id": 4722,
    "state_code": "AG",
    "country_id": 181,
    "country_code": "RO",
    "latitude": "45.08333000",
    "longitude": "24.53333000",
    "wikiDataId": null
  },
  {
    "id": 90721,
    "name": "Ciomăgeşti",
    "state_id": 4722,
    "state_code": "AG",
    "country_id": 181,
    "country_code": "RO",
    "latitude": "44.83333000",
    "longitude": "24.45000000",
    "wikiDataId": null
  },
  {
    "id": 90748,
    "name": "Ciulnița",
    "state_id": 4722,
    "state_code": "AG",
    "country_id": 181,
    "country_code": "RO",
    "latitude": "44.78769000",
    "longitude": "25.15388000",
    "wikiDataId": null
  },
  {
    "id": 90784,
    "name": "Cocu",
    "state_id": 4722,
    "state_code": "AG",
    "country_id": 181,
    "country_code": "RO",
    "latitude": "44.86667000",
    "longitude": "24.65000000",
    "wikiDataId": null
  },
  {
    "id": 90796,
    "name": "Colibași",
    "state_id": 4722,
    "state_code": "AG",
    "country_id": 181,
    "country_code": "RO",
    "latitude": "44.93544000",
    "longitude": "24.90905000",
    "wikiDataId": null
  },
  {
    "id": 90845,
    "name": "Comuna Albeștii de Muscel",
    "state_id": 4722,
    "state_code": "AG",
    "country_id": 181,
    "country_code": "RO",
    "latitude": "45.31667000",
    "longitude": "25.00000000",
    "wikiDataId": null
  },
  {
    "id": 90846,
    "name": "Comuna Albota",
    "state_id": 4722,
    "state_code": "AG",
    "country_id": 181,
    "country_code": "RO",
    "latitude": "44.78287000",
    "longitude": "24.81838000",
    "wikiDataId": null
  },
  {
    "id": 90872,
    "name": "Comuna Aninoasa",
    "state_id": 4722,
    "state_code": "AG",
    "country_id": 181,
    "country_code": "RO",
    "latitude": "45.20222000",
    "longitude": "24.91206000",
    "wikiDataId": null
  },
  {
    "id": 90888,
    "name": "Comuna Arefu",
    "state_id": 4722,
    "state_code": "AG",
    "country_id": 181,
    "country_code": "RO",
    "latitude": "45.33142000",
    "longitude": "24.62944000",
    "wikiDataId": null
  },
  {
    "id": 91199,
    "name": "Comuna Băbana",
    "state_id": 4722,
    "state_code": "AG",
    "country_id": 181,
    "country_code": "RO",
    "latitude": "44.87539000",
    "longitude": "24.71918000",
    "wikiDataId": null
  },
  {
    "id": 91206,
    "name": "Comuna Băiculeşti",
    "state_id": 4722,
    "state_code": "AG",
    "country_id": 181,
    "country_code": "RO",
    "latitude": "45.06017000",
    "longitude": "24.67331000",
    "wikiDataId": null
  },
  {
    "id": 91217,
    "name": "Comuna Bălileşti",
    "state_id": 4722,
    "state_code": "AG",
    "country_id": 181,
    "country_code": "RO",
    "latitude": "45.07981000",
    "longitude": "24.93943000",
    "wikiDataId": null
  },
  {
    "id": 91188,
    "name": "Comuna Bârla",
    "state_id": 4722,
    "state_code": "AG",
    "country_id": 181,
    "country_code": "RO",
    "latitude": "44.42636000",
    "longitude": "24.77949000",
    "wikiDataId": null
  },
  {
    "id": 90942,
    "name": "Comuna Başcov",
    "state_id": 4722,
    "state_code": "AG",
    "country_id": 181,
    "country_code": "RO",
    "latitude": "44.89295000",
    "longitude": "24.78532000",
    "wikiDataId": null
  },
  {
    "id": 90951,
    "name": "Comuna Beleţi-Negreşti",
    "state_id": 4722,
    "state_code": "AG",
    "country_id": 181,
    "country_code": "RO",
    "latitude": "44.94651000",
    "longitude": "25.08603000",
    "wikiDataId": null
  },
  {
    "id": 90963,
    "name": "Comuna Berevoeşti",
    "state_id": 4722,
    "state_code": "AG",
    "country_id": 181,
    "country_code": "RO",
    "latitude": "45.25327000",
    "longitude": "24.94292000",
    "wikiDataId": null
  },
  {
    "id": 91020,
    "name": "Comuna Bogaţi",
    "state_id": 4722,
    "state_code": "AG",
    "country_id": 181,
    "country_code": "RO",
    "latitude": "44.87344000",
    "longitude": "25.15045000",
    "wikiDataId": null
  },
  {
    "id": 91059,
    "name": "Comuna Boteni",
    "state_id": 4722,
    "state_code": "AG",
    "country_id": 181,
    "country_code": "RO",
    "latitude": "45.17937000",
    "longitude": "25.13073000",
    "wikiDataId": null
  },
  {
    "id": 91071,
    "name": "Comuna Boţeşti",
    "state_id": 4722,
    "state_code": "AG",
    "country_id": 181,
    "country_code": "RO",
    "latitude": "45.00704000",
    "longitude": "25.14723000",
    "wikiDataId": null
  },
  {
    "id": 91115,
    "name": "Comuna Brăduleţ",
    "state_id": 4722,
    "state_code": "AG",
    "country_id": 181,
    "country_code": "RO",
    "latitude": "45.27502000",
    "longitude": "24.77372000",
    "wikiDataId": null
  },
  {
    "id": 91144,
    "name": "Comuna Budeasa",
    "state_id": 4722,
    "state_code": "AG",
    "country_id": 181,
    "country_code": "RO",
    "latitude": "44.95042000",
    "longitude": "24.80254000",
    "wikiDataId": null
  },
  {
    "id": 91152,
    "name": "Comuna Bughea de Jos",
    "state_id": 4722,
    "state_code": "AG",
    "country_id": 181,
    "country_code": "RO",
    "latitude": "45.27404000",
    "longitude": "25.00324000",
    "wikiDataId": null
  },
  {
    "id": 91180,
    "name": "Comuna Buzoeşti",
    "state_id": 4722,
    "state_code": "AG",
    "country_id": 181,
    "country_code": "RO",
    "latitude": "44.60205000",
    "longitude": "24.91856000",
    "wikiDataId": null
  },
  {
    "id": 91570,
    "name": "Comuna Căldăraru",
    "state_id": 4722,
    "state_code": "AG",
    "country_id": 181,
    "country_code": "RO",
    "latitude": "44.45395000",
    "longitude": "24.94263000",
    "wikiDataId": null
  },
  {
    "id": 91572,
    "name": "Comuna Călineşti",
    "state_id": 4722,
    "state_code": "AG",
    "country_id": 181,
    "country_code": "RO",
    "latitude": "44.85650000",
    "longitude": "25.01968000",
    "wikiDataId": null
  },
  {
    "id": 91592,
    "name": "Comuna Căteasca",
    "state_id": 4722,
    "state_code": "AG",
    "country_id": 181,
    "country_code": "RO",
    "latitude": "44.77056000",
    "longitude": "25.03633000",
    "wikiDataId": null
  },
  {
    "id": 91283,
    "name": "Comuna Cepari",
    "state_id": 4722,
    "state_code": "AG",
    "country_id": 181,
    "country_code": "RO",
    "latitude": "45.20564000",
    "longitude": "24.53064000",
    "wikiDataId": null
  },
  {
    "id": 91306,
    "name": "Comuna Cetăţeni",
    "state_id": 4722,
    "state_code": "AG",
    "country_id": 181,
    "country_code": "RO",
    "latitude": "45.19234000",
    "longitude": "25.20789000",
    "wikiDataId": null
  },
  {
    "id": 91335,
    "name": "Comuna Cicănești",
    "state_id": 4722,
    "state_code": "AG",
    "country_id": 181,
    "country_code": "RO",
    "latitude": "45.24577000",
    "longitude": "24.60629000",
    "wikiDataId": null
  },
  {
    "id": 91348,
    "name": "Comuna Ciofrângeni",
    "state_id": 4722,
    "state_code": "AG",
    "country_id": 181,
    "country_code": "RO",
    "latitude": "45.10277000",
    "longitude": "24.53704000",
    "wikiDataId": null
  },
  {
    "id": 91352,
    "name": "Comuna Ciomăgeşti",
    "state_id": 4722,
    "state_code": "AG",
    "country_id": 181,
    "country_code": "RO",
    "latitude": "44.85656000",
    "longitude": "24.47229000",
    "wikiDataId": null
  },
  {
    "id": 91391,
    "name": "Comuna Cocu",
    "state_id": 4722,
    "state_code": "AG",
    "country_id": 181,
    "country_code": "RO",
    "latitude": "44.87429000",
    "longitude": "24.65112000",
    "wikiDataId": null
  },
  {
    "id": 91424,
    "name": "Comuna Corbeni",
    "state_id": 4722,
    "state_code": "AG",
    "country_id": 181,
    "country_code": "RO",
    "latitude": "45.29597000",
    "longitude": "24.66207000",
    "wikiDataId": null
  },
  {
    "id": 91425,
    "name": "Comuna Corbi",
    "state_id": 4722,
    "state_code": "AG",
    "country_id": 181,
    "country_code": "RO",
    "latitude": "45.25572000",
    "longitude": "24.81611000",
    "wikiDataId": null
  },
  {
    "id": 91475,
    "name": "Comuna Coşeşti",
    "state_id": 4722,
    "state_code": "AG",
    "country_id": 181,
    "country_code": "RO",
    "latitude": "45.06431000",
    "longitude": "24.87202000",
    "wikiDataId": null
  },
  {
    "id": 91465,
    "name": "Comuna Cotmeana",
    "state_id": 4722,
    "state_code": "AG",
    "country_id": 181,
    "country_code": "RO",
    "latitude": "45.00518000",
    "longitude": "24.62021000",
    "wikiDataId": null
  },
  {
    "id": 91518,
    "name": "Comuna Cuca",
    "state_id": 4722,
    "state_code": "AG",
    "country_id": 181,
    "country_code": "RO",
    "latitude": "44.95654000",
    "longitude": "24.50636000",
    "wikiDataId": null
  },
  {
    "id": 91726,
    "name": "Comuna Dâmbovicioara",
    "state_id": 4722,
    "state_code": "AG",
    "country_id": 181,
    "country_code": "RO",
    "latitude": "45.43452000",
    "longitude": "25.22737000",
    "wikiDataId": null
  },
  {
    "id": 91743,
    "name": "Comuna Dărmăneşti",
    "state_id": 4722,
    "state_code": "AG",
    "country_id": 181,
    "country_code": "RO",
    "latitude": "45.00656000",
    "longitude": "24.90224000",
    "wikiDataId": null
  },
  {
    "id": 91606,
    "name": "Comuna Davideşti",
    "state_id": 4722,
    "state_code": "AG",
    "country_id": 181,
    "country_code": "RO",
    "latitude": "45.00694000",
    "longitude": "25.03599000",
    "wikiDataId": null
  },
  {
    "id": 91637,
    "name": "Comuna Dobreşti",
    "state_id": 4722,
    "state_code": "AG",
    "country_id": 181,
    "country_code": "RO",
    "latitude": "44.94992000",
    "longitude": "25.11907000",
    "wikiDataId": null
  },
  {
    "id": 91659,
    "name": "Comuna Domneşti",
    "state_id": 4722,
    "state_code": "AG",
    "country_id": 181,
    "country_code": "RO",
    "latitude": "45.20562000",
    "longitude": "24.83945000",
    "wikiDataId": null
  },
  {
    "id": 91686,
    "name": "Comuna Drăganu",
    "state_id": 4722,
    "state_code": "AG",
    "country_id": 181,
    "country_code": "RO",
    "latitude": "44.93761000",
    "longitude": "24.70301000",
    "wikiDataId": null
  },
  {
    "id": 91676,
    "name": "Comuna Dragoslavele",
    "state_id": 4722,
    "state_code": "AG",
    "country_id": 181,
    "country_code": "RO",
    "latitude": "45.33451000",
    "longitude": "25.17010000",
    "wikiDataId": null
  },
  {
    "id": 91888,
    "name": "Comuna Godeni",
    "state_id": 4722,
    "state_code": "AG",
    "country_id": 181,
    "country_code": "RO",
    "latitude": "45.22311000",
    "longitude": "24.97842000",
    "wikiDataId": null
  },
  {
    "id": 92032,
    "name": "Comuna Hârseşti",
    "state_id": 4722,
    "state_code": "AG",
    "country_id": 181,
    "country_code": "RO",
    "latitude": "44.51091000",
    "longitude": "24.78294000",
    "wikiDataId": null
  },
  {
    "id": 92033,
    "name": "Comuna Hârtieşti",
    "state_id": 4722,
    "state_code": "AG",
    "country_id": 181,
    "country_code": "RO",
    "latitude": "45.12629000",
    "longitude": "25.11343000",
    "wikiDataId": null
  },
  {
    "id": 92152,
    "name": "Comuna Leordeni",
    "state_id": 4722,
    "state_code": "AG",
    "country_id": 181,
    "country_code": "RO",
    "latitude": "44.79117000",
    "longitude": "25.16299000",
    "wikiDataId": null
  },
  {
    "id": 92154,
    "name": "Comuna Lereşti",
    "state_id": 4722,
    "state_code": "AG",
    "country_id": 181,
    "country_code": "RO",
    "latitude": "45.32789000",
    "longitude": "25.06951000",
    "wikiDataId": null
  },
  {
    "id": 92203,
    "name": "Comuna Lunca Corbului",
    "state_id": 4722,
    "state_code": "AG",
    "country_id": 181,
    "country_code": "RO",
    "latitude": "44.68361000",
    "longitude": "24.76056000",
    "wikiDataId": null
  },
  {
    "id": 92399,
    "name": "Comuna Mălureni",
    "state_id": 4722,
    "state_code": "AG",
    "country_id": 181,
    "country_code": "RO",
    "latitude": "45.04780000",
    "longitude": "24.77875000",
    "wikiDataId": null
  },
  {
    "id": 92416,
    "name": "Comuna Mărăcineni",
    "state_id": 4722,
    "state_code": "AG",
    "country_id": 181,
    "country_code": "RO",
    "latitude": "44.90857000",
    "longitude": "24.87484000",
    "wikiDataId": null
  },
  {
    "id": 92261,
    "name": "Comuna Merișani",
    "state_id": 4722,
    "state_code": "AG",
    "country_id": 181,
    "country_code": "RO",
    "latitude": "44.96674000",
    "longitude": "24.74482000",
    "wikiDataId": null
  },
  {
    "id": 92264,
    "name": "Comuna Miceşti",
    "state_id": 4722,
    "state_code": "AG",
    "country_id": 181,
    "country_code": "RO",
    "latitude": "44.97367000",
    "longitude": "24.85577000",
    "wikiDataId": null
  },
  {
    "id": 92281,
    "name": "Comuna Mihăeşti",
    "state_id": 4722,
    "state_code": "AG",
    "country_id": 181,
    "country_code": "RO",
    "latitude": "45.11563000",
    "longitude": "25.01938000",
    "wikiDataId": null
  },
  {
    "id": 92294,
    "name": "Comuna Mioarele",
    "state_id": 4722,
    "state_code": "AG",
    "country_id": 181,
    "country_code": "RO",
    "latitude": "45.23396000",
    "longitude": "25.10045000",
    "wikiDataId": null
  },
  {
    "id": 92302,
    "name": "Comuna Miroşi",
    "state_id": 4722,
    "state_code": "AG",
    "country_id": 181,
    "country_code": "RO",
    "latitude": "44.40316000",
    "longitude": "24.95170000",
    "wikiDataId": null
  },
  {
    "id": 92335,
    "name": "Comuna Morărești",
    "state_id": 4722,
    "state_code": "AG",
    "country_id": 181,
    "country_code": "RO",
    "latitude": "45.00760000",
    "longitude": "24.56079000",
    "wikiDataId": null
  },
  {
    "id": 92349,
    "name": "Comuna Moşoaia",
    "state_id": 4722,
    "state_code": "AG",
    "country_id": 181,
    "country_code": "RO",
    "latitude": "44.83013000",
    "longitude": "24.79957000",
    "wikiDataId": null
  },
  {
    "id": 92345,
    "name": "Comuna Mozăceni",
    "state_id": 4722,
    "state_code": "AG",
    "country_id": 181,
    "country_code": "RO",
    "latitude": "44.56366000",
    "longitude": "25.17492000",
    "wikiDataId": null
  },
  {
    "id": 92365,
    "name": "Comuna Mușătești",
    "state_id": 4722,
    "state_code": "AG",
    "country_id": 181,
    "country_code": "RO",
    "latitude": "45.21667000",
    "longitude": "24.78333000",
    "wikiDataId": null
  },
  {
    "id": 92430,
    "name": "Comuna Negraşi",
    "state_id": 4722,
    "state_code": "AG",
    "country_id": 181,
    "country_code": "RO",
    "latitude": "44.61441000",
    "longitude": "25.12404000",
    "wikiDataId": null
  },
  {
    "id": 92456,
    "name": "Comuna Nucşoara",
    "state_id": 4722,
    "state_code": "AG",
    "country_id": 181,
    "country_code": "RO",
    "latitude": "45.33798000",
    "longitude": "24.78943000",
    "wikiDataId": null
  },
  {
    "id": 92468,
    "name": "Comuna Oarja",
    "state_id": 4722,
    "state_code": "AG",
    "country_id": 181,
    "country_code": "RO",
    "latitude": "44.75730000",
    "longitude": "24.96935000",
    "wikiDataId": null
  },
  {
    "id": 92582,
    "name": "Comuna Pietroşani",
    "state_id": 4722,
    "state_code": "AG",
    "country_id": 181,
    "country_code": "RO",
    "latitude": "45.15375000",
    "longitude": "24.84439000",
    "wikiDataId": null
  },
  {
    "id": 92628,
    "name": "Comuna Poiana Lacului",
    "state_id": 4722,
    "state_code": "AG",
    "country_id": 181,
    "country_code": "RO",
    "latitude": "44.81199000",
    "longitude": "24.71296000",
    "wikiDataId": null
  },
  {
    "id": 92637,
    "name": "Comuna Poienarii de Argeş",
    "state_id": 4722,
    "state_code": "AG",
    "country_id": 181,
    "country_code": "RO",
    "latitude": "45.06667000",
    "longitude": "24.53333000",
    "wikiDataId": null
  },
  {
    "id": 92652,
    "name": "Comuna Popeşti",
    "state_id": 4722,
    "state_code": "AG",
    "country_id": 181,
    "country_code": "RO",
    "latitude": "44.44521000",
    "longitude": "25.09114000",
    "wikiDataId": null
  },
  {
    "id": 92673,
    "name": "Comuna Priboieni",
    "state_id": 4722,
    "state_code": "AG",
    "country_id": 181,
    "country_code": "RO",
    "latitude": "44.87728000",
    "longitude": "25.08680000",
    "wikiDataId": null
  },
  {
    "id": 92819,
    "name": "Comuna Râca",
    "state_id": 4722,
    "state_code": "AG",
    "country_id": 181,
    "country_code": "RO",
    "latitude": "44.44216000",
    "longitude": "25.03671000",
    "wikiDataId": null
  },
  {
    "id": 92851,
    "name": "Comuna Răteşti",
    "state_id": 4722,
    "state_code": "AG",
    "country_id": 181,
    "country_code": "RO",
    "latitude": "44.71690000",
    "longitude": "25.15858000",
    "wikiDataId": null
  },
  {
    "id": 92755,
    "name": "Comuna Recea",
    "state_id": 4722,
    "state_code": "AG",
    "country_id": 181,
    "country_code": "RO",
    "latitude": "44.54264000",
    "longitude": "25.02738000",
    "wikiDataId": null
  },
  {
    "id": 92776,
    "name": "Comuna Rociu",
    "state_id": 4722,
    "state_code": "AG",
    "country_id": 181,
    "country_code": "RO",
    "latitude": "44.66838000",
    "longitude": "25.02014000",
    "wikiDataId": null
  },
  {
    "id": 92806,
    "name": "Comuna Rucăr",
    "state_id": 4722,
    "state_code": "AG",
    "country_id": 181,
    "country_code": "RO",
    "latitude": "45.41607000",
    "longitude": "25.17338000",
    "wikiDataId": null
  },
  {
    "id": 93100,
    "name": "Comuna Sălătrucu",
    "state_id": 4722,
    "state_code": "AG",
    "country_id": 181,
    "country_code": "RO",
    "latitude": "45.29098000",
    "longitude": "24.52523000",
    "wikiDataId": null
  },
  {
    "id": 93104,
    "name": "Comuna Săpata",
    "state_id": 4722,
    "state_code": "AG",
    "country_id": 181,
    "country_code": "RO",
    "latitude": "44.72789000",
    "longitude": "24.75280000",
    "wikiDataId": null
  },
  {
    "id": 92890,
    "name": "Comuna Schitu-Goleşti",
    "state_id": 4722,
    "state_code": "AG",
    "country_id": 181,
    "country_code": "RO",
    "latitude": "45.18630000",
    "longitude": "25.00576000",
    "wikiDataId": null
  },
  {
    "id": 92954,
    "name": "Comuna Slobozia",
    "state_id": 4722,
    "state_code": "AG",
    "country_id": 181,
    "country_code": "RO",
    "latitude": "44.52197000",
    "longitude": "25.24092000",
    "wikiDataId": null
  },
  {
    "id": 93012,
    "name": "Comuna Stâlpeni",
    "state_id": 4722,
    "state_code": "AG",
    "country_id": 181,
    "country_code": "RO",
    "latitude": "45.05665000",
    "longitude": "24.99307000",
    "wikiDataId": null
  },
  {
    "id": 93550,
    "name": "Comuna Ştefan cel Mare",
    "state_id": 4722,
    "state_code": "AG",
    "country_id": 181,
    "country_code": "RO",
    "latitude": "44.49197000",
    "longitude": "25.24710000",
    "wikiDataId": null
  },
  {
    "id": 92992,
    "name": "Comuna Stoeneşti",
    "state_id": 4722,
    "state_code": "AG",
    "country_id": 181,
    "country_code": "RO",
    "latitude": "45.26432000",
    "longitude": "25.17674000",
    "wikiDataId": null
  },
  {
    "id": 92999,
    "name": "Comuna Stolnici",
    "state_id": 4722,
    "state_code": "AG",
    "country_id": 181,
    "country_code": "RO",
    "latitude": "44.58075000",
    "longitude": "24.77335000",
    "wikiDataId": null
  },
  {
    "id": 93559,
    "name": "Comuna Şuici",
    "state_id": 4722,
    "state_code": "AG",
    "country_id": 181,
    "country_code": "RO",
    "latitude": "45.24454000",
    "longitude": "24.53621000",
    "wikiDataId": null
  },
  {
    "id": 93041,
    "name": "Comuna Suseni",
    "state_id": 4722,
    "state_code": "AG",
    "country_id": 181,
    "country_code": "RO",
    "latitude": "44.70861000",
    "longitude": "24.96437000",
    "wikiDataId": null
  },
  {
    "id": 93133,
    "name": "Comuna Teiu",
    "state_id": 4722,
    "state_code": "AG",
    "country_id": 181,
    "country_code": "RO",
    "latitude": "44.64225000",
    "longitude": "25.14110000",
    "wikiDataId": null
  },
  {
    "id": 93151,
    "name": "Comuna Tigveni",
    "state_id": 4722,
    "state_code": "AG",
    "country_id": 181,
    "country_code": "RO",
    "latitude": "45.15588000",
    "longitude": "24.55094000",
    "wikiDataId": null
  },
  {
    "id": 93580,
    "name": "Comuna Țițești",
    "state_id": 4722,
    "state_code": "AG",
    "country_id": 181,
    "country_code": "RO",
    "latitude": "45.01146000",
    "longitude": "24.97898000",
    "wikiDataId": null
  },
  {
    "id": 93252,
    "name": "Comuna Uda",
    "state_id": 4722,
    "state_code": "AG",
    "country_id": 181,
    "country_code": "RO",
    "latitude": "44.87591000",
    "longitude": "24.58582000",
    "wikiDataId": null
  },
  {
    "id": 93267,
    "name": "Comuna Ungheni",
    "state_id": 4722,
    "state_code": "AG",
    "country_id": 181,
    "country_code": "RO",
    "latitude": "44.51166000",
    "longitude": "24.95186000",
    "wikiDataId": null
  },
  {
    "id": 93303,
    "name": "Comuna Valea Danului",
    "state_id": 4722,
    "state_code": "AG",
    "country_id": 181,
    "country_code": "RO",
    "latitude": "45.18962000",
    "longitude": "24.61959000",
    "wikiDataId": null
  },
  {
    "id": 93306,
    "name": "Comuna Valea Iaşului",
    "state_id": 4722,
    "state_code": "AG",
    "country_id": 181,
    "country_code": "RO",
    "latitude": "45.19677000",
    "longitude": "24.70094000",
    "wikiDataId": null
  },
  {
    "id": 93315,
    "name": "Comuna Valea Mare-Pravăţ",
    "state_id": 4722,
    "state_code": "AG",
    "country_id": 181,
    "country_code": "RO",
    "latitude": "45.28900000",
    "longitude": "25.10567000",
    "wikiDataId": null
  },
  {
    "id": 93338,
    "name": "Comuna Vedea",
    "state_id": 4722,
    "state_code": "AG",
    "country_id": 181,
    "country_code": "RO",
    "latitude": "44.77735000",
    "longitude": "24.64677000",
    "wikiDataId": null
  },
  {
    "id": 93391,
    "name": "Comuna Vlădeşti",
    "state_id": 4722,
    "state_code": "AG",
    "country_id": 181,
    "country_code": "RO",
    "latitude": "45.14344000",
    "longitude": "24.93634000",
    "wikiDataId": null
  },
  {
    "id": 93418,
    "name": "Comuna Vultureşti",
    "state_id": 4722,
    "state_code": "AG",
    "country_id": 181,
    "country_code": "RO",
    "latitude": "45.05999000",
    "longitude": "25.07370000",
    "wikiDataId": null
  },
  {
    "id": 93598,
    "name": "Conțești",
    "state_id": 4722,
    "state_code": "AG",
    "country_id": 181,
    "country_code": "RO",
    "latitude": "44.98494000",
    "longitude": "25.01032000",
    "wikiDataId": null
  },
  {
    "id": 93613,
    "name": "Corbeni",
    "state_id": 4722,
    "state_code": "AG",
    "country_id": 181,
    "country_code": "RO",
    "latitude": "45.30000000",
    "longitude": "24.65000000",
    "wikiDataId": null
  },
  {
    "id": 93614,
    "name": "Corbi",
    "state_id": 4722,
    "state_code": "AG",
    "country_id": 181,
    "country_code": "RO",
    "latitude": "45.28333000",
    "longitude": "24.80000000",
    "wikiDataId": null
  },
  {
    "id": 93644,
    "name": "Cornățel",
    "state_id": 4722,
    "state_code": "AG",
    "country_id": 181,
    "country_code": "RO",
    "latitude": "44.57972000",
    "longitude": "24.95487000",
    "wikiDataId": null
  },
  {
    "id": 93691,
    "name": "Coşeşti",
    "state_id": 4722,
    "state_code": "AG",
    "country_id": 181,
    "country_code": "RO",
    "latitude": "45.06667000",
    "longitude": "24.86667000",
    "wikiDataId": null
  },
  {
    "id": 93661,
    "name": "Costeşti",
    "state_id": 4722,
    "state_code": "AG",
    "country_id": 181,
    "country_code": "RO",
    "latitude": "44.66202330",
    "longitude": "24.87701020",
    "wikiDataId": null
  },
  {
    "id": 93673,
    "name": "Cotenești",
    "state_id": 4722,
    "state_code": "AG",
    "country_id": 181,
    "country_code": "RO",
    "latitude": "45.23462000",
    "longitude": "25.18617000",
    "wikiDataId": null
  },
  {
    "id": 93675,
    "name": "Cotmeana",
    "state_id": 4722,
    "state_code": "AG",
    "country_id": 181,
    "country_code": "RO",
    "latitude": "44.96667000",
    "longitude": "24.61667000",
    "wikiDataId": null
  },
  {
    "id": 93757,
    "name": "Cuca",
    "state_id": 4722,
    "state_code": "AG",
    "country_id": 181,
    "country_code": "RO",
    "latitude": "44.95000000",
    "longitude": "24.51667000",
    "wikiDataId": null
  },
  {
    "id": 93774,
    "name": "Curtea de Argeş",
    "state_id": 4722,
    "state_code": "AG",
    "country_id": 181,
    "country_code": "RO",
    "latitude": "45.13422000",
    "longitude": "24.67409000",
    "wikiDataId": null
  },
  {
    "id": 94105,
    "name": "Dâmbovicioara",
    "state_id": 4722,
    "state_code": "AG",
    "country_id": 181,
    "country_code": "RO",
    "latitude": "45.45000000",
    "longitude": "25.23333000",
    "wikiDataId": null
  },
  {
    "id": 94133,
    "name": "Dărmăneşti",
    "state_id": 4722,
    "state_code": "AG",
    "country_id": 181,
    "country_code": "RO",
    "latitude": "45.01667000",
    "longitude": "24.90000000",
    "wikiDataId": null
  },
  {
    "id": 93898,
    "name": "Davideşti",
    "state_id": 4722,
    "state_code": "AG",
    "country_id": 181,
    "country_code": "RO",
    "latitude": "45.01667000",
    "longitude": "25.03333000",
    "wikiDataId": null
  },
  {
    "id": 93955,
    "name": "Dobreşti",
    "state_id": 4722,
    "state_code": "AG",
    "country_id": 181,
    "country_code": "RO",
    "latitude": "44.96667000",
    "longitude": "25.13333000",
    "wikiDataId": null
  },
  {
    "id": 93968,
    "name": "Dobrotu",
    "state_id": 4722,
    "state_code": "AG",
    "country_id": 181,
    "country_code": "RO",
    "latitude": "45.20633000",
    "longitude": "24.65859000",
    "wikiDataId": null
  },
  {
    "id": 93989,
    "name": "Domneşti",
    "state_id": 4722,
    "state_code": "AG",
    "country_id": 181,
    "country_code": "RO",
    "latitude": "45.20000000",
    "longitude": "24.83333000",
    "wikiDataId": null
  },
  {
    "id": 94036,
    "name": "Drăganu-Olteni",
    "state_id": 4722,
    "state_code": "AG",
    "country_id": 181,
    "country_code": "RO",
    "latitude": "44.93333000",
    "longitude": "24.71667000",
    "wikiDataId": null
  },
  {
    "id": 94039,
    "name": "Drăghici",
    "state_id": 4722,
    "state_code": "AG",
    "country_id": 181,
    "country_code": "RO",
    "latitude": "45.12865000",
    "longitude": "25.04508000",
    "wikiDataId": null
  },
  {
    "id": 94021,
    "name": "Dragoslavele",
    "state_id": 4722,
    "state_code": "AG",
    "country_id": 181,
    "country_code": "RO",
    "latitude": "45.34801000",
    "longitude": "25.16925000",
    "wikiDataId": null
  },
  {
    "id": 94254,
    "name": "Făgetu",
    "state_id": 4722,
    "state_code": "AG",
    "country_id": 181,
    "country_code": "RO",
    "latitude": "44.90616000",
    "longitude": "24.91159000",
    "wikiDataId": null
  },
  {
    "id": 94508,
    "name": "Gălășești",
    "state_id": 4722,
    "state_code": "AG",
    "country_id": 181,
    "country_code": "RO",
    "latitude": "44.95593000",
    "longitude": "24.78602000",
    "wikiDataId": null
  },
  {
    "id": 94286,
    "name": "Geamăna",
    "state_id": 4722,
    "state_code": "AG",
    "country_id": 181,
    "country_code": "RO",
    "latitude": "44.82005000",
    "longitude": "24.89109000",
    "wikiDataId": null
  },
  {
    "id": 94368,
    "name": "Godeni",
    "state_id": 4722,
    "state_code": "AG",
    "country_id": 181,
    "country_code": "RO",
    "latitude": "45.23333000",
    "longitude": "24.98333000",
    "wikiDataId": null
  },
  {
    "id": 94378,
    "name": "Golești",
    "state_id": 4722,
    "state_code": "AG",
    "country_id": 181,
    "country_code": "RO",
    "latitude": "44.83970000",
    "longitude": "24.96530000",
    "wikiDataId": null
  },
  {
    "id": 94384,
    "name": "Gorganu",
    "state_id": 4722,
    "state_code": "AG",
    "country_id": 181,
    "country_code": "RO",
    "latitude": "44.84241000",
    "longitude": "25.03838000",
    "wikiDataId": null
  },
  {
    "id": 94589,
    "name": "Hârseşti",
    "state_id": 4722,
    "state_code": "AG",
    "country_id": 181,
    "country_code": "RO",
    "latitude": "44.53333000",
    "longitude": "24.78333000",
    "wikiDataId": null
  },
  {
    "id": 94590,
    "name": "Hârtieşti",
    "state_id": 4722,
    "state_code": "AG",
    "country_id": 181,
    "country_code": "RO",
    "latitude": "45.11667000",
    "longitude": "25.10000000",
    "wikiDataId": null
  },
  {
    "id": 94575,
    "name": "Humele",
    "state_id": 4722,
    "state_code": "AG",
    "country_id": 181,
    "country_code": "RO",
    "latitude": "44.52612000",
    "longitude": "24.97714000",
    "wikiDataId": null
  },
  {
    "id": 94715,
    "name": "Izvoru",
    "state_id": 4722,
    "state_code": "AG",
    "country_id": 181,
    "country_code": "RO",
    "latitude": "44.49413770",
    "longitude": "25.06470300",
    "wikiDataId": null
  },
  {
    "id": 94720,
    "name": "Izvoru de Sus",
    "state_id": 4722,
    "state_code": "AG",
    "country_id": 181,
    "country_code": "RO",
    "latitude": "44.81667000",
    "longitude": "24.65000000",
    "wikiDataId": null
  },
  {
    "id": 94750,
    "name": "Jugur",
    "state_id": 4722,
    "state_code": "AG",
    "country_id": 181,
    "country_code": "RO",
    "latitude": "45.19255000",
    "longitude": "25.08493000",
    "wikiDataId": null
  },
  {
    "id": 94754,
    "name": "Jupânești",
    "state_id": 4722,
    "state_code": "AG",
    "country_id": 181,
    "country_code": "RO",
    "latitude": "45.06667000",
    "longitude": "24.85000000",
    "wikiDataId": null
  },
  {
    "id": 94902,
    "name": "Lăzărești",
    "state_id": 4722,
    "state_code": "AG",
    "country_id": 181,
    "country_code": "RO",
    "latitude": "45.15659000",
    "longitude": "24.99540000",
    "wikiDataId": null
  },
  {
    "id": 94771,
    "name": "Leicești",
    "state_id": 4722,
    "state_code": "AG",
    "country_id": 181,
    "country_code": "RO",
    "latitude": "45.09586000",
    "longitude": "24.86108000",
    "wikiDataId": null
  },
  {
    "id": 94779,
    "name": "Leordeni",
    "state_id": 4722,
    "state_code": "AG",
    "country_id": 181,
    "country_code": "RO",
    "latitude": "44.78333000",
    "longitude": "25.11667000",
    "wikiDataId": null
  },
  {
    "id": 94781,
    "name": "Lereşti",
    "state_id": 4722,
    "state_code": "AG",
    "country_id": 181,
    "country_code": "RO",
    "latitude": "45.33333000",
    "longitude": "25.06667000",
    "wikiDataId": null
  },
  {
    "id": 94818,
    "name": "Livezeni",
    "state_id": 4722,
    "state_code": "AG",
    "country_id": 181,
    "country_code": "RO",
    "latitude": "45.03838000",
    "longitude": "24.97676000",
    "wikiDataId": null
  },
  {
    "id": 94864,
    "name": "Lunca Corbului",
    "state_id": 4722,
    "state_code": "AG",
    "country_id": 181,
    "country_code": "RO",
    "latitude": "44.68391000",
    "longitude": "24.75855000",
    "wikiDataId": null
  },
  {
    "id": 95254,
    "name": "Mălureni",
    "state_id": 4722,
    "state_code": "AG",
    "country_id": 181,
    "country_code": "RO",
    "latitude": "45.10000000",
    "longitude": "24.80000000",
    "wikiDataId": null
  },
  {
    "id": 95284,
    "name": "Mărăcineni",
    "state_id": 4722,
    "state_code": "AG",
    "country_id": 181,
    "country_code": "RO",
    "latitude": "44.90000000",
    "longitude": "24.88333000",
    "wikiDataId": null
  },
  {
    "id": 94926,
    "name": "Mareș",
    "state_id": 4722,
    "state_code": "AG",
    "country_id": 181,
    "country_code": "RO",
    "latitude": "44.77824000",
    "longitude": "24.79005000",
    "wikiDataId": null
  },
  {
    "id": 95224,
    "name": "Mârţeşti",
    "state_id": 4722,
    "state_code": "AG",
    "country_id": 181,
    "country_code": "RO",
    "latitude": "44.71667000",
    "longitude": "24.75000000",
    "wikiDataId": null
  },
  {
    "id": 95295,
    "name": "Mățău",
    "state_id": 4722,
    "state_code": "AG",
    "country_id": 181,
    "country_code": "RO",
    "latitude": "45.23565000",
    "longitude": "25.08286000",
    "wikiDataId": null
  },
  {
    "id": 94959,
    "name": "Merişani",
    "state_id": 4722,
    "state_code": "AG",
    "country_id": 181,
    "country_code": "RO",
    "latitude": "44.96820000",
    "longitude": "24.74327000",
    "wikiDataId": null
  },
  {
    "id": 94965,
    "name": "Miceşti",
    "state_id": 4722,
    "state_code": "AG",
    "country_id": 181,
    "country_code": "RO",
    "latitude": "44.95000000",
    "longitude": "24.86667000",
    "wikiDataId": null
  },
  {
    "id": 94988,
    "name": "Mihăeşti",
    "state_id": 4722,
    "state_code": "AG",
    "country_id": 181,
    "country_code": "RO",
    "latitude": "45.11667000",
    "longitude": "25.00000000",
    "wikiDataId": null
  },
  {
    "id": 95011,
    "name": "Mioveni",
    "state_id": 4722,
    "state_code": "AG",
    "country_id": 181,
    "country_code": "RO",
    "latitude": "44.95905000",
    "longitude": "24.94198000",
    "wikiDataId": null
  },
  {
    "id": 95024,
    "name": "Miroşi",
    "state_id": 4722,
    "state_code": "AG",
    "country_id": 181,
    "country_code": "RO",
    "latitude": "44.41667000",
    "longitude": "24.93333000",
    "wikiDataId": null
  },
  {
    "id": 95075,
    "name": "Morăreşti",
    "state_id": 4722,
    "state_code": "AG",
    "country_id": 181,
    "country_code": "RO",
    "latitude": "45.01667000",
    "longitude": "24.56667000",
    "wikiDataId": null
  },
  {
    "id": 95091,
    "name": "Moşoaia",
    "state_id": 4722,
    "state_code": "AG",
    "country_id": 181,
    "country_code": "RO",
    "latitude": "44.81667000",
    "longitude": "24.76667000",
    "wikiDataId": null
  },
  {
    "id": 95087,
    "name": "Mozăceni",
    "state_id": 4722,
    "state_code": "AG",
    "country_id": 181,
    "country_code": "RO",
    "latitude": "44.56667000",
    "longitude": "25.16667000",
    "wikiDataId": null
  },
  {
    "id": 95132,
    "name": "Municipiul Câmpulung",
    "state_id": 4722,
    "state_code": "AG",
    "country_id": 181,
    "country_code": "RO",
    "latitude": "45.26691000",
    "longitude": "25.04419000",
    "wikiDataId": null
  },
  {
    "id": 95129,
    "name": "Municipiul Curtea de Argeș",
    "state_id": 4722,
    "state_code": "AG",
    "country_id": 181,
    "country_code": "RO",
    "latitude": "45.13840000",
    "longitude": "24.67512000",
    "wikiDataId": null
  },
  {
    "id": 95169,
    "name": "Municipiul Piteşti",
    "state_id": 4722,
    "state_code": "AG",
    "country_id": 181,
    "country_code": "RO",
    "latitude": "44.85782000",
    "longitude": "24.87133000",
    "wikiDataId": null
  },
  {
    "id": 95211,
    "name": "Mușătești",
    "state_id": 4722,
    "state_code": "AG",
    "country_id": 181,
    "country_code": "RO",
    "latitude": "45.21651000",
    "longitude": "24.77941000",
    "wikiDataId": null
  },
  {
    "id": 95313,
    "name": "Negraşi",
    "state_id": 4722,
    "state_code": "AG",
    "country_id": 181,
    "country_code": "RO",
    "latitude": "44.60000000",
    "longitude": "25.11667000",
    "wikiDataId": null
  },
  {
    "id": 95362,
    "name": "Nucşoara",
    "state_id": 4722,
    "state_code": "AG",
    "country_id": 181,
    "country_code": "RO",
    "latitude": "45.33333000",
    "longitude": "24.78333000",
    "wikiDataId": null
  },
  {
    "id": 95383,
    "name": "Oarja",
    "state_id": 4722,
    "state_code": "AG",
    "country_id": 181,
    "country_code": "RO",
    "latitude": "44.76053000",
    "longitude": "24.97596000",
    "wikiDataId": null
  },
  {
    "id": 95384,
    "name": "Oarja Sat",
    "state_id": 4722,
    "state_code": "AG",
    "country_id": 181,
    "country_code": "RO",
    "latitude": "44.76429000",
    "longitude": "24.97141000",
    "wikiDataId": null
  },
  {
    "id": 95412,
    "name": "Oeștii Pământeni",
    "state_id": 4722,
    "state_code": "AG",
    "country_id": 181,
    "country_code": "RO",
    "latitude": "45.25241000",
    "longitude": "24.65658000",
    "wikiDataId": null
  },
  {
    "id": 95642,
    "name": "Oraș Mioveni",
    "state_id": 4722,
    "state_code": "AG",
    "country_id": 181,
    "country_code": "RO",
    "latitude": "44.95897000",
    "longitude": "24.94274000",
    "wikiDataId": null
  },
  {
    "id": 95652,
    "name": "Oraș Ştefăneşti",
    "state_id": 4722,
    "state_code": "AG",
    "country_id": 181,
    "country_code": "RO",
    "latitude": "44.86667000",
    "longitude": "24.93333000",
    "wikiDataId": null
  },
  {
    "id": 96025,
    "name": "Pătuleni",
    "state_id": 4722,
    "state_code": "AG",
    "country_id": 181,
    "country_code": "RO",
    "latitude": "44.73247000",
    "longitude": "25.16495000",
    "wikiDataId": null
  },
  {
    "id": 95749,
    "name": "Petrești",
    "state_id": 4722,
    "state_code": "AG",
    "country_id": 181,
    "country_code": "RO",
    "latitude": "45.04364000",
    "longitude": "24.88989000",
    "wikiDataId": null
  },
  {
    "id": 95788,
    "name": "Pietroşani",
    "state_id": 4722,
    "state_code": "AG",
    "country_id": 181,
    "country_code": "RO",
    "latitude": "45.18333000",
    "longitude": "24.85000000",
    "wikiDataId": null
  },
  {
    "id": 95803,
    "name": "Piteşti",
    "state_id": 4722,
    "state_code": "AG",
    "country_id": 181,
    "country_code": "RO",
    "latitude": "44.85000000",
    "longitude": "24.86667000",
    "wikiDataId": null
  },
  {
    "id": 95875,
    "name": "Poiana Lacului",
    "state_id": 4722,
    "state_code": "AG",
    "country_id": 181,
    "country_code": "RO",
    "latitude": "44.81667000",
    "longitude": "24.73333000",
    "wikiDataId": null
  },
  {
    "id": 95886,
    "name": "Poienari",
    "state_id": 4722,
    "state_code": "AG",
    "country_id": 181,
    "country_code": "RO",
    "latitude": "45.31443180",
    "longitude": "24.65625320",
    "wikiDataId": null
  },
  {
    "id": 95908,
    "name": "Popeşti",
    "state_id": 4722,
    "state_code": "AG",
    "country_id": 181,
    "country_code": "RO",
    "latitude": "44.44181000",
    "longitude": "25.10007000",
    "wikiDataId": null
  },
  {
    "id": 95948,
    "name": "Priboieni",
    "state_id": 4722,
    "state_code": "AG",
    "country_id": 181,
    "country_code": "RO",
    "latitude": "44.88333000",
    "longitude": "25.08333000",
    "wikiDataId": null
  },
  {
    "id": 95985,
    "name": "Purcăreni",
    "state_id": 4722,
    "state_code": "AG",
    "country_id": 181,
    "country_code": "RO",
    "latitude": "44.96847000",
    "longitude": "24.88736000",
    "wikiDataId": null
  },
  {
    "id": 96164,
    "name": "Râca",
    "state_id": 4722,
    "state_code": "AG",
    "country_id": 181,
    "country_code": "RO",
    "latitude": "44.43426000",
    "longitude": "25.04333000",
    "wikiDataId": null
  },
  {
    "id": 96046,
    "name": "Racovița",
    "state_id": 4722,
    "state_code": "AG",
    "country_id": 181,
    "country_code": "RO",
    "latitude": "44.97081000",
    "longitude": "24.97582000",
    "wikiDataId": null
  },
  {
    "id": 96197,
    "name": "Rădești",
    "state_id": 4722,
    "state_code": "AG",
    "country_id": 181,
    "country_code": "RO",
    "latitude": "45.07184000",
    "longitude": "25.00207000",
    "wikiDataId": null
  },
  {
    "id": 96210,
    "name": "Răteşti",
    "state_id": 4722,
    "state_code": "AG",
    "country_id": 181,
    "country_code": "RO",
    "latitude": "44.73333000",
    "longitude": "25.13333000",
    "wikiDataId": null
  },
  {
    "id": 96071,
    "name": "Recea",
    "state_id": 4722,
    "state_code": "AG",
    "country_id": 181,
    "country_code": "RO",
    "latitude": "44.53333000",
    "longitude": "25.01667000",
    "wikiDataId": null
  },
  {
    "id": 96089,
    "name": "Retevoiești",
    "state_id": 4722,
    "state_code": "AG",
    "country_id": 181,
    "country_code": "RO",
    "latitude": "45.14016000",
    "longitude": "24.83797000",
    "wikiDataId": null
  },
  {
    "id": 96098,
    "name": "Rociu",
    "state_id": 4722,
    "state_code": "AG",
    "country_id": 181,
    "country_code": "RO",
    "latitude": "44.66667000",
    "longitude": "25.03333000",
    "wikiDataId": null
  },
  {
    "id": 96144,
    "name": "Rucăr",
    "state_id": 4722,
    "state_code": "AG",
    "country_id": 181,
    "country_code": "RO",
    "latitude": "45.40000000",
    "longitude": "25.16667000",
    "wikiDataId": null
  },
  {
    "id": 106023,
    "name": "Sălătrucu",
    "state_id": 4722,
    "state_code": "AG",
    "country_id": 181,
    "country_code": "RO",
    "latitude": "45.33333000",
    "longitude": "24.51667000",
    "wikiDataId": null
  },
  {
    "id": 96274,
    "name": "Schitu-Goleşti",
    "state_id": 4722,
    "state_code": "AG",
    "country_id": 181,
    "country_code": "RO",
    "latitude": "45.20000000",
    "longitude": "25.00000000",
    "wikiDataId": null
  },
  {
    "id": 97118,
    "name": "Șerbănești",
    "state_id": 4722,
    "state_code": "AG",
    "country_id": 181,
    "country_code": "RO",
    "latitude": "44.68142000",
    "longitude": "24.99236000",
    "wikiDataId": null
  },
  {
    "id": 97117,
    "name": "Șerboeni",
    "state_id": 4722,
    "state_code": "AG",
    "country_id": 181,
    "country_code": "RO",
    "latitude": "44.63818000",
    "longitude": "24.89355000",
    "wikiDataId": null
  },
  {
    "id": 96382,
    "name": "Slănic",
    "state_id": 4722,
    "state_code": "AG",
    "country_id": 181,
    "country_code": "RO",
    "latitude": "45.23108000",
    "longitude": "24.89411000",
    "wikiDataId": null
  },
  {
    "id": 96369,
    "name": "Slobozia",
    "state_id": 4722,
    "state_code": "AG",
    "country_id": 181,
    "country_code": "RO",
    "latitude": "44.52527000",
    "longitude": "25.24263000",
    "wikiDataId": null
  },
  {
    "id": 96468,
    "name": "Stâlpeni",
    "state_id": 4722,
    "state_code": "AG",
    "country_id": 181,
    "country_code": "RO",
    "latitude": "45.05000000",
    "longitude": "24.96667000",
    "wikiDataId": null
  },
  {
    "id": 97082,
    "name": "Ştefan cel Mare",
    "state_id": 4722,
    "state_code": "AG",
    "country_id": 181,
    "country_code": "RO",
    "latitude": "44.49283000",
    "longitude": "25.24418000",
    "wikiDataId": null
  },
  {
    "id": 97084,
    "name": "Ştefăneşti",
    "state_id": 4722,
    "state_code": "AG",
    "country_id": 181,
    "country_code": "RO",
    "latitude": "44.86506000",
    "longitude": "24.94961000",
    "wikiDataId": null
  },
  {
    "id": 96433,
    "name": "Stoeneşti",
    "state_id": 4722,
    "state_code": "AG",
    "country_id": 181,
    "country_code": "RO",
    "latitude": "45.25000000",
    "longitude": "25.16667000",
    "wikiDataId": null
  },
  {
    "id": 96443,
    "name": "Stolnici",
    "state_id": 4722,
    "state_code": "AG",
    "country_id": 181,
    "country_code": "RO",
    "latitude": "44.56667000",
    "longitude": "24.78333000",
    "wikiDataId": null
  },
  {
    "id": 96460,
    "name": "Strâmbeni",
    "state_id": 4722,
    "state_code": "AG",
    "country_id": 181,
    "country_code": "RO",
    "latitude": "44.46897000",
    "longitude": "24.97315000",
    "wikiDataId": null
  },
  {
    "id": 96455,
    "name": "Stroești",
    "state_id": 4722,
    "state_code": "AG",
    "country_id": 181,
    "country_code": "RO",
    "latitude": "45.12953000",
    "longitude": "24.79418000",
    "wikiDataId": null
  },
  {
    "id": 97091,
    "name": "Şuici",
    "state_id": 4722,
    "state_code": "AG",
    "country_id": 181,
    "country_code": "RO",
    "latitude": "45.25000000",
    "longitude": "24.53333000",
    "wikiDataId": null
  },
  {
    "id": 96509,
    "name": "Surdulești",
    "state_id": 4722,
    "state_code": "AG",
    "country_id": 181,
    "country_code": "RO",
    "latitude": "44.39217000",
    "longitude": "24.95798000",
    "wikiDataId": null
  },
  {
    "id": 96511,
    "name": "Suseni",
    "state_id": 4722,
    "state_code": "AG",
    "country_id": 181,
    "country_code": "RO",
    "latitude": "44.71667000",
    "longitude": "24.95000000",
    "wikiDataId": null
  },
  {
    "id": 106071,
    "name": "Teiu",
    "state_id": 4722,
    "state_code": "AG",
    "country_id": 181,
    "country_code": "RO",
    "latitude": "44.66667000",
    "longitude": "25.10000000",
    "wikiDataId": null
  },
  {
    "id": 106096,
    "name": "Tigveni",
    "state_id": 4722,
    "state_code": "AG",
    "country_id": 181,
    "country_code": "RO",
    "latitude": "45.13333000",
    "longitude": "24.58333000",
    "wikiDataId": null
  },
  {
    "id": 106108,
    "name": "Titeşti",
    "state_id": 4722,
    "state_code": "AG",
    "country_id": 181,
    "country_code": "RO",
    "latitude": "45.01667000",
    "longitude": "25.00000000",
    "wikiDataId": null
  },
  {
    "id": 106133,
    "name": "Toplița",
    "state_id": 4722,
    "state_code": "AG",
    "country_id": 181,
    "country_code": "RO",
    "latitude": "45.09022000",
    "longitude": "24.73236000",
    "wikiDataId": null
  },
  {
    "id": 106136,
    "name": "Topoloveni",
    "state_id": 4722,
    "state_code": "AG",
    "country_id": 181,
    "country_code": "RO",
    "latitude": "44.80797160",
    "longitude": "25.08528360",
    "wikiDataId": null
  },
  {
    "id": 96571,
    "name": "Tutana",
    "state_id": 4722,
    "state_code": "AG",
    "country_id": 181,
    "country_code": "RO",
    "latitude": "45.04286000",
    "longitude": "24.65122000",
    "wikiDataId": null
  },
  {
    "id": 96635,
    "name": "Uda",
    "state_id": 4722,
    "state_code": "AG",
    "country_id": 181,
    "country_code": "RO",
    "latitude": "44.91667000",
    "longitude": "24.56667000",
    "wikiDataId": null
  },
  {
    "id": 96655,
    "name": "Ungheni",
    "state_id": 4722,
    "state_code": "AG",
    "country_id": 181,
    "country_code": "RO",
    "latitude": "44.50000000",
    "longitude": "24.96667000",
    "wikiDataId": null
  },
  {
    "id": 96713,
    "name": "Valea Caselor",
    "state_id": 4722,
    "state_code": "AG",
    "country_id": 181,
    "country_code": "RO",
    "latitude": "45.35000000",
    "longitude": "25.16667000",
    "wikiDataId": null
  },
  {
    "id": 96722,
    "name": "Valea Danului",
    "state_id": 4722,
    "state_code": "AG",
    "country_id": 181,
    "country_code": "RO",
    "latitude": "45.18333000",
    "longitude": "24.65000000",
    "wikiDataId": null
  },
  {
    "id": 96726,
    "name": "Valea Iaşului",
    "state_id": 4722,
    "state_code": "AG",
    "country_id": 181,
    "country_code": "RO",
    "latitude": "45.18333000",
    "longitude": "24.71667000",
    "wikiDataId": null
  },
  {
    "id": 96738,
    "name": "Valea Mare Pravăț",
    "state_id": 4722,
    "state_code": "AG",
    "country_id": 181,
    "country_code": "RO",
    "latitude": "45.29171000",
    "longitude": "25.09250000",
    "wikiDataId": null
  },
  {
    "id": 96739,
    "name": "Valea Mare-Podgoria",
    "state_id": 4722,
    "state_code": "AG",
    "country_id": 181,
    "country_code": "RO",
    "latitude": "44.88513000",
    "longitude": "24.90613000",
    "wikiDataId": null
  },
  {
    "id": 96745,
    "name": "Valea Popii",
    "state_id": 4722,
    "state_code": "AG",
    "country_id": 181,
    "country_code": "RO",
    "latitude": "45.09253000",
    "longitude": "25.02240000",
    "wikiDataId": null
  },
  {
    "id": 96964,
    "name": "Văleni-Podgoria",
    "state_id": 4722,
    "state_code": "AG",
    "country_id": 181,
    "country_code": "RO",
    "latitude": "44.85755000",
    "longitude": "24.98930000",
    "wikiDataId": null
  },
  {
    "id": 96782,
    "name": "Vedea",
    "state_id": 4722,
    "state_code": "AG",
    "country_id": 181,
    "country_code": "RO",
    "latitude": "44.78333000",
    "longitude": "24.61667000",
    "wikiDataId": null
  },
  {
    "id": 96867,
    "name": "Vlădești",
    "state_id": 4722,
    "state_code": "AG",
    "country_id": 181,
    "country_code": "RO",
    "latitude": "45.15000000",
    "longitude": "24.91667000",
    "wikiDataId": null
  },
  {
    "id": 96882,
    "name": "Voinești",
    "state_id": 4722,
    "state_code": "AG",
    "country_id": 181,
    "country_code": "RO",
    "latitude": "45.30007000",
    "longitude": "25.07225000",
    "wikiDataId": null
  },
  {
    "id": 96899,
    "name": "Vrănești",
    "state_id": 4722,
    "state_code": "AG",
    "country_id": 181,
    "country_code": "RO",
    "latitude": "44.84595000",
    "longitude": "25.00716000",
    "wikiDataId": null
  },
  {
    "id": 96912,
    "name": "Vulturești",
    "state_id": 4722,
    "state_code": "AG",
    "country_id": 181,
    "country_code": "RO",
    "latitude": "45.06618000",
    "longitude": "25.08347000",
    "wikiDataId": null
  }
]