[
  {
    "id": 130081,
    "name": "Guacara",
    "state_id": 2040,
    "state_code": "G",
    "country_id": 239,
    "country_code": "VE",
    "latitude": "10.22609000",
    "longitude": "-67.87700000",
    "wikiDataId": null
  },
  {
    "id": 130085,
    "name": "Güigüe",
    "state_id": 2040,
    "state_code": "G",
    "country_id": 239,
    "country_code": "VE",
    "latitude": "10.08344000",
    "longitude": "-67.77799000",
    "wikiDataId": null
  },
  {
    "id": 130098,
    "name": "Los Guayos",
    "state_id": 2040,
    "state_code": "G",
    "country_id": 239,
    "country_code": "VE",
    "latitude": "10.18932000",
    "longitude": "-67.93828000",
    "wikiDataId": null
  },
  {
    "id": 130105,
    "name": "Mariara",
    "state_id": 2040,
    "state_code": "G",
    "country_id": 239,
    "country_code": "VE",
    "latitude": "10.29532000",
    "longitude": "-67.71770000",
    "wikiDataId": null
  },
  {
    "id": 130108,
    "name": "Morón",
    "state_id": 2040,
    "state_code": "G",
    "country_id": 239,
    "country_code": "VE",
    "latitude": "10.48715000",
    "longitude": "-68.20078000",
    "wikiDataId": null
  },
  {
    "id": 130132,
    "name": "Puerto Cabello",
    "state_id": 2040,
    "state_code": "G",
    "country_id": 239,
    "country_code": "VE",
    "latitude": "10.47306000",
    "longitude": "-68.01250000",
    "wikiDataId": null
  },
  {
    "id": 130147,
    "name": "San Joaquín",
    "state_id": 2040,
    "state_code": "G",
    "country_id": 239,
    "country_code": "VE",
    "latitude": "10.26061000",
    "longitude": "-67.79348000",
    "wikiDataId": null
  },
  {
    "id": 130156,
    "name": "Tacarigua",
    "state_id": 2040,
    "state_code": "G",
    "country_id": 239,
    "country_code": "VE",
    "latitude": "10.08621000",
    "longitude": "-67.91982000",
    "wikiDataId": null
  },
  {
    "id": 130158,
    "name": "Tocuyito",
    "state_id": 2040,
    "state_code": "G",
    "country_id": 239,
    "country_code": "VE",
    "latitude": "10.11347000",
    "longitude": "-68.06783000",
    "wikiDataId": null
  },
  {
    "id": 130165,
    "name": "Valencia",
    "state_id": 2040,
    "state_code": "G",
    "country_id": 239,
    "country_code": "VE",
    "latitude": "10.16202000",
    "longitude": "-68.00765000",
    "wikiDataId": null
  }
]