[
  {
    "id": 65931,
    "name": "Ain Ebel",
    "state_id": 2288,
    "state_code": "NA",
    "country_id": 121,
    "country_code": "LB",
    "latitude": "33.11023000",
    "longitude": "35.40251000",
    "wikiDataId": null
  },
  {
    "id": 65942,
    "name": "Caza de Bent Jbaïl",
    "state_id": 2288,
    "state_code": "NA",
    "country_id": 121,
    "country_code": "LB",
    "latitude": "33.15964000",
    "longitude": "35.41137000",
    "wikiDataId": null
  },
  {
    "id": 65943,
    "name": "Caza de Nabatîyé",
    "state_id": 2288,
    "state_code": "NA",
    "country_id": 121,
    "country_code": "LB",
    "latitude": "33.39435000",
    "longitude": "35.44483000",
    "wikiDataId": null
  },
  {
    "id": 65946,
    "name": "Habboûch",
    "state_id": 2288,
    "state_code": "NA",
    "country_id": 121,
    "country_code": "LB",
    "latitude": "33.40729000",
    "longitude": "35.48169000",
    "wikiDataId": null
  },
  {
    "id": 65949,
    "name": "Marjayoûn",
    "state_id": 2288,
    "state_code": "NA",
    "country_id": 121,
    "country_code": "LB",
    "latitude": "33.36028000",
    "longitude": "35.59111000",
    "wikiDataId": null
  },
  {
    "id": 65950,
    "name": "Nabatîyé et Tahta",
    "state_id": 2288,
    "state_code": "NA",
    "country_id": 121,
    "country_code": "LB",
    "latitude": "33.37889000",
    "longitude": "35.48389000",
    "wikiDataId": null
  }
]