[
  {
    "id": 98010,
    "name": "Bol’shoy Khomutets",
    "state_id": 1889,
    "state_code": "LIP",
    "country_id": 182,
    "country_code": "RU",
    "latitude": "52.78285000",
    "longitude": "39.87214000",
    "wikiDataId": null
  },
  {
    "id": 98023,
    "name": "Borinskoye",
    "state_id": 1889,
    "state_code": "LIP",
    "country_id": 182,
    "country_code": "RU",
    "latitude": "52.45690000",
    "longitude": "39.37130000",
    "wikiDataId": null
  },
  {
    "id": 98116,
    "name": "Chaplygin",
    "state_id": 1889,
    "state_code": "LIP",
    "country_id": 182,
    "country_code": "RU",
    "latitude": "53.24319000",
    "longitude": "39.96288000",
    "wikiDataId": null
  },
  {
    "id": 98117,
    "name": "Chaplyginskiy Rayon",
    "state_id": 1889,
    "state_code": "LIP",
    "country_id": 182,
    "country_code": "RU",
    "latitude": "53.25000000",
    "longitude": "40.00000000",
    "wikiDataId": null
  },
  {
    "id": 98244,
    "name": "Dankov",
    "state_id": 1889,
    "state_code": "LIP",
    "country_id": 182,
    "country_code": "RU",
    "latitude": "53.25155000",
    "longitude": "39.15553000",
    "wikiDataId": null
  },
  {
    "id": 98245,
    "name": "Dankovskiy Rayon",
    "state_id": 1889,
    "state_code": "LIP",
    "country_id": 182,
    "country_code": "RU",
    "latitude": "53.25000000",
    "longitude": "39.16667000",
    "wikiDataId": null
  },
  {
    "id": 98291,
    "name": "Dobrinka",
    "state_id": 1889,
    "state_code": "LIP",
    "country_id": 182,
    "country_code": "RU",
    "latitude": "52.16528000",
    "longitude": "40.47306000",
    "wikiDataId": null
  },
  {
    "id": 98292,
    "name": "Dobrinskiy Rayon",
    "state_id": 1889,
    "state_code": "LIP",
    "country_id": 182,
    "country_code": "RU",
    "latitude": "52.16667000",
    "longitude": "40.50000000",
    "wikiDataId": null
  },
  {
    "id": 98293,
    "name": "Dobrovskiy Rayon",
    "state_id": 1889,
    "state_code": "LIP",
    "country_id": 182,
    "country_code": "RU",
    "latitude": "52.83333000",
    "longitude": "39.83333000",
    "wikiDataId": null
  },
  {
    "id": 98294,
    "name": "Dobroye",
    "state_id": 1889,
    "state_code": "LIP",
    "country_id": 182,
    "country_code": "RU",
    "latitude": "52.86780000",
    "longitude": "39.81090000",
    "wikiDataId": null
  },
  {
    "id": 98301,
    "name": "Dolgorukovo",
    "state_id": 1889,
    "state_code": "LIP",
    "country_id": 182,
    "country_code": "RU",
    "latitude": "52.31945000",
    "longitude": "38.34527000",
    "wikiDataId": null
  },
  {
    "id": 98302,
    "name": "Dolgorukovskiy Rayon",
    "state_id": 1889,
    "state_code": "LIP",
    "country_id": 182,
    "country_code": "RU",
    "latitude": "52.33333000",
    "longitude": "38.33333000",
    "wikiDataId": null
  },
  {
    "id": 98315,
    "name": "Donskoye",
    "state_id": 1889,
    "state_code": "LIP",
    "country_id": 182,
    "country_code": "RU",
    "latitude": "52.61740000",
    "longitude": "38.97380000",
    "wikiDataId": null
  },
  {
    "id": 98596,
    "name": "Gryazi",
    "state_id": 1889,
    "state_code": "LIP",
    "country_id": 182,
    "country_code": "RU",
    "latitude": "52.49657000",
    "longitude": "39.93593000",
    "wikiDataId": null
  },
  {
    "id": 98597,
    "name": "Gryazinskiy Rayon",
    "state_id": 1889,
    "state_code": "LIP",
    "country_id": 182,
    "country_code": "RU",
    "latitude": "52.50000000",
    "longitude": "39.91667000",
    "wikiDataId": null
  },
  {
    "id": 98751,
    "name": "Izmalkovo",
    "state_id": 1889,
    "state_code": "LIP",
    "country_id": 182,
    "country_code": "RU",
    "latitude": "52.68870000",
    "longitude": "37.96398000",
    "wikiDataId": null
  },
  {
    "id": 98752,
    "name": "Izmalkovskiy Rayon",
    "state_id": 1889,
    "state_code": "LIP",
    "country_id": 182,
    "country_code": "RU",
    "latitude": "52.66667000",
    "longitude": "38.00000000",
    "wikiDataId": null
  },
  {
    "id": 98784,
    "name": "Kalikino",
    "state_id": 1889,
    "state_code": "LIP",
    "country_id": 182,
    "country_code": "RU",
    "latitude": "52.94930000",
    "longitude": "39.82690000",
    "wikiDataId": null
  },
  {
    "id": 98925,
    "name": "Kazaki",
    "state_id": 1889,
    "state_code": "LIP",
    "country_id": 182,
    "country_code": "RU",
    "latitude": "52.62484000",
    "longitude": "38.26488000",
    "wikiDataId": null
  },
  {
    "id": 98932,
    "name": "Kazinka",
    "state_id": 1889,
    "state_code": "LIP",
    "country_id": 182,
    "country_code": "RU",
    "latitude": "52.53817000",
    "longitude": "39.82164000",
    "wikiDataId": null
  },
  {
    "id": 98986,
    "name": "Khlevenskiy Rayon",
    "state_id": 1889,
    "state_code": "LIP",
    "country_id": 182,
    "country_code": "RU",
    "latitude": "52.16667000",
    "longitude": "39.08333000",
    "wikiDataId": null
  },
  {
    "id": 98987,
    "name": "Khlevnoye",
    "state_id": 1889,
    "state_code": "LIP",
    "country_id": 182,
    "country_code": "RU",
    "latitude": "52.19512000",
    "longitude": "39.09316000",
    "wikiDataId": null
  },
  {
    "id": 99289,
    "name": "Krasninskiy Rayon",
    "state_id": 1889,
    "state_code": "LIP",
    "country_id": 182,
    "country_code": "RU",
    "latitude": "52.83333000",
    "longitude": "38.75000000",
    "wikiDataId": null
  },
  {
    "id": 99349,
    "name": "Krasnoye",
    "state_id": 1889,
    "state_code": "LIP",
    "country_id": 182,
    "country_code": "RU",
    "latitude": "52.86449000",
    "longitude": "38.79353000",
    "wikiDataId": null
  },
  {
    "id": 99512,
    "name": "Kuz’minskiye Otverzhki",
    "state_id": 1889,
    "state_code": "LIP",
    "country_id": 182,
    "country_code": "RU",
    "latitude": "52.69574000",
    "longitude": "39.47036000",
    "wikiDataId": null
  },
  {
    "id": 99554,
    "name": "Lebedyan’",
    "state_id": 1889,
    "state_code": "LIP",
    "country_id": 182,
    "country_code": "RU",
    "latitude": "53.01942000",
    "longitude": "39.16639000",
    "wikiDataId": null
  },
  {
    "id": 99553,
    "name": "Lebedyanskiy Rayon",
    "state_id": 1889,
    "state_code": "LIP",
    "country_id": 182,
    "country_code": "RU",
    "latitude": "53.00000000",
    "longitude": "39.16667000",
    "wikiDataId": null
  },
  {
    "id": 99609,
    "name": "Lev Tolstoy",
    "state_id": 1889,
    "state_code": "LIP",
    "country_id": 182,
    "country_code": "RU",
    "latitude": "53.21344000",
    "longitude": "39.44604000",
    "wikiDataId": null
  },
  {
    "id": 99610,
    "name": "Lev-Tolstovskiy Rayon",
    "state_id": 1889,
    "state_code": "LIP",
    "country_id": 182,
    "country_code": "RU",
    "latitude": "53.25000000",
    "longitude": "39.50000000",
    "wikiDataId": null
  },
  {
    "id": 99632,
    "name": "Lipetsk",
    "state_id": 1889,
    "state_code": "LIP",
    "country_id": 182,
    "country_code": "RU",
    "latitude": "52.60311000",
    "longitude": "39.57076000",
    "wikiDataId": null
  },
  {
    "id": 99633,
    "name": "Lipetskiy Rayon",
    "state_id": 1889,
    "state_code": "LIP",
    "country_id": 182,
    "country_code": "RU",
    "latitude": "52.58333000",
    "longitude": "39.58333000",
    "wikiDataId": null
  },
  {
    "id": 100664,
    "name": "Petrovskiy",
    "state_id": 1889,
    "state_code": "LIP",
    "country_id": 182,
    "country_code": "RU",
    "latitude": "52.24159000",
    "longitude": "40.64976000",
    "wikiDataId": null
  },
  {
    "id": 100700,
    "name": "Plekhanovo",
    "state_id": 1889,
    "state_code": "LIP",
    "country_id": 182,
    "country_code": "RU",
    "latitude": "52.63822000",
    "longitude": "39.84729000",
    "wikiDataId": null
  },
  {
    "id": 100819,
    "name": "Prigorodka",
    "state_id": 1889,
    "state_code": "LIP",
    "country_id": 182,
    "country_code": "RU",
    "latitude": "52.04472000",
    "longitude": "39.71238000",
    "wikiDataId": null
  },
  {
    "id": 101552,
    "name": "Stanovlyanskiy Rayon",
    "state_id": 1889,
    "state_code": "LIP",
    "country_id": 182,
    "country_code": "RU",
    "latitude": "52.83333000",
    "longitude": "38.33333000",
    "wikiDataId": null
  },
  {
    "id": 101553,
    "name": "Stanovoye",
    "state_id": 1889,
    "state_code": "LIP",
    "country_id": 182,
    "country_code": "RU",
    "latitude": "52.76384000",
    "longitude": "38.35818000",
    "wikiDataId": null
  },
  {
    "id": 101730,
    "name": "Syrskoye",
    "state_id": 1889,
    "state_code": "LIP",
    "country_id": 182,
    "country_code": "RU",
    "latitude": "52.57437000",
    "longitude": "39.49660000",
    "wikiDataId": null
  },
  {
    "id": 101825,
    "name": "Terbunskiy Rayon",
    "state_id": 1889,
    "state_code": "LIP",
    "country_id": 182,
    "country_code": "RU",
    "latitude": "52.16667000",
    "longitude": "38.25000000",
    "wikiDataId": null
  },
  {
    "id": 101826,
    "name": "Terbuny",
    "state_id": 1889,
    "state_code": "LIP",
    "country_id": 182,
    "country_code": "RU",
    "latitude": "52.14930000",
    "longitude": "38.28340000",
    "wikiDataId": null
  },
  {
    "id": 102099,
    "name": "Usman’",
    "state_id": 1889,
    "state_code": "LIP",
    "country_id": 182,
    "country_code": "RU",
    "latitude": "52.04662000",
    "longitude": "39.72880000",
    "wikiDataId": null
  },
  {
    "id": 102098,
    "name": "Usmanskiy Rayon",
    "state_id": 1889,
    "state_code": "LIP",
    "country_id": 182,
    "country_code": "RU",
    "latitude": "52.00000000",
    "longitude": "39.75000000",
    "wikiDataId": null
  },
  {
    "id": 102365,
    "name": "Volovo",
    "state_id": 1889,
    "state_code": "LIP",
    "country_id": 182,
    "country_code": "RU",
    "latitude": "52.02659000",
    "longitude": "37.88540000",
    "wikiDataId": null
  },
  {
    "id": 102367,
    "name": "Volovskiy Rayon",
    "state_id": 1889,
    "state_code": "LIP",
    "country_id": 182,
    "country_code": "RU",
    "latitude": "52.00000000",
    "longitude": "37.91667000",
    "wikiDataId": null
  },
  {
    "id": 102538,
    "name": "Yelets",
    "state_id": 1889,
    "state_code": "LIP",
    "country_id": 182,
    "country_code": "RU",
    "latitude": "52.62366000",
    "longitude": "38.50169000",
    "wikiDataId": null
  },
  {
    "id": 102539,
    "name": "Yeletskiy Rayon",
    "state_id": 1889,
    "state_code": "LIP",
    "country_id": 182,
    "country_code": "RU",
    "latitude": "52.58333000",
    "longitude": "38.50000000",
    "wikiDataId": null
  },
  {
    "id": 102626,
    "name": "Zadonsk",
    "state_id": 1889,
    "state_code": "LIP",
    "country_id": 182,
    "country_code": "RU",
    "latitude": "52.39040000",
    "longitude": "38.92610000",
    "wikiDataId": null
  },
  {
    "id": 102627,
    "name": "Zadonskiy Rayon",
    "state_id": 1889,
    "state_code": "LIP",
    "country_id": 182,
    "country_code": "RU",
    "latitude": "52.41667000",
    "longitude": "38.91667000",
    "wikiDataId": null
  }
]