[
  {
    "id": 56326,
    "name": "Kabupaten Banggai",
    "state_id": 1813,
    "state_code": "ST",
    "country_id": 102,
    "country_code": "ID",
    "latitude": "-0.91141000",
    "longitude": "122.71836000",
    "wikiDataId": null
  },
  {
    "id": 56327,
    "name": "Kabupaten Banggai Kepulauan",
    "state_id": 1813,
    "state_code": "ST",
    "country_id": 102,
    "country_code": "ID",
    "latitude": "-1.30236000",
    "longitude": "123.03726000",
    "wikiDataId": null
  },
  {
    "id": 56328,
    "name": "Kabupaten Banggai Laut",
    "state_id": 1813,
    "state_code": "ST",
    "country_id": 102,
    "country_code": "ID",
    "latitude": "-1.61841000",
    "longitude": "123.49388000",
    "wikiDataId": null
  },
  {
    "id": 56383,
    "name": "Kabupaten Buol",
    "state_id": 1813,
    "state_code": "ST",
    "country_id": 102,
    "country_code": "ID",
    "latitude": "1.04656000",
    "longitude": "121.36867000",
    "wikiDataId": null
  },
  {
    "id": 56401,
    "name": "Kabupaten Donggala",
    "state_id": 1813,
    "state_code": "ST",
    "country_id": 102,
    "country_code": "ID",
    "latitude": "-0.58333000",
    "longitude": "119.85000000",
    "wikiDataId": null
  },
  {
    "id": 56541,
    "name": "Kabupaten Morowali Utara",
    "state_id": 1813,
    "state_code": "ST",
    "country_id": 102,
    "country_code": "ID",
    "latitude": "-1.72070000",
    "longitude": "121.24649000",
    "wikiDataId": null
  },
  {
    "id": 56578,
    "name": "Kabupaten Parigi Moutong",
    "state_id": 1813,
    "state_code": "ST",
    "country_id": 102,
    "country_code": "ID",
    "latitude": "0.33680000",
    "longitude": "120.17841000",
    "wikiDataId": null
  },
  {
    "id": 56598,
    "name": "Kabupaten Poso",
    "state_id": 1813,
    "state_code": "ST",
    "country_id": 102,
    "country_code": "ID",
    "latitude": "-1.65000000",
    "longitude": "120.50000000",
    "wikiDataId": null
  },
  {
    "id": 56630,
    "name": "Kabupaten Sigi",
    "state_id": 1813,
    "state_code": "ST",
    "country_id": 102,
    "country_code": "ID",
    "latitude": "-1.38500000",
    "longitude": "119.96694000",
    "wikiDataId": null
  },
  {
    "id": 56682,
    "name": "Kabupaten Toli-Toli",
    "state_id": 1813,
    "state_code": "ST",
    "country_id": 102,
    "country_code": "ID",
    "latitude": "1.30862000",
    "longitude": "120.88643000",
    "wikiDataId": null
  },
  {
    "id": 56849,
    "name": "Luwuk",
    "state_id": 1813,
    "state_code": "ST",
    "country_id": 102,
    "country_code": "ID",
    "latitude": "-0.95160000",
    "longitude": "122.78750000",
    "wikiDataId": null
  },
  {
    "id": 56876,
    "name": "Morowali Regency",
    "state_id": 1813,
    "state_code": "ST",
    "country_id": 102,
    "country_code": "ID",
    "latitude": "-2.76062000",
    "longitude": "121.95267000",
    "wikiDataId": null
  },
  {
    "id": 56901,
    "name": "Palu",
    "state_id": 1813,
    "state_code": "ST",
    "country_id": 102,
    "country_code": "ID",
    "latitude": "-0.90833000",
    "longitude": "119.87083000",
    "wikiDataId": null
  },
  {
    "id": 56937,
    "name": "Poso",
    "state_id": 1813,
    "state_code": "ST",
    "country_id": 102,
    "country_code": "ID",
    "latitude": "-1.39590000",
    "longitude": "120.75240000",
    "wikiDataId": null
  },
  {
    "id": 57034,
    "name": "Tojo Una-Una Regency",
    "state_id": 1813,
    "state_code": "ST",
    "country_id": 102,
    "country_code": "ID",
    "latitude": "-1.20360000",
    "longitude": "121.48201000",
    "wikiDataId": null
  }
]