[
  {
    "id": 135252,
    "name": "Accumoli",
    "state_id": 1678,
    "state_code": "62",
    "country_id": 107,
    "country_code": "IT",
    "latitude": "42.69476000",
    "longitude": "13.24761000",
    "wikiDataId": null
  },
  {
    "id": 135261,
    "name": "Acilia-Castel Fusano-Ostia Antica",
    "state_id": 1678,
    "state_code": "62",
    "country_id": 107,
    "country_code": "IT",
    "latitude": "41.76337000",
    "longitude": "12.33078000",
    "wikiDataId": null
  },
  {
    "id": 135264,
    "name": "Acquafondata",
    "state_id": 1678,
    "state_code": "62",
    "country_id": 107,
    "country_code": "IT",
    "latitude": "41.54282000",
    "longitude": "13.95281000",
    "wikiDataId": null
  },
  {
    "id": 135270,
    "name": "Acquapendente",
    "state_id": 1678,
    "state_code": "62",
    "country_id": 107,
    "country_code": "IT",
    "latitude": "42.74259000",
    "longitude": "11.86827000",
    "wikiDataId": null
  },
  {
    "id": 135285,
    "name": "Acuto",
    "state_id": 1678,
    "state_code": "62",
    "country_id": 107,
    "country_code": "IT",
    "latitude": "41.79107000",
    "longitude": "13.17446000",
    "wikiDataId": null
  },
  {
    "id": 135293,
    "name": "Affile",
    "state_id": 1678,
    "state_code": "62",
    "country_id": 107,
    "country_code": "IT",
    "latitude": "41.88435000",
    "longitude": "13.09853000",
    "wikiDataId": null
  },
  {
    "id": 135313,
    "name": "Agosta",
    "state_id": 1678,
    "state_code": "62",
    "country_id": 107,
    "country_code": "IT",
    "latitude": "41.98133000",
    "longitude": "13.03499000",
    "wikiDataId": null
  },
  {
    "id": 135345,
    "name": "Alatri",
    "state_id": 1678,
    "state_code": "62",
    "country_id": 107,
    "country_code": "IT",
    "latitude": "41.73187000",
    "longitude": "13.34120000",
    "wikiDataId": null
  },
  {
    "id": 135351,
    "name": "Albano Laziale",
    "state_id": 1678,
    "state_code": "62",
    "country_id": 107,
    "country_code": "IT",
    "latitude": "41.72748000",
    "longitude": "12.65900000",
    "wikiDataId": null
  },
  {
    "id": 135386,
    "name": "Albuccione",
    "state_id": 1678,
    "state_code": "62",
    "country_id": 107,
    "country_code": "IT",
    "latitude": "41.95245000",
    "longitude": "12.69873000",
    "wikiDataId": null
  },
  {
    "id": 135419,
    "name": "Allumiere",
    "state_id": 1678,
    "state_code": "62",
    "country_id": 107,
    "country_code": "IT",
    "latitude": "42.15751000",
    "longitude": "11.90361000",
    "wikiDataId": null
  },
  {
    "id": 135449,
    "name": "Alvito",
    "state_id": 1678,
    "state_code": "62",
    "country_id": 107,
    "country_code": "IT",
    "latitude": "41.69002000",
    "longitude": "13.74795000",
    "wikiDataId": null
  },
  {
    "id": 135461,
    "name": "Amaseno",
    "state_id": 1678,
    "state_code": "62",
    "country_id": 107,
    "country_code": "IT",
    "latitude": "41.46705000",
    "longitude": "13.33457000",
    "wikiDataId": null
  },
  {
    "id": 135463,
    "name": "Amatrice",
    "state_id": 1678,
    "state_code": "62",
    "country_id": 107,
    "country_code": "IT",
    "latitude": "42.62664000",
    "longitude": "13.29509000",
    "wikiDataId": null
  },
  {
    "id": 135476,
    "name": "Anagni",
    "state_id": 1678,
    "state_code": "62",
    "country_id": 107,
    "country_code": "IT",
    "latitude": "41.74350000",
    "longitude": "13.15542000",
    "wikiDataId": null
  },
  {
    "id": 135502,
    "name": "Anguillara Sabazia",
    "state_id": 1678,
    "state_code": "62",
    "country_id": 107,
    "country_code": "IT",
    "latitude": "42.07920000",
    "longitude": "12.28368000",
    "wikiDataId": null
  },
  {
    "id": 135504,
    "name": "Anitrella-Chiaiamari",
    "state_id": 1678,
    "state_code": "62",
    "country_id": 107,
    "country_code": "IT",
    "latitude": "41.63825000",
    "longitude": "13.54835000",
    "wikiDataId": null
  },
  {
    "id": 135517,
    "name": "Anticoli Corrado",
    "state_id": 1678,
    "state_code": "62",
    "country_id": 107,
    "country_code": "IT",
    "latitude": "42.00801000",
    "longitude": "12.99049000",
    "wikiDataId": null
  },
  {
    "id": 135521,
    "name": "Antrodoco",
    "state_id": 1678,
    "state_code": "62",
    "country_id": 107,
    "country_code": "IT",
    "latitude": "42.41498000",
    "longitude": "13.07673000",
    "wikiDataId": null
  },
  {
    "id": 135527,
    "name": "Anzio",
    "state_id": 1678,
    "state_code": "62",
    "country_id": 107,
    "country_code": "IT",
    "latitude": "41.45263000",
    "longitude": "12.62157000",
    "wikiDataId": null
  },
  {
    "id": 135542,
    "name": "Aprilia",
    "state_id": 1678,
    "state_code": "62",
    "country_id": 107,
    "country_code": "IT",
    "latitude": "41.59452000",
    "longitude": "12.65419000",
    "wikiDataId": null
  },
  {
    "id": 135547,
    "name": "Aquino",
    "state_id": 1678,
    "state_code": "62",
    "country_id": 107,
    "country_code": "IT",
    "latitude": "41.49388000",
    "longitude": "13.70520000",
    "wikiDataId": null
  },
  {
    "id": 135548,
    "name": "Ara Nova",
    "state_id": 1678,
    "state_code": "62",
    "country_id": 107,
    "country_code": "IT",
    "latitude": "41.93300000",
    "longitude": "12.23980000",
    "wikiDataId": null
  },
  {
    "id": 135561,
    "name": "Arce",
    "state_id": 1678,
    "state_code": "62",
    "country_id": 107,
    "country_code": "IT",
    "latitude": "41.57787000",
    "longitude": "13.58571000",
    "wikiDataId": null
  },
  {
    "id": 135566,
    "name": "Arci-Empolitana",
    "state_id": 1678,
    "state_code": "62",
    "country_id": 107,
    "country_code": "IT",
    "latitude": "41.94766000",
    "longitude": "12.82502000",
    "wikiDataId": null
  },
  {
    "id": 135568,
    "name": "Arcinazzo Romano",
    "state_id": 1678,
    "state_code": "62",
    "country_id": 107,
    "country_code": "IT",
    "latitude": "41.87972000",
    "longitude": "13.11439000",
    "wikiDataId": null
  },
  {
    "id": 135578,
    "name": "Ardea",
    "state_id": 1678,
    "state_code": "62",
    "country_id": 107,
    "country_code": "IT",
    "latitude": "41.60742000",
    "longitude": "12.54158000",
    "wikiDataId": null
  },
  {
    "id": 135584,
    "name": "Area Produttiva",
    "state_id": 1678,
    "state_code": "62",
    "country_id": 107,
    "country_code": "IT",
    "latitude": "41.68211000",
    "longitude": "12.50697000",
    "wikiDataId": null
  },
  {
    "id": 135601,
    "name": "Ariccia",
    "state_id": 1678,
    "state_code": "62",
    "country_id": 107,
    "country_code": "IT",
    "latitude": "41.72063000",
    "longitude": "12.67230000",
    "wikiDataId": null
  },
  {
    "id": 135610,
    "name": "Arlena di Castro",
    "state_id": 1678,
    "state_code": "62",
    "country_id": 107,
    "country_code": "IT",
    "latitude": "42.46559000",
    "longitude": "11.82090000",
    "wikiDataId": null
  },
  {
    "id": 135615,
    "name": "Armetta",
    "state_id": 1678,
    "state_code": "62",
    "country_id": 107,
    "country_code": "IT",
    "latitude": "41.81280000",
    "longitude": "12.68782000",
    "wikiDataId": null
  },
  {
    "id": 135619,
    "name": "Arnara",
    "state_id": 1678,
    "state_code": "62",
    "country_id": 107,
    "country_code": "IT",
    "latitude": "41.58452000",
    "longitude": "13.38840000",
    "wikiDataId": null
  },
  {
    "id": 135628,
    "name": "Arpino",
    "state_id": 1678,
    "state_code": "62",
    "country_id": 107,
    "country_code": "IT",
    "latitude": "41.64705000",
    "longitude": "13.61155000",
    "wikiDataId": null
  },
  {
    "id": 135640,
    "name": "Arsoli",
    "state_id": 1678,
    "state_code": "62",
    "country_id": 107,
    "country_code": "IT",
    "latitude": "42.04158000",
    "longitude": "13.01606000",
    "wikiDataId": null
  },
  {
    "id": 135643,
    "name": "Artena",
    "state_id": 1678,
    "state_code": "62",
    "country_id": 107,
    "country_code": "IT",
    "latitude": "41.74126000",
    "longitude": "12.90667000",
    "wikiDataId": null
  },
  {
    "id": 135657,
    "name": "Ascrea",
    "state_id": 1678,
    "state_code": "62",
    "country_id": 107,
    "country_code": "IT",
    "latitude": "42.19763000",
    "longitude": "12.99457000",
    "wikiDataId": null
  },
  {
    "id": 135676,
    "name": "Atina",
    "state_id": 1678,
    "state_code": "62",
    "country_id": 107,
    "country_code": "IT",
    "latitude": "41.62004000",
    "longitude": "13.79905000",
    "wikiDataId": null
  },
  {
    "id": 135677,
    "name": "Atina Inferiore",
    "state_id": 1678,
    "state_code": "62",
    "country_id": 107,
    "country_code": "IT",
    "latitude": "41.62705000",
    "longitude": "13.79258000",
    "wikiDataId": null
  },
  {
    "id": 135689,
    "name": "Aurelia",
    "state_id": 1678,
    "state_code": "62",
    "country_id": 107,
    "country_code": "IT",
    "latitude": "42.13910000",
    "longitude": "11.78713000",
    "wikiDataId": null
  },
  {
    "id": 135694,
    "name": "Ausonia",
    "state_id": 1678,
    "state_code": "62",
    "country_id": 107,
    "country_code": "IT",
    "latitude": "41.35808000",
    "longitude": "13.74983000",
    "wikiDataId": null
  },
  {
    "id": 135758,
    "name": "Bagni di Tivoli",
    "state_id": 1678,
    "state_code": "62",
    "country_id": 107,
    "country_code": "IT",
    "latitude": "41.95000000",
    "longitude": "12.71667000",
    "wikiDataId": null
  },
  {
    "id": 135775,
    "name": "Bagnoregio",
    "state_id": 1678,
    "state_code": "62",
    "country_id": 107,
    "country_code": "IT",
    "latitude": "42.62845000",
    "longitude": "12.08969000",
    "wikiDataId": null
  },
  {
    "id": 135820,
    "name": "Barbarano Romano",
    "state_id": 1678,
    "state_code": "62",
    "country_id": 107,
    "country_code": "IT",
    "latitude": "42.24908000",
    "longitude": "12.06774000",
    "wikiDataId": null
  },
  {
    "id": 135894,
    "name": "Bassano in Teverina",
    "state_id": 1678,
    "state_code": "62",
    "country_id": 107,
    "country_code": "IT",
    "latitude": "42.46444000",
    "longitude": "12.30752000",
    "wikiDataId": null
  },
  {
    "id": 135892,
    "name": "Bassano Romano",
    "state_id": 1678,
    "state_code": "62",
    "country_id": 107,
    "country_code": "IT",
    "latitude": "42.22228000",
    "longitude": "12.18785000",
    "wikiDataId": null
  },
  {
    "id": 135895,
    "name": "Bassiano",
    "state_id": 1678,
    "state_code": "62",
    "country_id": 107,
    "country_code": "IT",
    "latitude": "41.55154000",
    "longitude": "13.02732000",
    "wikiDataId": null
  },
  {
    "id": 135935,
    "name": "Bella Farnia",
    "state_id": 1678,
    "state_code": "62",
    "country_id": 107,
    "country_code": "IT",
    "latitude": "41.36780000",
    "longitude": "12.97602000",
    "wikiDataId": null
  },
  {
    "id": 135942,
    "name": "Bellegra",
    "state_id": 1678,
    "state_code": "62",
    "country_id": 107,
    "country_code": "IT",
    "latitude": "41.88166000",
    "longitude": "13.02861000",
    "wikiDataId": null
  },
  {
    "id": 135952,
    "name": "Belmonte Castello",
    "state_id": 1678,
    "state_code": "62",
    "country_id": 107,
    "country_code": "IT",
    "latitude": "41.57742000",
    "longitude": "13.81581000",
    "wikiDataId": null
  },
  {
    "id": 135956,
    "name": "Belmonte in Sabina",
    "state_id": 1678,
    "state_code": "62",
    "country_id": 107,
    "country_code": "IT",
    "latitude": "42.31482000",
    "longitude": "12.89178000",
    "wikiDataId": null
  },
  {
    "id": 136074,
    "name": "Bivio di Capanelle",
    "state_id": 1678,
    "state_code": "62",
    "country_id": 107,
    "country_code": "IT",
    "latitude": "42.11962000",
    "longitude": "12.59395000",
    "wikiDataId": null
  },
  {
    "id": 136072,
    "name": "Bivio San Polo",
    "state_id": 1678,
    "state_code": "62",
    "country_id": 107,
    "country_code": "IT",
    "latitude": "41.97418000",
    "longitude": "12.82993000",
    "wikiDataId": null
  },
  {
    "id": 136080,
    "name": "Blera",
    "state_id": 1678,
    "state_code": "62",
    "country_id": 107,
    "country_code": "IT",
    "latitude": "42.27293000",
    "longitude": "12.03016000",
    "wikiDataId": null
  },
  {
    "id": 136113,
    "name": "Bolsena",
    "state_id": 1678,
    "state_code": "62",
    "country_id": 107,
    "country_code": "IT",
    "latitude": "42.64326000",
    "longitude": "11.98514000",
    "wikiDataId": null
  },
  {
    "id": 136118,
    "name": "Bomarzo",
    "state_id": 1678,
    "state_code": "62",
    "country_id": 107,
    "country_code": "IT",
    "latitude": "42.48273000",
    "longitude": "12.25037000",
    "wikiDataId": null
  },
  {
    "id": 136145,
    "name": "Borbona",
    "state_id": 1678,
    "state_code": "62",
    "country_id": 107,
    "country_code": "IT",
    "latitude": "42.50939000",
    "longitude": "13.13206000",
    "wikiDataId": null
  },
  {
    "id": 136172,
    "name": "Borgo Grappa",
    "state_id": 1678,
    "state_code": "62",
    "country_id": 107,
    "country_code": "IT",
    "latitude": "41.40212000",
    "longitude": "12.96053000",
    "wikiDataId": null
  },
  {
    "id": 136173,
    "name": "Borgo Hermada",
    "state_id": 1678,
    "state_code": "62",
    "country_id": 107,
    "country_code": "IT",
    "latitude": "41.30559000",
    "longitude": "13.17235000",
    "wikiDataId": null
  },
  {
    "id": 136174,
    "name": "Borgo Lotti",
    "state_id": 1678,
    "state_code": "62",
    "country_id": 107,
    "country_code": "IT",
    "latitude": "41.76414000",
    "longitude": "12.55500000",
    "wikiDataId": null
  },
  {
    "id": 136178,
    "name": "Borgo Podgora",
    "state_id": 1678,
    "state_code": "62",
    "country_id": 107,
    "country_code": "IT",
    "latitude": "41.51462000",
    "longitude": "12.85383000",
    "wikiDataId": null
  },
  {
    "id": 136180,
    "name": "Borgo Sabotino-Foce Verde",
    "state_id": 1678,
    "state_code": "62",
    "country_id": 107,
    "country_code": "IT",
    "latitude": "41.41667000",
    "longitude": "12.83333000",
    "wikiDataId": null
  },
  {
    "id": 136186,
    "name": "Borgo San Michele",
    "state_id": 1678,
    "state_code": "62",
    "country_id": 107,
    "country_code": "IT",
    "latitude": "41.43828000",
    "longitude": "12.97351000",
    "wikiDataId": null
  },
  {
    "id": 136195,
    "name": "Borgo Velino",
    "state_id": 1678,
    "state_code": "62",
    "country_id": 107,
    "country_code": "IT",
    "latitude": "42.40508000",
    "longitude": "13.05650000",
    "wikiDataId": null
  },
  {
    "id": 136216,
    "name": "Borgorose",
    "state_id": 1678,
    "state_code": "62",
    "country_id": 107,
    "country_code": "IT",
    "latitude": "42.19077000",
    "longitude": "13.23282000",
    "wikiDataId": null
  },
  {
    "id": 136271,
    "name": "Boville Ernica",
    "state_id": 1678,
    "state_code": "62",
    "country_id": 107,
    "country_code": "IT",
    "latitude": "41.64252000",
    "longitude": "13.47270000",
    "wikiDataId": null
  },
  {
    "id": 136281,
    "name": "Bracciano",
    "state_id": 1678,
    "state_code": "62",
    "country_id": 107,
    "country_code": "IT",
    "latitude": "42.10271000",
    "longitude": "12.16565000",
    "wikiDataId": null
  },
  {
    "id": 136345,
    "name": "Broccostella",
    "state_id": 1678,
    "state_code": "62",
    "country_id": 107,
    "country_code": "IT",
    "latitude": "41.69972000",
    "longitude": "13.63531000",
    "wikiDataId": null
  },
  {
    "id": 136480,
    "name": "Caira",
    "state_id": 1678,
    "state_code": "62",
    "country_id": 107,
    "country_code": "IT",
    "latitude": "41.53333000",
    "longitude": "13.81667000",
    "wikiDataId": null
  },
  {
    "id": 136500,
    "name": "Calcata Nuova",
    "state_id": 1678,
    "state_code": "62",
    "country_id": 107,
    "country_code": "IT",
    "latitude": "42.21952000",
    "longitude": "12.42617000",
    "wikiDataId": null
  },
  {
    "id": 136581,
    "name": "Camerata Nuova",
    "state_id": 1678,
    "state_code": "62",
    "country_id": 107,
    "country_code": "IT",
    "latitude": "42.01800000",
    "longitude": "13.10970000",
    "wikiDataId": null
  },
  {
    "id": 136587,
    "name": "Camilleri-Vallelata",
    "state_id": 1678,
    "state_code": "62",
    "country_id": 107,
    "country_code": "IT",
    "latitude": "41.59848000",
    "longitude": "12.61738000",
    "wikiDataId": null
  },
  {
    "id": 136601,
    "name": "Campagnano di Roma",
    "state_id": 1678,
    "state_code": "62",
    "country_id": 107,
    "country_code": "IT",
    "latitude": "42.13570000",
    "longitude": "12.37358000",
    "wikiDataId": null
  },
  {
    "id": 136634,
    "name": "Campo di Carne",
    "state_id": 1678,
    "state_code": "62",
    "country_id": 107,
    "country_code": "IT",
    "latitude": "41.55265000",
    "longitude": "12.64114000",
    "wikiDataId": null
  },
  {
    "id": 136628,
    "name": "Campo Jemini",
    "state_id": 1678,
    "state_code": "62",
    "country_id": 107,
    "country_code": "IT",
    "latitude": "41.62716000",
    "longitude": "12.51258000",
    "wikiDataId": null
  },
  {
    "id": 136630,
    "name": "Campo Limpido-Favale",
    "state_id": 1678,
    "state_code": "62",
    "country_id": 107,
    "country_code": "IT",
    "latitude": "41.96732000",
    "longitude": "12.77016000",
    "wikiDataId": null
  },
  {
    "id": 136646,
    "name": "Campodimele",
    "state_id": 1678,
    "state_code": "62",
    "country_id": 107,
    "country_code": "IT",
    "latitude": "41.38822000",
    "longitude": "13.53081000",
    "wikiDataId": null
  },
  {
    "id": 136659,
    "name": "Campoleone",
    "state_id": 1678,
    "state_code": "62",
    "country_id": 107,
    "country_code": "IT",
    "latitude": "41.64570000",
    "longitude": "12.64826000",
    "wikiDataId": null
  },
  {
    "id": 136660,
    "name": "Campoli Appennino",
    "state_id": 1678,
    "state_code": "62",
    "country_id": 107,
    "country_code": "IT",
    "latitude": "41.73539000",
    "longitude": "13.68326000",
    "wikiDataId": null
  },
  {
    "id": 136688,
    "name": "Canale Monterano",
    "state_id": 1678,
    "state_code": "62",
    "country_id": 107,
    "country_code": "IT",
    "latitude": "42.13598000",
    "longitude": "12.10284000",
    "wikiDataId": null
  },
  {
    "id": 136709,
    "name": "Canepina",
    "state_id": 1678,
    "state_code": "62",
    "country_id": 107,
    "country_code": "IT",
    "latitude": "42.38315000",
    "longitude": "12.23179000",
    "wikiDataId": null
  },
  {
    "id": 136714,
    "name": "Canino",
    "state_id": 1678,
    "state_code": "62",
    "country_id": 107,
    "country_code": "IT",
    "latitude": "42.46592000",
    "longitude": "11.75294000",
    "wikiDataId": null
  },
  {
    "id": 136739,
    "name": "Cantalice",
    "state_id": 1678,
    "state_code": "62",
    "country_id": 107,
    "country_code": "IT",
    "latitude": "42.46458000",
    "longitude": "12.90461000",
    "wikiDataId": null
  },
  {
    "id": 136743,
    "name": "Cantalupo in Sabina",
    "state_id": 1678,
    "state_code": "62",
    "country_id": 107,
    "country_code": "IT",
    "latitude": "42.30689000",
    "longitude": "12.64513000",
    "wikiDataId": null
  },
  {
    "id": 136747,
    "name": "Canterano",
    "state_id": 1678,
    "state_code": "62",
    "country_id": 107,
    "country_code": "IT",
    "latitude": "41.94322000",
    "longitude": "13.03809000",
    "wikiDataId": null
  },
  {
    "id": 136763,
    "name": "Capena",
    "state_id": 1678,
    "state_code": "62",
    "country_id": 107,
    "country_code": "IT",
    "latitude": "42.14247000",
    "longitude": "12.54513000",
    "wikiDataId": null
  },
  {
    "id": 136781,
    "name": "Capodimonte",
    "state_id": 1678,
    "state_code": "62",
    "country_id": 107,
    "country_code": "IT",
    "latitude": "42.54780000",
    "longitude": "11.90657000",
    "wikiDataId": null
  },
  {
    "id": 136801,
    "name": "Capranica",
    "state_id": 1678,
    "state_code": "62",
    "country_id": 107,
    "country_code": "IT",
    "latitude": "42.25849000",
    "longitude": "12.17278000",
    "wikiDataId": null
  },
  {
    "id": 136802,
    "name": "Capranica Prenestina",
    "state_id": 1678,
    "state_code": "62",
    "country_id": 107,
    "country_code": "IT",
    "latitude": "41.86285000",
    "longitude": "12.95077000",
    "wikiDataId": null
  },
  {
    "id": 136805,
    "name": "Caprarola",
    "state_id": 1678,
    "state_code": "62",
    "country_id": 107,
    "country_code": "IT",
    "latitude": "42.32308000",
    "longitude": "12.23848000",
    "wikiDataId": null
  },
  {
    "id": 136844,
    "name": "Carbognano",
    "state_id": 1678,
    "state_code": "62",
    "country_id": 107,
    "country_code": "IT",
    "latitude": "42.33024000",
    "longitude": "12.26457000",
    "wikiDataId": null
  },
  {
    "id": 136855,
    "name": "Carchitti",
    "state_id": 1678,
    "state_code": "62",
    "country_id": 107,
    "country_code": "IT",
    "latitude": "41.78688000",
    "longitude": "12.82955000",
    "wikiDataId": null
  },
  {
    "id": 136918,
    "name": "Carpineto Romano",
    "state_id": 1678,
    "state_code": "62",
    "country_id": 107,
    "country_code": "IT",
    "latitude": "41.60470000",
    "longitude": "13.08410000",
    "wikiDataId": null
  },
  {
    "id": 136926,
    "name": "Carrara-Pontenuovo",
    "state_id": 1678,
    "state_code": "62",
    "country_id": 107,
    "country_code": "IT",
    "latitude": "41.54045000",
    "longitude": "12.95468000",
    "wikiDataId": null
  },
  {
    "id": 136937,
    "name": "Cartiera-Stazione",
    "state_id": 1678,
    "state_code": "62",
    "country_id": 107,
    "country_code": "IT",
    "latitude": "41.65642000",
    "longitude": "13.24086000",
    "wikiDataId": null
  },
  {
    "id": 136958,
    "name": "Casal Palocco",
    "state_id": 1678,
    "state_code": "62",
    "country_id": 107,
    "country_code": "IT",
    "latitude": "41.74845000",
    "longitude": "12.34726000",
    "wikiDataId": null
  },
  {
    "id": 136962,
    "name": "Casalattico",
    "state_id": 1678,
    "state_code": "62",
    "country_id": 107,
    "country_code": "IT",
    "latitude": "41.62213000",
    "longitude": "13.72563000",
    "wikiDataId": null
  },
  {
    "id": 136963,
    "name": "Casalazzara",
    "state_id": 1678,
    "state_code": "62",
    "country_id": 107,
    "country_code": "IT",
    "latitude": "41.62299000",
    "longitude": "12.57634000",
    "wikiDataId": null
  },
  {
    "id": 136993,
    "name": "Casali",
    "state_id": 1678,
    "state_code": "62",
    "country_id": 107,
    "country_code": "IT",
    "latitude": "41.37812000",
    "longitude": "13.75479000",
    "wikiDataId": null
  },
  {
    "id": 137012,
    "name": "Casalvieri",
    "state_id": 1678,
    "state_code": "62",
    "country_id": 107,
    "country_code": "IT",
    "latitude": "41.63329000",
    "longitude": "13.71363000",
    "wikiDataId": null
  },
  {
    "id": 137025,
    "name": "Casape",
    "state_id": 1678,
    "state_code": "62",
    "country_id": 107,
    "country_code": "IT",
    "latitude": "41.90702000",
    "longitude": "12.88579000",
    "wikiDataId": null
  },
  {
    "id": 137028,
    "name": "Casaprota",
    "state_id": 1678,
    "state_code": "62",
    "country_id": 107,
    "country_code": "IT",
    "latitude": "42.25177000",
    "longitude": "12.80428000",
    "wikiDataId": null
  },
  {
    "id": 137054,
    "name": "Case Campoli-Panetta",
    "state_id": 1678,
    "state_code": "62",
    "country_id": 107,
    "country_code": "IT",
    "latitude": "41.67296000",
    "longitude": "13.47170000",
    "wikiDataId": null
  },
  {
    "id": 137091,
    "name": "Casperia",
    "state_id": 1678,
    "state_code": "62",
    "country_id": 107,
    "country_code": "IT",
    "latitude": "42.33869000",
    "longitude": "12.67017000",
    "wikiDataId": null
  },
  {
    "id": 137112,
    "name": "Cassino",
    "state_id": 1678,
    "state_code": "62",
    "country_id": 107,
    "country_code": "IT",
    "latitude": "41.48581000",
    "longitude": "13.82835000",
    "wikiDataId": null
  },
  {
    "id": 137134,
    "name": "Castel Chiodato",
    "state_id": 1678,
    "state_code": "62",
    "country_id": 107,
    "country_code": "IT",
    "latitude": "42.05617000",
    "longitude": "12.69764000",
    "wikiDataId": null
  },
  {
    "id": 137175,
    "name": "Castel di Tora",
    "state_id": 1678,
    "state_code": "62",
    "country_id": 107,
    "country_code": "IT",
    "latitude": "42.21392000",
    "longitude": "12.97073000",
    "wikiDataId": null
  },
  {
    "id": 137137,
    "name": "Castel Fusano",
    "state_id": 1678,
    "state_code": "62",
    "country_id": 107,
    "country_code": "IT",
    "latitude": "41.74717000",
    "longitude": "12.31190000",
    "wikiDataId": null
  },
  {
    "id": 137139,
    "name": "Castel Gandolfo",
    "state_id": 1678,
    "state_code": "62",
    "country_id": 107,
    "country_code": "IT",
    "latitude": "41.74875000",
    "longitude": "12.64975000",
    "wikiDataId": null
  },
  {
    "id": 137143,
    "name": "Castel Madama",
    "state_id": 1678,
    "state_code": "62",
    "country_id": 107,
    "country_code": "IT",
    "latitude": "41.97350000",
    "longitude": "12.86782000",
    "wikiDataId": null
  },
  {
    "id": 137154,
    "name": "Castel San Pietro Romano",
    "state_id": 1678,
    "state_code": "62",
    "country_id": 107,
    "country_code": "IT",
    "latitude": "41.84572000",
    "longitude": "12.89489000",
    "wikiDataId": null
  },
  {
    "id": 137157,
    "name": "Castel Sant'Angelo",
    "state_id": 1678,
    "state_code": "62",
    "country_id": 107,
    "country_code": "IT",
    "latitude": "42.39373000",
    "longitude": "13.02738000",
    "wikiDataId": null
  },
  {
    "id": 137158,
    "name": "Castel Sant'Elia",
    "state_id": 1678,
    "state_code": "62",
    "country_id": 107,
    "country_code": "IT",
    "latitude": "42.25112000",
    "longitude": "12.37032000",
    "wikiDataId": null
  },
  {
    "id": 137195,
    "name": "Castelforte",
    "state_id": 1678,
    "state_code": "62",
    "country_id": 107,
    "country_code": "IT",
    "latitude": "41.29392000",
    "longitude": "13.83061000",
    "wikiDataId": null
  },
  {
    "id": 137250,
    "name": "Castelliri",
    "state_id": 1678,
    "state_code": "62",
    "country_id": 107,
    "country_code": "IT",
    "latitude": "41.67764000",
    "longitude": "13.53978000",
    "wikiDataId": null
  },
  {
    "id": 137271,
    "name": "Castelmassimo",
    "state_id": 1678,
    "state_code": "62",
    "country_id": 107,
    "country_code": "IT",
    "latitude": "41.66389000",
    "longitude": "13.38063000",
    "wikiDataId": null
  },
  {
    "id": 137301,
    "name": "Castelnuovo di Farfa",
    "state_id": 1678,
    "state_code": "62",
    "country_id": 107,
    "country_code": "IT",
    "latitude": "42.23193000",
    "longitude": "12.74308000",
    "wikiDataId": null
  },
  {
    "id": 137303,
    "name": "Castelnuovo di Porto",
    "state_id": 1678,
    "state_code": "62",
    "country_id": 107,
    "country_code": "IT",
    "latitude": "42.12280000",
    "longitude": "12.51043000",
    "wikiDataId": null
  },
  {
    "id": 137292,
    "name": "Castelnuovo Parano",
    "state_id": 1678,
    "state_code": "62",
    "country_id": 107,
    "country_code": "IT",
    "latitude": "41.37912000",
    "longitude": "13.75621000",
    "wikiDataId": null
  },
  {
    "id": 137358,
    "name": "Castiglione in Teverina",
    "state_id": 1678,
    "state_code": "62",
    "country_id": 107,
    "country_code": "IT",
    "latitude": "42.65076000",
    "longitude": "12.20305000",
    "wikiDataId": null
  },
  {
    "id": 137377,
    "name": "Castro dei Volsci",
    "state_id": 1678,
    "state_code": "62",
    "country_id": 107,
    "country_code": "IT",
    "latitude": "41.50822000",
    "longitude": "13.40630000",
    "wikiDataId": null
  },
  {
    "id": 137379,
    "name": "Castrocielo",
    "state_id": 1678,
    "state_code": "62",
    "country_id": 107,
    "country_code": "IT",
    "latitude": "41.52736000",
    "longitude": "13.69588000",
    "wikiDataId": null
  },
  {
    "id": 137430,
    "name": "Cave",
    "state_id": 1678,
    "state_code": "62",
    "country_id": 107,
    "country_code": "IT",
    "latitude": "41.81682000",
    "longitude": "12.94055000",
    "wikiDataId": null
  },
  {
    "id": 137450,
    "name": "Ceccano",
    "state_id": 1678,
    "state_code": "62",
    "country_id": 107,
    "country_code": "IT",
    "latitude": "41.57236000",
    "longitude": "13.32901000",
    "wikiDataId": null
  },
  {
    "id": 137451,
    "name": "Cecchina",
    "state_id": 1678,
    "state_code": "62",
    "country_id": 107,
    "country_code": "IT",
    "latitude": "41.70161000",
    "longitude": "12.64972000",
    "wikiDataId": null
  },
  {
    "id": 137477,
    "name": "Celleno",
    "state_id": 1678,
    "state_code": "62",
    "country_id": 107,
    "country_code": "IT",
    "latitude": "42.56039000",
    "longitude": "12.12442000",
    "wikiDataId": null
  },
  {
    "id": 137478,
    "name": "Cellere",
    "state_id": 1678,
    "state_code": "62",
    "country_id": 107,
    "country_code": "IT",
    "latitude": "42.51024000",
    "longitude": "11.77079000",
    "wikiDataId": null
  },
  {
    "id": 137510,
    "name": "Ceprano",
    "state_id": 1678,
    "state_code": "62",
    "country_id": 107,
    "country_code": "IT",
    "latitude": "41.54572000",
    "longitude": "13.51473000",
    "wikiDataId": null
  },
  {
    "id": 137559,
    "name": "Cerquotti-Madonna del Piano",
    "state_id": 1678,
    "state_code": "62",
    "country_id": 107,
    "country_code": "IT",
    "latitude": "41.64194000",
    "longitude": "13.21316000",
    "wikiDataId": null
  },
  {
    "id": 137565,
    "name": "Cerreto Laziale",
    "state_id": 1678,
    "state_code": "62",
    "country_id": 107,
    "country_code": "IT",
    "latitude": "41.94332000",
    "longitude": "12.98169000",
    "wikiDataId": null
  },
  {
    "id": 137582,
    "name": "Cervara di Roma",
    "state_id": 1678,
    "state_code": "62",
    "country_id": 107,
    "country_code": "IT",
    "latitude": "41.98822000",
    "longitude": "13.06799000",
    "wikiDataId": null
  },
  {
    "id": 137584,
    "name": "Cervaro",
    "state_id": 1678,
    "state_code": "62",
    "country_id": 107,
    "country_code": "IT",
    "latitude": "41.48278000",
    "longitude": "13.90218000",
    "wikiDataId": null
  },
  {
    "id": 137590,
    "name": "Cerveteri",
    "state_id": 1678,
    "state_code": "62",
    "country_id": 107,
    "country_code": "IT",
    "latitude": "41.99080000",
    "longitude": "12.09082000",
    "wikiDataId": null
  },
  {
    "id": 137604,
    "name": "Cesano",
    "state_id": 1678,
    "state_code": "62",
    "country_id": 107,
    "country_code": "IT",
    "latitude": "42.07375000",
    "longitude": "12.33711000",
    "wikiDataId": null
  },
  {
    "id": 137701,
    "name": "Ciampino",
    "state_id": 1678,
    "state_code": "62",
    "country_id": 107,
    "country_code": "IT",
    "latitude": "41.80064000",
    "longitude": "12.60158000",
    "wikiDataId": null
  },
  {
    "id": 137711,
    "name": "Ciciliano",
    "state_id": 1678,
    "state_code": "62",
    "country_id": 107,
    "country_code": "IT",
    "latitude": "41.95990000",
    "longitude": "12.94163000",
    "wikiDataId": null
  },
  {
    "id": 137730,
    "name": "Cineto Romano",
    "state_id": 1678,
    "state_code": "62",
    "country_id": 107,
    "country_code": "IT",
    "latitude": "42.05014000",
    "longitude": "12.96080000",
    "wikiDataId": null
  },
  {
    "id": 137762,
    "name": "Cisterna di Latina",
    "state_id": 1678,
    "state_code": "62",
    "country_id": 107,
    "country_code": "IT",
    "latitude": "41.59080000",
    "longitude": "12.82808000",
    "wikiDataId": null
  },
  {
    "id": 137776,
    "name": "Citt√† metropolitana di Roma Capitale",
    "state_id": 1678,
    "state_code": "62",
    "country_id": 107,
    "country_code": "IT",
    "latitude": "41.96667000",
    "longitude": "12.66667000",
    "wikiDataId": null
  },
  {
    "id": 137767,
    "name": "Cittaducale",
    "state_id": 1678,
    "state_code": "62",
    "country_id": 107,
    "country_code": "IT",
    "latitude": "42.38664000",
    "longitude": "12.95497000",
    "wikiDataId": null
  },
  {
    "id": 137769,
    "name": "Cittareale",
    "state_id": 1678,
    "state_code": "62",
    "country_id": 107,
    "country_code": "IT",
    "latitude": "42.61624000",
    "longitude": "13.15788000",
    "wikiDataId": null
  },
  {
    "id": 137786,
    "name": "Civita Castellana",
    "state_id": 1678,
    "state_code": "62",
    "country_id": 107,
    "country_code": "IT",
    "latitude": "42.29304000",
    "longitude": "12.40885000",
    "wikiDataId": null
  },
  {
    "id": 137794,
    "name": "Civitavecchia",
    "state_id": 1678,
    "state_code": "62",
    "country_id": 107,
    "country_code": "IT",
    "latitude": "42.09325000",
    "longitude": "11.79674000",
    "wikiDataId": null
  },
  {
    "id": 137801,
    "name": "Civitella d'Agliano",
    "state_id": 1678,
    "state_code": "62",
    "country_id": 107,
    "country_code": "IT",
    "latitude": "42.60296000",
    "longitude": "12.18624000",
    "wikiDataId": null
  },
  {
    "id": 137800,
    "name": "Civitella San Paolo",
    "state_id": 1678,
    "state_code": "62",
    "country_id": 107,
    "country_code": "IT",
    "latitude": "42.19935000",
    "longitude": "12.57455000",
    "wikiDataId": null
  },
  {
    "id": 137849,
    "name": "Coldragone",
    "state_id": 1678,
    "state_code": "62",
    "country_id": 107,
    "country_code": "IT",
    "latitude": "41.55458000",
    "longitude": "13.60399000",
    "wikiDataId": null
  },
  {
    "id": 137856,
    "name": "Collalto Sabino",
    "state_id": 1678,
    "state_code": "62",
    "country_id": 107,
    "country_code": "IT",
    "latitude": "42.13522000",
    "longitude": "13.04841000",
    "wikiDataId": null
  },
  {
    "id": 137860,
    "name": "Colle Campano-Scrima",
    "state_id": 1678,
    "state_code": "62",
    "country_id": 107,
    "country_code": "IT",
    "latitude": "41.62364000",
    "longitude": "13.46336000",
    "wikiDataId": null
  },
  {
    "id": 137870,
    "name": "Colle del Pino",
    "state_id": 1678,
    "state_code": "62",
    "country_id": 107,
    "country_code": "IT",
    "latitude": "41.74246000",
    "longitude": "12.49644000",
    "wikiDataId": null
  },
  {
    "id": 137871,
    "name": "Colle di Fuori",
    "state_id": 1678,
    "state_code": "62",
    "country_id": 107,
    "country_code": "IT",
    "latitude": "41.80091000",
    "longitude": "12.80683000",
    "wikiDataId": null
  },
  {
    "id": 137872,
    "name": "Colle di Tora",
    "state_id": 1678,
    "state_code": "62",
    "country_id": 107,
    "country_code": "IT",
    "latitude": "42.20809000",
    "longitude": "12.94746000",
    "wikiDataId": null
  },
  {
    "id": 137862,
    "name": "Colle Mainello",
    "state_id": 1678,
    "state_code": "62",
    "country_id": 107,
    "country_code": "IT",
    "latitude": "41.86975000",
    "longitude": "12.78767000",
    "wikiDataId": null
  },
  {
    "id": 137863,
    "name": "Colle San Magno",
    "state_id": 1678,
    "state_code": "62",
    "country_id": 107,
    "country_code": "IT",
    "latitude": "41.55019000",
    "longitude": "13.69485000",
    "wikiDataId": null
  },
  {
    "id": 137866,
    "name": "Colle Spina",
    "state_id": 1678,
    "state_code": "62",
    "country_id": 107,
    "country_code": "IT",
    "latitude": "41.78205000",
    "longitude": "12.84723000",
    "wikiDataId": null
  },
  {
    "id": 137868,
    "name": "Colle Verde",
    "state_id": 1678,
    "state_code": "62",
    "country_id": 107,
    "country_code": "IT",
    "latitude": "41.97694000",
    "longitude": "12.61855000",
    "wikiDataId": null
  },
  {
    "id": 137880,
    "name": "Colleferro",
    "state_id": 1678,
    "state_code": "62",
    "country_id": 107,
    "country_code": "IT",
    "latitude": "41.72722000",
    "longitude": "13.00481000",
    "wikiDataId": null
  },
  {
    "id": 137881,
    "name": "Collefontana-Fontana Liri Inferiore",
    "state_id": 1678,
    "state_code": "62",
    "country_id": 107,
    "country_code": "IT",
    "latitude": "41.61166000",
    "longitude": "13.54945000",
    "wikiDataId": null
  },
  {
    "id": 137882,
    "name": "Collegiove",
    "state_id": 1678,
    "state_code": "62",
    "country_id": 107,
    "country_code": "IT",
    "latitude": "42.17506000",
    "longitude": "13.03844000",
    "wikiDataId": null
  },
  {
    "id": 137886,
    "name": "Collepardo",
    "state_id": 1678,
    "state_code": "62",
    "country_id": 107,
    "country_code": "IT",
    "latitude": "41.76417000",
    "longitude": "13.36846000",
    "wikiDataId": null
  },
  {
    "id": 137896,
    "name": "Collevecchio",
    "state_id": 1678,
    "state_code": "62",
    "country_id": 107,
    "country_code": "IT",
    "latitude": "42.33368000",
    "longitude": "12.55329000",
    "wikiDataId": null
  },
  {
    "id": 137897,
    "name": "Colleverde II",
    "state_id": 1678,
    "state_code": "62",
    "country_id": 107,
    "country_code": "IT",
    "latitude": "41.97533000",
    "longitude": "12.63191000",
    "wikiDataId": null
  },
  {
    "id": 137900,
    "name": "Colli di Enea",
    "state_id": 1678,
    "state_code": "62",
    "country_id": 107,
    "country_code": "IT",
    "latitude": "41.65554000",
    "longitude": "12.49035000",
    "wikiDataId": null
  },
  {
    "id": 137901,
    "name": "Colli sul Velino",
    "state_id": 1678,
    "state_code": "62",
    "country_id": 107,
    "country_code": "IT",
    "latitude": "42.49828000",
    "longitude": "12.78153000",
    "wikiDataId": null
  },
  {
    "id": 137922,
    "name": "Colonna",
    "state_id": 1678,
    "state_code": "62",
    "country_id": 107,
    "country_code": "IT",
    "latitude": "41.83454000",
    "longitude": "12.75495000",
    "wikiDataId": null
  },
  {
    "id": 137929,
    "name": "Colubro",
    "state_id": 1678,
    "state_code": "62",
    "country_id": 107,
    "country_code": "IT",
    "latitude": "41.73506000",
    "longitude": "12.86726000",
    "wikiDataId": null
  },
  {
    "id": 137956,
    "name": "Concerviano",
    "state_id": 1678,
    "state_code": "62",
    "country_id": 107,
    "country_code": "IT",
    "latitude": "42.32214000",
    "longitude": "12.98534000",
    "wikiDataId": null
  },
  {
    "id": 137968,
    "name": "Configni",
    "state_id": 1678,
    "state_code": "62",
    "country_id": 107,
    "country_code": "IT",
    "latitude": "42.42543000",
    "longitude": "12.64431000",
    "wikiDataId": null
  },
  {
    "id": 137978,
    "name": "Contigliano",
    "state_id": 1678,
    "state_code": "62",
    "country_id": 107,
    "country_code": "IT",
    "latitude": "42.41058000",
    "longitude": "12.77202000",
    "wikiDataId": null
  },
  {
    "id": 137998,
    "name": "Corchiano",
    "state_id": 1678,
    "state_code": "62",
    "country_id": 107,
    "country_code": "IT",
    "latitude": "42.34495000",
    "longitude": "12.35688000",
    "wikiDataId": null
  },
  {
    "id": 138000,
    "name": "Corcolle",
    "state_id": 1678,
    "state_code": "62",
    "country_id": 107,
    "country_code": "IT",
    "latitude": "41.90421000",
    "longitude": "12.73654000",
    "wikiDataId": null
  },
  {
    "id": 138007,
    "name": "Coreno Ausonio",
    "state_id": 1678,
    "state_code": "62",
    "country_id": 107,
    "country_code": "IT",
    "latitude": "41.34735000",
    "longitude": "13.77648000",
    "wikiDataId": null
  },
  {
    "id": 138010,
    "name": "Cori",
    "state_id": 1678,
    "state_code": "62",
    "country_id": 107,
    "country_code": "IT",
    "latitude": "41.64358000",
    "longitude": "12.91121000",
    "wikiDataId": null
  },
  {
    "id": 138074,
    "name": "Corvaro",
    "state_id": 1678,
    "state_code": "62",
    "country_id": 107,
    "country_code": "IT",
    "latitude": "42.20538000",
    "longitude": "13.26496000",
    "wikiDataId": null
  },
  {
    "id": 138107,
    "name": "Costaroni",
    "state_id": 1678,
    "state_code": "62",
    "country_id": 107,
    "country_code": "IT",
    "latitude": "42.07819000",
    "longitude": "12.53712000",
    "wikiDataId": null
  },
  {
    "id": 138113,
    "name": "Cottanello",
    "state_id": 1678,
    "state_code": "62",
    "country_id": 107,
    "country_code": "IT",
    "latitude": "42.40811000",
    "longitude": "12.68592000",
    "wikiDataId": null
  },
  {
    "id": 138150,
    "name": "Cretone",
    "state_id": 1678,
    "state_code": "62",
    "country_id": 107,
    "country_code": "IT",
    "latitude": "42.07116000",
    "longitude": "12.70365000",
    "wikiDataId": null
  },
  {
    "id": 138384,
    "name": "Esperia",
    "state_id": 1678,
    "state_code": "62",
    "country_id": 107,
    "country_code": "IT",
    "latitude": "41.38237000",
    "longitude": "13.68491000",
    "wikiDataId": null
  },
  {
    "id": 138394,
    "name": "Fabrica di Roma",
    "state_id": 1678,
    "state_code": "62",
    "country_id": 107,
    "country_code": "IT",
    "latitude": "42.33444000",
    "longitude": "12.29873000",
    "wikiDataId": null
  },
  {
    "id": 138418,
    "name": "Faleria",
    "state_id": 1678,
    "state_code": "62",
    "country_id": 107,
    "country_code": "IT",
    "latitude": "42.22580000",
    "longitude": "12.44518000",
    "wikiDataId": null
  },
  {
    "id": 138425,
    "name": "Falvaterra",
    "state_id": 1678,
    "state_code": "62",
    "country_id": 107,
    "country_code": "IT",
    "latitude": "41.50438000",
    "longitude": "13.52341000",
    "wikiDataId": null
  },
  {
    "id": 138443,
    "name": "Fara in Sabina",
    "state_id": 1678,
    "state_code": "62",
    "country_id": 107,
    "country_code": "IT",
    "latitude": "42.20807000",
    "longitude": "12.72960000",
    "wikiDataId": null
  },
  {
    "id": 138449,
    "name": "Farnese",
    "state_id": 1678,
    "state_code": "62",
    "country_id": 107,
    "country_code": "IT",
    "latitude": "42.54926000",
    "longitude": "11.72638000",
    "wikiDataId": null
  },
  {
    "id": 138480,
    "name": "Ferentino",
    "state_id": 1678,
    "state_code": "62",
    "country_id": 107,
    "country_code": "IT",
    "latitude": "41.69119000",
    "longitude": "13.25620000",
    "wikiDataId": null
  },
  {
    "id": 138499,
    "name": "Fiamignano",
    "state_id": 1678,
    "state_code": "62",
    "country_id": 107,
    "country_code": "IT",
    "latitude": "42.26546000",
    "longitude": "13.12413000",
    "wikiDataId": null
  },
  {
    "id": 138501,
    "name": "Fiano Romano",
    "state_id": 1678,
    "state_code": "62",
    "country_id": 107,
    "country_code": "IT",
    "latitude": "42.15538000",
    "longitude": "12.59467000",
    "wikiDataId": null
  },
  {
    "id": 138521,
    "name": "Filacciano",
    "state_id": 1678,
    "state_code": "62",
    "country_id": 107,
    "country_code": "IT",
    "latitude": "42.25445000",
    "longitude": "12.59880000",
    "wikiDataId": null
  },
  {
    "id": 138526,
    "name": "Filettino",
    "state_id": 1678,
    "state_code": "62",
    "country_id": 107,
    "country_code": "IT",
    "latitude": "41.89131000",
    "longitude": "13.32531000",
    "wikiDataId": null
  },
  {
    "id": 138546,
    "name": "Fiuggi",
    "state_id": 1678,
    "state_code": "62",
    "country_id": 107,
    "country_code": "IT",
    "latitude": "41.79780000",
    "longitude": "13.22386000",
    "wikiDataId": null
  },
  {
    "id": 138555,
    "name": "Fiumicino-Isola Sacra",
    "state_id": 1678,
    "state_code": "62",
    "country_id": 107,
    "country_code": "IT",
    "latitude": "41.77093000",
    "longitude": "12.23662000",
    "wikiDataId": null
  },
  {
    "id": 138571,
    "name": "Focene",
    "state_id": 1678,
    "state_code": "62",
    "country_id": 107,
    "country_code": "IT",
    "latitude": "41.81367000",
    "longitude": "12.21354000",
    "wikiDataId": null
  },
  {
    "id": 138588,
    "name": "Fondi",
    "state_id": 1678,
    "state_code": "62",
    "country_id": 107,
    "country_code": "IT",
    "latitude": "41.35787000",
    "longitude": "13.42718000",
    "wikiDataId": null
  },
  {
    "id": 138610,
    "name": "Fontechiari",
    "state_id": 1678,
    "state_code": "62",
    "country_id": 107,
    "country_code": "IT",
    "latitude": "41.66788000",
    "longitude": "13.67504000",
    "wikiDataId": null
  },
  {
    "id": 138617,
    "name": "Forano",
    "state_id": 1678,
    "state_code": "62",
    "country_id": 107,
    "country_code": "IT",
    "latitude": "42.29768000",
    "longitude": "12.59469000",
    "wikiDataId": null
  },
  {
    "id": 138635,
    "name": "Formello",
    "state_id": 1678,
    "state_code": "62",
    "country_id": 107,
    "country_code": "IT",
    "latitude": "42.06246000",
    "longitude": "12.39435000",
    "wikiDataId": null
  },
  {
    "id": 138636,
    "name": "Formia",
    "state_id": 1678,
    "state_code": "62",
    "country_id": 107,
    "country_code": "IT",
    "latitude": "41.25632000",
    "longitude": "13.60888000",
    "wikiDataId": null
  },
  {
    "id": 138678,
    "name": "Fossignano",
    "state_id": 1678,
    "state_code": "62",
    "country_id": 107,
    "country_code": "IT",
    "latitude": "41.59226000",
    "longitude": "12.56333000",
    "wikiDataId": null
  },
  {
    "id": 138708,
    "name": "Frascati",
    "state_id": 1678,
    "state_code": "62",
    "country_id": 107,
    "country_code": "IT",
    "latitude": "41.80910000",
    "longitude": "12.67942000",
    "wikiDataId": null
  },
  {
    "id": 138717,
    "name": "Frasso Sabino",
    "state_id": 1678,
    "state_code": "62",
    "country_id": 107,
    "country_code": "IT",
    "latitude": "42.22927000",
    "longitude": "12.80658000",
    "wikiDataId": null
  },
  {
    "id": 138728,
    "name": "Fregene",
    "state_id": 1678,
    "state_code": "62",
    "country_id": 107,
    "country_code": "IT",
    "latitude": "41.85051000",
    "longitude": "12.19671000",
    "wikiDataId": null
  },
  {
    "id": 138741,
    "name": "Frosinone",
    "state_id": 1678,
    "state_code": "62",
    "country_id": 107,
    "country_code": "IT",
    "latitude": "41.63976000",
    "longitude": "13.34109000",
    "wikiDataId": null
  },
  {
    "id": 138750,
    "name": "Fumone",
    "state_id": 1678,
    "state_code": "62",
    "country_id": 107,
    "country_code": "IT",
    "latitude": "41.73461000",
    "longitude": "13.27015000",
    "wikiDataId": null
  },
  {
    "id": 138774,
    "name": "Gaeta",
    "state_id": 1678,
    "state_code": "62",
    "country_id": 107,
    "country_code": "IT",
    "latitude": "41.21408000",
    "longitude": "13.57082000",
    "wikiDataId": null
  },
  {
    "id": 138802,
    "name": "Gallese",
    "state_id": 1678,
    "state_code": "62",
    "country_id": 107,
    "country_code": "IT",
    "latitude": "42.37376000",
    "longitude": "12.39646000",
    "wikiDataId": null
  },
  {
    "id": 138808,
    "name": "Gallicano nel Lazio",
    "state_id": 1678,
    "state_code": "62",
    "country_id": 107,
    "country_code": "IT",
    "latitude": "41.86433000",
    "longitude": "12.83543000",
    "wikiDataId": null
  },
  {
    "id": 138811,
    "name": "Gallinaro",
    "state_id": 1678,
    "state_code": "62",
    "country_id": 107,
    "country_code": "IT",
    "latitude": "41.65502000",
    "longitude": "13.79799000",
    "wikiDataId": null
  },
  {
    "id": 138877,
    "name": "Gavignano",
    "state_id": 1678,
    "state_code": "62",
    "country_id": 107,
    "country_code": "IT",
    "latitude": "41.69891000",
    "longitude": "13.05032000",
    "wikiDataId": null
  },
  {
    "id": 138895,
    "name": "Genazzano",
    "state_id": 1678,
    "state_code": "62",
    "country_id": 107,
    "country_code": "IT",
    "latitude": "41.82807000",
    "longitude": "12.97196000",
    "wikiDataId": null
  },
  {
    "id": 138897,
    "name": "Genio Civile",
    "state_id": 1678,
    "state_code": "62",
    "country_id": 107,
    "country_code": "IT",
    "latitude": "41.54807000",
    "longitude": "12.69161000",
    "wikiDataId": null
  },
  {
    "id": 138904,
    "name": "Genzano di Roma",
    "state_id": 1678,
    "state_code": "62",
    "country_id": 107,
    "country_code": "IT",
    "latitude": "41.70706000",
    "longitude": "12.68904000",
    "wikiDataId": null
  },
  {
    "id": 138909,
    "name": "Gerano",
    "state_id": 1678,
    "state_code": "62",
    "country_id": 107,
    "country_code": "IT",
    "latitude": "41.93474000",
    "longitude": "12.99034000",
    "wikiDataId": null
  },
  {
    "id": 138981,
    "name": "Girardi-Bellavista-Terrazze",
    "state_id": 1678,
    "state_code": "62",
    "country_id": 107,
    "country_code": "IT",
    "latitude": "42.10266000",
    "longitude": "12.57960000",
    "wikiDataId": null
  },
  {
    "id": 138990,
    "name": "Giulianello",
    "state_id": 1678,
    "state_code": "62",
    "country_id": 107,
    "country_code": "IT",
    "latitude": "41.68610000",
    "longitude": "12.87917000",
    "wikiDataId": null
  },
  {
    "id": 138992,
    "name": "Giuliano di Roma",
    "state_id": 1678,
    "state_code": "62",
    "country_id": 107,
    "country_code": "IT",
    "latitude": "41.53933000",
    "longitude": "13.28028000",
    "wikiDataId": null
  },
  {
    "id": 139026,
    "name": "Gorga",
    "state_id": 1678,
    "state_code": "62",
    "country_id": 107,
    "country_code": "IT",
    "latitude": "41.65468000",
    "longitude": "13.10663000",
    "wikiDataId": null
  },
  {
    "id": 139052,
    "name": "Gradoli",
    "state_id": 1678,
    "state_code": "62",
    "country_id": 107,
    "country_code": "IT",
    "latitude": "42.64502000",
    "longitude": "11.85580000",
    "wikiDataId": null
  },
  {
    "id": 139054,
    "name": "Graffignano",
    "state_id": 1678,
    "state_code": "62",
    "country_id": 107,
    "country_code": "IT",
    "latitude": "42.57539000",
    "longitude": "12.20121000",
    "wikiDataId": null
  },
  {
    "id": 139120,
    "name": "Grottaferrata",
    "state_id": 1678,
    "state_code": "62",
    "country_id": 107,
    "country_code": "IT",
    "latitude": "41.78664000",
    "longitude": "12.67144000",
    "wikiDataId": null
  },
  {
    "id": 139127,
    "name": "Grotte di Castro",
    "state_id": 1678,
    "state_code": "62",
    "country_id": 107,
    "country_code": "IT",
    "latitude": "42.67567000",
    "longitude": "11.86908000",
    "wikiDataId": null
  },
  {
    "id": 139126,
    "name": "Grotte Santo Stefano",
    "state_id": 1678,
    "state_code": "62",
    "country_id": 107,
    "country_code": "IT",
    "latitude": "42.51691000",
    "longitude": "12.17226000",
    "wikiDataId": null
  },
  {
    "id": 139143,
    "name": "Grunuovo-Campomaggiore San Luca",
    "state_id": 1678,
    "state_code": "62",
    "country_id": 107,
    "country_code": "IT",
    "latitude": "41.27228000",
    "longitude": "13.80684000",
    "wikiDataId": null
  },
  {
    "id": 139152,
    "name": "Guarcino",
    "state_id": 1678,
    "state_code": "62",
    "country_id": 107,
    "country_code": "IT",
    "latitude": "41.79917000",
    "longitude": "13.31439000",
    "wikiDataId": null
  },
  {
    "id": 139178,
    "name": "Guidonia",
    "state_id": 1678,
    "state_code": "62",
    "country_id": 107,
    "country_code": "IT",
    "latitude": "41.99232000",
    "longitude": "12.71876000",
    "wikiDataId": null
  },
  {
    "id": 139179,
    "name": "Guidonia Montecelio",
    "state_id": 1678,
    "state_code": "62",
    "country_id": 107,
    "country_code": "IT",
    "latitude": "41.99362000",
    "longitude": "12.72238000",
    "wikiDataId": null
  },
  {
    "id": 139229,
    "name": "Ischia di Castro",
    "state_id": 1678,
    "state_code": "62",
    "country_id": 107,
    "country_code": "IT",
    "latitude": "42.54420000",
    "longitude": "11.75759000",
    "wikiDataId": null
  },
  {
    "id": 139246,
    "name": "Isola del Liri",
    "state_id": 1678,
    "state_code": "62",
    "country_id": 107,
    "country_code": "IT",
    "latitude": "41.68678000",
    "longitude": "13.59679000",
    "wikiDataId": null
  },
  {
    "id": 139268,
    "name": "Itri",
    "state_id": 1678,
    "state_code": "62",
    "country_id": 107,
    "country_code": "IT",
    "latitude": "41.29034000",
    "longitude": "13.53000000",
    "wikiDataId": null
  },
  {
    "id": 139275,
    "name": "Jenne",
    "state_id": 1678,
    "state_code": "62",
    "country_id": 107,
    "country_code": "IT",
    "latitude": "41.88882000",
    "longitude": "13.16959000",
    "wikiDataId": null
  },
  {
    "id": 139286,
    "name": "La Botte",
    "state_id": 1678,
    "state_code": "62",
    "country_id": 107,
    "country_code": "IT",
    "latitude": "41.98176000",
    "longitude": "12.76775000",
    "wikiDataId": null
  },
  {
    "id": 139291,
    "name": "La Forma",
    "state_id": 1678,
    "state_code": "62",
    "country_id": 107,
    "country_code": "IT",
    "latitude": "41.83449000",
    "longitude": "13.09092000",
    "wikiDataId": null
  },
  {
    "id": 139296,
    "name": "La Massimina-Casal Lumbroso",
    "state_id": 1678,
    "state_code": "62",
    "country_id": 107,
    "country_code": "IT",
    "latitude": "41.87332000",
    "longitude": "12.35694000",
    "wikiDataId": null
  },
  {
    "id": 139310,
    "name": "Labico",
    "state_id": 1678,
    "state_code": "62",
    "country_id": 107,
    "country_code": "IT",
    "latitude": "41.79260000",
    "longitude": "12.87127000",
    "wikiDataId": null
  },
  {
    "id": 139311,
    "name": "Labro",
    "state_id": 1678,
    "state_code": "62",
    "country_id": 107,
    "country_code": "IT",
    "latitude": "42.52603000",
    "longitude": "12.80068000",
    "wikiDataId": null
  },
  {
    "id": 139318,
    "name": "Ladispoli",
    "state_id": 1678,
    "state_code": "62",
    "country_id": 107,
    "country_code": "IT",
    "latitude": "41.95068000",
    "longitude": "12.07500000",
    "wikiDataId": null
  },
  {
    "id": 139322,
    "name": "Laghetto",
    "state_id": 1678,
    "state_code": "62",
    "country_id": 107,
    "country_code": "IT",
    "latitude": "41.96734000",
    "longitude": "12.65609000",
    "wikiDataId": null
  },
  {
    "id": 139361,
    "name": "Lanuvio",
    "state_id": 1678,
    "state_code": "62",
    "country_id": 107,
    "country_code": "IT",
    "latitude": "41.67297000",
    "longitude": "12.69403000",
    "wikiDataId": null
  },
  {
    "id": 139375,
    "name": "Lariano",
    "state_id": 1678,
    "state_code": "62",
    "country_id": 107,
    "country_code": "IT",
    "latitude": "41.71847000",
    "longitude": "12.82868000",
    "wikiDataId": null
  },
  {
    "id": 139386,
    "name": "Latera",
    "state_id": 1678,
    "state_code": "62",
    "country_id": 107,
    "country_code": "IT",
    "latitude": "42.62922000",
    "longitude": "11.82922000",
    "wikiDataId": null
  },
  {
    "id": 139390,
    "name": "Latina",
    "state_id": 1678,
    "state_code": "62",
    "country_id": 107,
    "country_code": "IT",
    "latitude": "41.46614000",
    "longitude": "12.90430000",
    "wikiDataId": null
  },
  {
    "id": 139391,
    "name": "Latina Scalo",
    "state_id": 1678,
    "state_code": "62",
    "country_id": 107,
    "country_code": "IT",
    "latitude": "41.53157000",
    "longitude": "12.94567000",
    "wikiDataId": null
  },
  {
    "id": 139417,
    "name": "Lavinio",
    "state_id": 1678,
    "state_code": "62",
    "country_id": 107,
    "country_code": "IT",
    "latitude": "41.50350000",
    "longitude": "12.58973000",
    "wikiDataId": null
  },
  {
    "id": 139426,
    "name": "Le Forna",
    "state_id": 1678,
    "state_code": "62",
    "country_id": 107,
    "country_code": "IT",
    "latitude": "40.92475000",
    "longitude": "12.96896000",
    "wikiDataId": null
  },
  {
    "id": 139429,
    "name": "Le Rughe",
    "state_id": 1678,
    "state_code": "62",
    "country_id": 107,
    "country_code": "IT",
    "latitude": "42.06885000",
    "longitude": "12.37624000",
    "wikiDataId": null
  },
  {
    "id": 139448,
    "name": "Lenola",
    "state_id": 1678,
    "state_code": "62",
    "country_id": 107,
    "country_code": "IT",
    "latitude": "41.40485000",
    "longitude": "13.45934000",
    "wikiDataId": null
  },
  {
    "id": 139456,
    "name": "Leonessa",
    "state_id": 1678,
    "state_code": "62",
    "country_id": 107,
    "country_code": "IT",
    "latitude": "42.56855000",
    "longitude": "12.95996000",
    "wikiDataId": null
  },
  {
    "id": 139496,
    "name": "Licenza",
    "state_id": 1678,
    "state_code": "62",
    "country_id": 107,
    "country_code": "IT",
    "latitude": "42.07413000",
    "longitude": "12.90008000",
    "wikiDataId": null
  },
  {
    "id": 139504,
    "name": "Lido dei Pini",
    "state_id": 1678,
    "state_code": "62",
    "country_id": 107,
    "country_code": "IT",
    "latitude": "41.53660000",
    "longitude": "12.58976000",
    "wikiDataId": null
  },
  {
    "id": 139507,
    "name": "Lido di Ostia",
    "state_id": 1678,
    "state_code": "62",
    "country_id": 107,
    "country_code": "IT",
    "latitude": "41.73212000",
    "longitude": "12.27654000",
    "wikiDataId": null
  },
  {
    "id": 139524,
    "name": "Limiti di Greccio",
    "state_id": 1678,
    "state_code": "62",
    "country_id": 107,
    "country_code": "IT",
    "latitude": "42.45329000",
    "longitude": "12.76955000",
    "wikiDataId": null
  },
  {
    "id": 139599,
    "name": "Longone Sabino",
    "state_id": 1678,
    "state_code": "62",
    "country_id": 107,
    "country_code": "IT",
    "latitude": "42.27260000",
    "longitude": "12.96653000",
    "wikiDataId": null
  },
  {
    "id": 139628,
    "name": "Lubriano",
    "state_id": 1678,
    "state_code": "62",
    "country_id": 107,
    "country_code": "IT",
    "latitude": "42.63623000",
    "longitude": "12.10876000",
    "wikiDataId": null
  },
  {
    "id": 139688,
    "name": "Maccarese",
    "state_id": 1678,
    "state_code": "62",
    "country_id": 107,
    "country_code": "IT",
    "latitude": "41.87696000",
    "longitude": "12.21975000",
    "wikiDataId": null
  },
  {
    "id": 139699,
    "name": "Macere",
    "state_id": 1678,
    "state_code": "62",
    "country_id": 107,
    "country_code": "IT",
    "latitude": "41.74873000",
    "longitude": "12.85835000",
    "wikiDataId": null
  },
  {
    "id": 139713,
    "name": "Maenza",
    "state_id": 1678,
    "state_code": "62",
    "country_id": 107,
    "country_code": "IT",
    "latitude": "41.52402000",
    "longitude": "13.18344000",
    "wikiDataId": null
  },
  {
    "id": 139726,
    "name": "Magliano Romano",
    "state_id": 1678,
    "state_code": "62",
    "country_id": 107,
    "country_code": "IT",
    "latitude": "42.15750000",
    "longitude": "12.43662000",
    "wikiDataId": null
  },
  {
    "id": 139727,
    "name": "Magliano Sabina",
    "state_id": 1678,
    "state_code": "62",
    "country_id": 107,
    "country_code": "IT",
    "latitude": "42.36568000",
    "longitude": "12.48520000",
    "wikiDataId": null
  },
  {
    "id": 139786,
    "name": "Mandela",
    "state_id": 1678,
    "state_code": "62",
    "country_id": 107,
    "country_code": "IT",
    "latitude": "42.02795000",
    "longitude": "12.92089000",
    "wikiDataId": null
  },
  {
    "id": 139808,
    "name": "Mantiglia di Ardea",
    "state_id": 1678,
    "state_code": "62",
    "country_id": 107,
    "country_code": "IT",
    "latitude": "41.67685000",
    "longitude": "12.61453000",
    "wikiDataId": null
  },
  {
    "id": 139813,
    "name": "Manziana",
    "state_id": 1678,
    "state_code": "62",
    "country_id": 107,
    "country_code": "IT",
    "latitude": "42.12998000",
    "longitude": "12.12537000",
    "wikiDataId": null
  },
  {
    "id": 139821,
    "name": "Marano Equo",
    "state_id": 1678,
    "state_code": "62",
    "country_id": 107,
    "country_code": "IT",
    "latitude": "41.99535000",
    "longitude": "13.01501000",
    "wikiDataId": null
  },
  {
    "id": 139830,
    "name": "Maranola-Trivio",
    "state_id": 1678,
    "state_code": "62",
    "country_id": 107,
    "country_code": "IT",
    "latitude": "41.28522000",
    "longitude": "13.62777000",
    "wikiDataId": null
  },
  {
    "id": 139838,
    "name": "Marcellina",
    "state_id": 1678,
    "state_code": "62",
    "country_id": 107,
    "country_code": "IT",
    "latitude": "42.02436000",
    "longitude": "12.80445000",
    "wikiDataId": null
  },
  {
    "id": 139841,
    "name": "Marcetelli",
    "state_id": 1678,
    "state_code": "62",
    "country_id": 107,
    "country_code": "IT",
    "latitude": "42.22663000",
    "longitude": "13.04589000",
    "wikiDataId": null
  },
  {
    "id": 139853,
    "name": "Marco Simone",
    "state_id": 1678,
    "state_code": "62",
    "country_id": 107,
    "country_code": "IT",
    "latitude": "41.95544000",
    "longitude": "12.64775000",
    "wikiDataId": null
  },
  {
    "id": 139877,
    "name": "Marina di Ardea-Tor San Lorenzo",
    "state_id": 1678,
    "state_code": "62",
    "country_id": 107,
    "country_code": "IT",
    "latitude": "41.55439000",
    "longitude": "12.54115000",
    "wikiDataId": null
  },
  {
    "id": 139883,
    "name": "Marina di Cerveteri",
    "state_id": 1678,
    "state_code": "62",
    "country_id": 107,
    "country_code": "IT",
    "latitude": "41.97997000",
    "longitude": "12.05295000",
    "wikiDataId": null
  },
  {
    "id": 139874,
    "name": "Marina San Nicola",
    "state_id": 1678,
    "state_code": "62",
    "country_id": 107,
    "country_code": "IT",
    "latitude": "41.93102000",
    "longitude": "12.12024000",
    "wikiDataId": null
  },
  {
    "id": 139900,
    "name": "Marino",
    "state_id": 1678,
    "state_code": "62",
    "country_id": 107,
    "country_code": "IT",
    "latitude": "41.76984000",
    "longitude": "12.65917000",
    "wikiDataId": null
  },
  {
    "id": 139925,
    "name": "Marta",
    "state_id": 1678,
    "state_code": "62",
    "country_id": 107,
    "country_code": "IT",
    "latitude": "42.53318000",
    "longitude": "11.92423000",
    "wikiDataId": null
  },
  {
    "id": 140006,
    "name": "Mazzano Romano",
    "state_id": 1678,
    "state_code": "62",
    "country_id": 107,
    "country_code": "IT",
    "latitude": "42.20597000",
    "longitude": "12.39554000",
    "wikiDataId": null
  },
  {
    "id": 140065,
    "name": "Mentana",
    "state_id": 1678,
    "state_code": "62",
    "country_id": 107,
    "country_code": "IT",
    "latitude": "42.03539000",
    "longitude": "12.64413000",
    "wikiDataId": null
  },
  {
    "id": 140130,
    "name": "Micigliano",
    "state_id": 1678,
    "state_code": "62",
    "country_id": 107,
    "country_code": "IT",
    "latitude": "42.45203000",
    "longitude": "13.05318000",
    "wikiDataId": null
  },
  {
    "id": 140162,
    "name": "Minturno",
    "state_id": 1678,
    "state_code": "62",
    "country_id": 107,
    "country_code": "IT",
    "latitude": "41.26294000",
    "longitude": "13.74583000",
    "wikiDataId": null
  },
  {
    "id": 140212,
    "name": "Molella",
    "state_id": 1678,
    "state_code": "62",
    "country_id": 107,
    "country_code": "IT",
    "latitude": "41.26009000",
    "longitude": "13.06221000",
    "wikiDataId": null
  },
  {
    "id": 140246,
    "name": "Mompeo",
    "state_id": 1678,
    "state_code": "62",
    "country_id": 107,
    "country_code": "IT",
    "latitude": "42.24780000",
    "longitude": "12.75130000",
    "wikiDataId": null
  },
  {
    "id": 140336,
    "name": "Montalto di Castro",
    "state_id": 1678,
    "state_code": "62",
    "country_id": 107,
    "country_code": "IT",
    "latitude": "42.34983000",
    "longitude": "11.60788000",
    "wikiDataId": null
  },
  {
    "id": 140348,
    "name": "Montasola",
    "state_id": 1678,
    "state_code": "62",
    "country_id": 107,
    "country_code": "IT",
    "latitude": "42.38495000",
    "longitude": "12.68127000",
    "wikiDataId": null
  },
  {
    "id": 140353,
    "name": "Monte Caminetto",
    "state_id": 1678,
    "state_code": "62",
    "country_id": 107,
    "country_code": "IT",
    "latitude": "42.06650000",
    "longitude": "12.47358000",
    "wikiDataId": null
  },
  {
    "id": 140362,
    "name": "Monte Migliore La Selvotta",
    "state_id": 1678,
    "state_code": "62",
    "country_id": 107,
    "country_code": "IT",
    "latitude": "41.72060000",
    "longitude": "12.50206000",
    "wikiDataId": null
  },
  {
    "id": 140364,
    "name": "Monte Porzio Catone",
    "state_id": 1678,
    "state_code": "62",
    "country_id": 107,
    "country_code": "IT",
    "latitude": "41.81585000",
    "longitude": "12.71432000",
    "wikiDataId": null
  },
  {
    "id": 140367,
    "name": "Monte Romano",
    "state_id": 1678,
    "state_code": "62",
    "country_id": 107,
    "country_code": "IT",
    "latitude": "42.26745000",
    "longitude": "11.89658000",
    "wikiDataId": null
  },
  {
    "id": 140368,
    "name": "Monte San Biagio",
    "state_id": 1678,
    "state_code": "62",
    "country_id": 107,
    "country_code": "IT",
    "latitude": "41.35360000",
    "longitude": "13.35184000",
    "wikiDataId": null
  },
  {
    "id": 140371,
    "name": "Monte San Giovanni Campano",
    "state_id": 1678,
    "state_code": "62",
    "country_id": 107,
    "country_code": "IT",
    "latitude": "41.64310000",
    "longitude": "13.51088000",
    "wikiDataId": null
  },
  {
    "id": 140372,
    "name": "Monte San Giovanni in Sabina",
    "state_id": 1678,
    "state_code": "62",
    "country_id": 107,
    "country_code": "IT",
    "latitude": "42.32703000",
    "longitude": "12.77858000",
    "wikiDataId": null
  },
  {
    "id": 140374,
    "name": "Monte San Marino",
    "state_id": 1678,
    "state_code": "62",
    "country_id": 107,
    "country_code": "IT",
    "latitude": "41.71200000",
    "longitude": "13.31199000",
    "wikiDataId": null
  },
  {
    "id": 140394,
    "name": "Montebuono",
    "state_id": 1678,
    "state_code": "62",
    "country_id": 107,
    "country_code": "IT",
    "latitude": "42.36770000",
    "longitude": "12.59721000",
    "wikiDataId": null
  },
  {
    "id": 140413,
    "name": "Montecelio",
    "state_id": 1678,
    "state_code": "62",
    "country_id": 107,
    "country_code": "IT",
    "latitude": "42.02067000",
    "longitude": "12.74354000",
    "wikiDataId": null
  },
  {
    "id": 140419,
    "name": "Montecompatri",
    "state_id": 1678,
    "state_code": "62",
    "country_id": 107,
    "country_code": "IT",
    "latitude": "41.80892000",
    "longitude": "12.73778000",
    "wikiDataId": null
  },
  {
    "id": 140437,
    "name": "Montefiascone",
    "state_id": 1678,
    "state_code": "62",
    "country_id": 107,
    "country_code": "IT",
    "latitude": "42.54255000",
    "longitude": "12.03192000",
    "wikiDataId": null
  },
  {
    "id": 140442,
    "name": "Monteflavio",
    "state_id": 1678,
    "state_code": "62",
    "country_id": 107,
    "country_code": "IT",
    "latitude": "42.10935000",
    "longitude": "12.83076000",
    "wikiDataId": null
  },
  {
    "id": 140464,
    "name": "Montelanico",
    "state_id": 1678,
    "state_code": "62",
    "country_id": 107,
    "country_code": "IT",
    "latitude": "41.65069000",
    "longitude": "13.04027000",
    "wikiDataId": null
  },
  {
    "id": 140466,
    "name": "Montelarco",
    "state_id": 1678,
    "state_code": "62",
    "country_id": 107,
    "country_code": "IT",
    "latitude": "42.16339000",
    "longitude": "12.48398000",
    "wikiDataId": null
  },
  {
    "id": 140468,
    "name": "Monteleone Sabino",
    "state_id": 1678,
    "state_code": "62",
    "country_id": 107,
    "country_code": "IT",
    "latitude": "42.23267000",
    "longitude": "12.85828000",
    "wikiDataId": null
  },
  {
    "id": 140475,
    "name": "Montelibretti",
    "state_id": 1678,
    "state_code": "62",
    "country_id": 107,
    "country_code": "IT",
    "latitude": "42.13553000",
    "longitude": "12.73868000",
    "wikiDataId": null
  },
  {
    "id": 140501,
    "name": "Montenero Sabino",
    "state_id": 1678,
    "state_code": "62",
    "country_id": 107,
    "country_code": "IT",
    "latitude": "42.28123000",
    "longitude": "12.81358000",
    "wikiDataId": null
  },
  {
    "id": 140521,
    "name": "Monterosi",
    "state_id": 1678,
    "state_code": "62",
    "country_id": 107,
    "country_code": "IT",
    "latitude": "42.19698000",
    "longitude": "12.30842000",
    "wikiDataId": null
  },
  {
    "id": 140526,
    "name": "Monterotondo",
    "state_id": 1678,
    "state_code": "62",
    "country_id": 107,
    "country_code": "IT",
    "latitude": "42.05159000",
    "longitude": "12.61969000",
    "wikiDataId": null
  },
  {
    "id": 140581,
    "name": "Montopoli in Sabina",
    "state_id": 1678,
    "state_code": "62",
    "country_id": 107,
    "country_code": "IT",
    "latitude": "42.24593000",
    "longitude": "12.69208000",
    "wikiDataId": null
  },
  {
    "id": 140585,
    "name": "Montorio Romano",
    "state_id": 1678,
    "state_code": "62",
    "country_id": 107,
    "country_code": "IT",
    "latitude": "42.13738000",
    "longitude": "12.80404000",
    "wikiDataId": null
  },
  {
    "id": 140617,
    "name": "Moricone",
    "state_id": 1678,
    "state_code": "62",
    "country_id": 107,
    "country_code": "IT",
    "latitude": "42.11661000",
    "longitude": "12.77234000",
    "wikiDataId": null
  },
  {
    "id": 140622,
    "name": "Morlupo",
    "state_id": 1678,
    "state_code": "62",
    "country_id": 107,
    "country_code": "IT",
    "latitude": "42.15002000",
    "longitude": "12.50306000",
    "wikiDataId": null
  },
  {
    "id": 140629,
    "name": "Morolo",
    "state_id": 1678,
    "state_code": "62",
    "country_id": 107,
    "country_code": "IT",
    "latitude": "41.63838000",
    "longitude": "13.19809000",
    "wikiDataId": null
  },
  {
    "id": 140632,
    "name": "Morro Reatino",
    "state_id": 1678,
    "state_code": "62",
    "country_id": 107,
    "country_code": "IT",
    "latitude": "42.52226000",
    "longitude": "12.83449000",
    "wikiDataId": null
  },
  {
    "id": 140733,
    "name": "Nazzano",
    "state_id": 1678,
    "state_code": "62",
    "country_id": 107,
    "country_code": "IT",
    "latitude": "42.23018000",
    "longitude": "12.59440000",
    "wikiDataId": null
  },
  {
    "id": 140740,
    "name": "Nemi",
    "state_id": 1678,
    "state_code": "62",
    "country_id": 107,
    "country_code": "IT",
    "latitude": "41.72185000",
    "longitude": "12.71809000",
    "wikiDataId": null
  },
  {
    "id": 140744,
    "name": "Nepi",
    "state_id": 1678,
    "state_code": "62",
    "country_id": 107,
    "country_code": "IT",
    "latitude": "42.24221000",
    "longitude": "12.34355000",
    "wikiDataId": null
  },
  {
    "id": 140747,
    "name": "Nerola",
    "state_id": 1678,
    "state_code": "62",
    "country_id": 107,
    "country_code": "IT",
    "latitude": "42.16011000",
    "longitude": "12.78529000",
    "wikiDataId": null
  },
  {
    "id": 140750,
    "name": "Nespolo",
    "state_id": 1678,
    "state_code": "62",
    "country_id": 107,
    "country_code": "IT",
    "latitude": "42.15671000",
    "longitude": "13.06938000",
    "wikiDataId": null
  },
  {
    "id": 140753,
    "name": "Nettuno",
    "state_id": 1678,
    "state_code": "62",
    "country_id": 107,
    "country_code": "IT",
    "latitude": "41.45794000",
    "longitude": "12.66393000",
    "wikiDataId": null
  },
  {
    "id": 140808,
    "name": "Norma",
    "state_id": 1678,
    "state_code": "62",
    "country_id": 107,
    "country_code": "IT",
    "latitude": "41.58643000",
    "longitude": "12.97073000",
    "wikiDataId": null
  },
  {
    "id": 140889,
    "name": "Olevano Romano",
    "state_id": 1678,
    "state_code": "62",
    "country_id": 107,
    "country_code": "IT",
    "latitude": "41.85869000",
    "longitude": "13.03601000",
    "wikiDataId": null
  },
  {
    "id": 140920,
    "name": "Onano",
    "state_id": 1678,
    "state_code": "62",
    "country_id": 107,
    "country_code": "IT",
    "latitude": "42.69104000",
    "longitude": "11.81552000",
    "wikiDataId": null
  },
  {
    "id": 140959,
    "name": "Oriolo Romano",
    "state_id": 1678,
    "state_code": "62",
    "country_id": 107,
    "country_code": "IT",
    "latitude": "42.16261000",
    "longitude": "12.13859000",
    "wikiDataId": null
  },
  {
    "id": 140981,
    "name": "Orte",
    "state_id": 1678,
    "state_code": "62",
    "country_id": 107,
    "country_code": "IT",
    "latitude": "42.46117000",
    "longitude": "12.38635000",
    "wikiDataId": null
  },
  {
    "id": 140982,
    "name": "Orte Scalo",
    "state_id": 1678,
    "state_code": "62",
    "country_id": 107,
    "country_code": "IT",
    "latitude": "42.43483000",
    "longitude": "12.40783000",
    "wikiDataId": null
  },
  {
    "id": 140995,
    "name": "Orvinio",
    "state_id": 1678,
    "state_code": "62",
    "country_id": 107,
    "country_code": "IT",
    "latitude": "42.13039000",
    "longitude": "12.93762000",
    "wikiDataId": null
  },
  {
    "id": 141036,
    "name": "Osteria Nuova",
    "state_id": 1678,
    "state_code": "62",
    "country_id": 107,
    "country_code": "IT",
    "latitude": "42.03721000",
    "longitude": "12.30924000",
    "wikiDataId": null
  },
  {
    "id": 58202,
    "name": "Paganico Sabino",
    "state_id": 1678,
    "state_code": "62",
    "country_id": 107,
    "country_code": "IT",
    "latitude": "42.18963000",
    "longitude": "12.99689000",
    "wikiDataId": null
  },
  {
    "id": 58241,
    "name": "Palestrina",
    "state_id": 1678,
    "state_code": "62",
    "country_id": 107,
    "country_code": "IT",
    "latitude": "41.83274000",
    "longitude": "12.88178000",
    "wikiDataId": null
  },
  {
    "id": 58243,
    "name": "Paliano",
    "state_id": 1678,
    "state_code": "62",
    "country_id": 107,
    "country_code": "IT",
    "latitude": "41.77975000",
    "longitude": "13.07661000",
    "wikiDataId": null
  },
  {
    "id": 58263,
    "name": "Palombara Sabina",
    "state_id": 1678,
    "state_code": "62",
    "country_id": 107,
    "country_code": "IT",
    "latitude": "42.06909000",
    "longitude": "12.76684000",
    "wikiDataId": null
  },
  {
    "id": 58299,
    "name": "Parco Leonardo",
    "state_id": 1678,
    "state_code": "62",
    "country_id": 107,
    "country_code": "IT",
    "latitude": "41.80035000",
    "longitude": "12.30028000",
    "wikiDataId": null
  },
  {
    "id": 58335,
    "name": "Passoscuro",
    "state_id": 1678,
    "state_code": "62",
    "country_id": 107,
    "country_code": "IT",
    "latitude": "41.90209000",
    "longitude": "12.15723000",
    "wikiDataId": null
  },
  {
    "id": 58337,
    "name": "Pastena",
    "state_id": 1678,
    "state_code": "62",
    "country_id": 107,
    "country_code": "IT",
    "latitude": "41.46842000",
    "longitude": "13.49111000",
    "wikiDataId": null
  },
  {
    "id": 58348,
    "name": "Patrica",
    "state_id": 1678,
    "state_code": "62",
    "country_id": 107,
    "country_code": "IT",
    "latitude": "41.59085000",
    "longitude": "13.24363000",
    "wikiDataId": null
  },
  {
    "id": 58362,
    "name": "Pavona",
    "state_id": 1678,
    "state_code": "62",
    "country_id": 107,
    "country_code": "IT",
    "latitude": "41.72629000",
    "longitude": "12.61642000",
    "wikiDataId": null
  },
  {
    "id": 58401,
    "name": "Penitro",
    "state_id": 1678,
    "state_code": "62",
    "country_id": 107,
    "country_code": "IT",
    "latitude": "41.27328000",
    "longitude": "13.69262000",
    "wikiDataId": null
  },
  {
    "id": 58414,
    "name": "Percile",
    "state_id": 1678,
    "state_code": "62",
    "country_id": 107,
    "country_code": "IT",
    "latitude": "42.09497000",
    "longitude": "12.91048000",
    "wikiDataId": null
  },
  {
    "id": 58458,
    "name": "Pescia Romana",
    "state_id": 1678,
    "state_code": "62",
    "country_id": 107,
    "country_code": "IT",
    "latitude": "42.39963000",
    "longitude": "11.49651000",
    "wikiDataId": null
  },
  {
    "id": 58465,
    "name": "Pescorocchiano",
    "state_id": 1678,
    "state_code": "62",
    "country_id": 107,
    "country_code": "IT",
    "latitude": "42.20623000",
    "longitude": "13.14715000",
    "wikiDataId": null
  },
  {
    "id": 58467,
    "name": "Pescosolido",
    "state_id": 1678,
    "state_code": "62",
    "country_id": 107,
    "country_code": "IT",
    "latitude": "41.74864000",
    "longitude": "13.65690000",
    "wikiDataId": null
  },
  {
    "id": 58479,
    "name": "Petrella Salto",
    "state_id": 1678,
    "state_code": "62",
    "country_id": 107,
    "country_code": "IT",
    "latitude": "42.29405000",
    "longitude": "13.06794000",
    "wikiDataId": null
  },
  {
    "id": 58551,
    "name": "Piansano",
    "state_id": 1678,
    "state_code": "62",
    "country_id": 107,
    "country_code": "IT",
    "latitude": "42.52449000",
    "longitude": "11.82978000",
    "wikiDataId": null
  },
  {
    "id": 58581,
    "name": "Picinisco",
    "state_id": 1678,
    "state_code": "62",
    "country_id": 107,
    "country_code": "IT",
    "latitude": "41.64568000",
    "longitude": "13.86791000",
    "wikiDataId": null
  },
  {
    "id": 58582,
    "name": "Pico",
    "state_id": 1678,
    "state_code": "62",
    "country_id": 107,
    "country_code": "IT",
    "latitude": "41.45025000",
    "longitude": "13.55894000",
    "wikiDataId": null
  },
  {
    "id": 58591,
    "name": "Piedimonte San Germano",
    "state_id": 1678,
    "state_code": "62",
    "country_id": 107,
    "country_code": "IT",
    "latitude": "41.49796000",
    "longitude": "13.75017000",
    "wikiDataId": null
  },
  {
    "id": 58592,
    "name": "Piedimonte San Germano Alta",
    "state_id": 1678,
    "state_code": "62",
    "country_id": 107,
    "country_code": "IT",
    "latitude": "41.50446000",
    "longitude": "13.74909000",
    "wikiDataId": null
  },
  {
    "id": 58659,
    "name": "Piglio",
    "state_id": 1678,
    "state_code": "62",
    "country_id": 107,
    "country_code": "IT",
    "latitude": "41.83006000",
    "longitude": "13.13330000",
    "wikiDataId": null
  },
  {
    "id": 58661,
    "name": "Pignataro Interamna",
    "state_id": 1678,
    "state_code": "62",
    "country_id": 107,
    "country_code": "IT",
    "latitude": "41.43922000",
    "longitude": "13.78621000",
    "wikiDataId": null
  },
  {
    "id": 58712,
    "name": "Pisoniano",
    "state_id": 1678,
    "state_code": "62",
    "country_id": 107,
    "country_code": "IT",
    "latitude": "41.90816000",
    "longitude": "12.95794000",
    "wikiDataId": null
  },
  {
    "id": 58746,
    "name": "Pofi",
    "state_id": 1678,
    "state_code": "62",
    "country_id": 107,
    "country_code": "IT",
    "latitude": "41.56542000",
    "longitude": "13.41460000",
    "wikiDataId": null
  },
  {
    "id": 58752,
    "name": "Poggio Bustone",
    "state_id": 1678,
    "state_code": "62",
    "country_id": 107,
    "country_code": "IT",
    "latitude": "42.50330000",
    "longitude": "12.88524000",
    "wikiDataId": null
  },
  {
    "id": 58753,
    "name": "Poggio Catino",
    "state_id": 1678,
    "state_code": "62",
    "country_id": 107,
    "country_code": "IT",
    "latitude": "42.29420000",
    "longitude": "12.69838000",
    "wikiDataId": null
  },
  {
    "id": 58754,
    "name": "Poggio Ellera",
    "state_id": 1678,
    "state_code": "62",
    "country_id": 107,
    "country_code": "IT",
    "latitude": "42.11380000",
    "longitude": "12.37174000",
    "wikiDataId": null
  },
  {
    "id": 58756,
    "name": "Poggio Mirteto",
    "state_id": 1678,
    "state_code": "62",
    "country_id": 107,
    "country_code": "IT",
    "latitude": "42.26763000",
    "longitude": "12.68837000",
    "wikiDataId": null
  },
  {
    "id": 58757,
    "name": "Poggio Moiano",
    "state_id": 1678,
    "state_code": "62",
    "country_id": 107,
    "country_code": "IT",
    "latitude": "42.20411000",
    "longitude": "12.88136000",
    "wikiDataId": null
  },
  {
    "id": 58758,
    "name": "Poggio Nativo",
    "state_id": 1678,
    "state_code": "62",
    "country_id": 107,
    "country_code": "IT",
    "latitude": "42.21783000",
    "longitude": "12.79691000",
    "wikiDataId": null
  },
  {
    "id": 58762,
    "name": "Poggio San Lorenzo",
    "state_id": 1678,
    "state_code": "62",
    "country_id": 107,
    "country_code": "IT",
    "latitude": "42.25174000",
    "longitude": "12.84343000",
    "wikiDataId": null
  },
  {
    "id": 58786,
    "name": "Poli",
    "state_id": 1678,
    "state_code": "62",
    "country_id": 107,
    "country_code": "IT",
    "latitude": "41.88913000",
    "longitude": "12.89037000",
    "wikiDataId": null
  },
  {
    "id": 58815,
    "name": "Pomezia",
    "state_id": 1678,
    "state_code": "62",
    "country_id": 107,
    "country_code": "IT",
    "latitude": "41.66931000",
    "longitude": "12.50124000",
    "wikiDataId": null
  },
  {
    "id": 58840,
    "name": "Ponte Galeria-La Pisana",
    "state_id": 1678,
    "state_code": "62",
    "country_id": 107,
    "country_code": "IT",
    "latitude": "41.84634000",
    "longitude": "12.33925000",
    "wikiDataId": null
  },
  {
    "id": 58866,
    "name": "Pontecorvo",
    "state_id": 1678,
    "state_code": "62",
    "country_id": 107,
    "country_code": "IT",
    "latitude": "41.45861000",
    "longitude": "13.66618000",
    "wikiDataId": null
  },
  {
    "id": 58888,
    "name": "Pontinia",
    "state_id": 1678,
    "state_code": "62",
    "country_id": 107,
    "country_code": "IT",
    "latitude": "41.41097000",
    "longitude": "13.04259000",
    "wikiDataId": null
  },
  {
    "id": 58892,
    "name": "Ponton dell'Elce",
    "state_id": 1678,
    "state_code": "62",
    "country_id": 107,
    "country_code": "IT",
    "latitude": "42.02270000",
    "longitude": "12.23505000",
    "wikiDataId": null
  },
  {
    "id": 58894,
    "name": "Ponza",
    "state_id": 1678,
    "state_code": "62",
    "country_id": 107,
    "country_code": "IT",
    "latitude": "40.89541000",
    "longitude": "12.95889000",
    "wikiDataId": null
  },
  {
    "id": 58897,
    "name": "Ponzano Romano",
    "state_id": 1678,
    "state_code": "62",
    "country_id": 107,
    "country_code": "IT",
    "latitude": "42.25693000",
    "longitude": "12.57047000",
    "wikiDataId": null
  },
  {
    "id": 58958,
    "name": "Posta",
    "state_id": 1678,
    "state_code": "62",
    "country_id": 107,
    "country_code": "IT",
    "latitude": "42.52562000",
    "longitude": "13.09723000",
    "wikiDataId": null
  },
  {
    "id": 58959,
    "name": "Posta Fibreno",
    "state_id": 1678,
    "state_code": "62",
    "country_id": 107,
    "country_code": "IT",
    "latitude": "41.69189000",
    "longitude": "13.68013000",
    "wikiDataId": null
  },
  {
    "id": 58975,
    "name": "Pozzaglia Sabino",
    "state_id": 1678,
    "state_code": "62",
    "country_id": 107,
    "country_code": "IT",
    "latitude": "42.15863000",
    "longitude": "12.96428000",
    "wikiDataId": null
  },
  {
    "id": 59032,
    "name": "Prato di Coppola",
    "state_id": 1678,
    "state_code": "62",
    "country_id": 107,
    "country_code": "IT",
    "latitude": "41.41750000",
    "longitude": "12.88157000",
    "wikiDataId": null
  },
  {
    "id": 59083,
    "name": "Priverno",
    "state_id": 1678,
    "state_code": "62",
    "country_id": 107,
    "country_code": "IT",
    "latitude": "41.47047000",
    "longitude": "13.17867000",
    "wikiDataId": null
  },
  {
    "id": 59085,
    "name": "Proceno",
    "state_id": 1678,
    "state_code": "62",
    "country_id": 107,
    "country_code": "IT",
    "latitude": "42.75745000",
    "longitude": "11.82900000",
    "wikiDataId": null
  },
  {
    "id": 59094,
    "name": "Prossedi",
    "state_id": 1678,
    "state_code": "62",
    "country_id": 107,
    "country_code": "IT",
    "latitude": "41.51674000",
    "longitude": "13.26100000",
    "wikiDataId": null
  },
  {
    "id": 59133,
    "name": "Provincia di Frosinone",
    "state_id": 1678,
    "state_code": "62",
    "country_id": 107,
    "country_code": "IT",
    "latitude": "41.61667000",
    "longitude": "13.45000000",
    "wikiDataId": null
  },
  {
    "id": 59140,
    "name": "Provincia di Latina",
    "state_id": 1678,
    "state_code": "62",
    "country_id": 107,
    "country_code": "IT",
    "latitude": "41.45000000",
    "longitude": "13.10000000",
    "wikiDataId": null
  },
  {
    "id": 59169,
    "name": "Provincia di Rieti",
    "state_id": 1678,
    "state_code": "62",
    "country_id": 107,
    "country_code": "IT",
    "latitude": "42.39133000",
    "longitude": "12.95072000",
    "wikiDataId": null
  },
  {
    "id": 59190,
    "name": "Provincia di Viterbo",
    "state_id": 1678,
    "state_code": "62",
    "country_id": 107,
    "country_code": "IT",
    "latitude": "42.41667000",
    "longitude": "12.08333000",
    "wikiDataId": null
  },
  {
    "id": 59324,
    "name": "Regolelli",
    "state_id": 1678,
    "state_code": "62",
    "country_id": 107,
    "country_code": "IT",
    "latitude": "42.29315000",
    "longitude": "12.35131000",
    "wikiDataId": null
  },
  {
    "id": 59357,
    "name": "Riano",
    "state_id": 1678,
    "state_code": "62",
    "country_id": 107,
    "country_code": "IT",
    "latitude": "42.09347000",
    "longitude": "12.51462000",
    "wikiDataId": null
  },
  {
    "id": 59374,
    "name": "Rieti",
    "state_id": 1678,
    "state_code": "62",
    "country_id": 107,
    "country_code": "IT",
    "latitude": "42.40476000",
    "longitude": "12.85735000",
    "wikiDataId": null
  },
  {
    "id": 59377,
    "name": "Rignano Flaminio",
    "state_id": 1678,
    "state_code": "62",
    "country_id": 107,
    "country_code": "IT",
    "latitude": "42.20550000",
    "longitude": "12.48068000",
    "wikiDataId": null
  },
  {
    "id": 59391,
    "name": "Riofreddo",
    "state_id": 1678,
    "state_code": "62",
    "country_id": 107,
    "country_code": "IT",
    "latitude": "42.05875000",
    "longitude": "12.99661000",
    "wikiDataId": null
  },
  {
    "id": 59411,
    "name": "Ripi",
    "state_id": 1678,
    "state_code": "62",
    "country_id": 107,
    "country_code": "IT",
    "latitude": "41.61366000",
    "longitude": "13.42400000",
    "wikiDataId": null
  },
  {
    "id": 59440,
    "name": "Rivodutri",
    "state_id": 1678,
    "state_code": "62",
    "country_id": 107,
    "country_code": "IT",
    "latitude": "42.51684000",
    "longitude": "12.85595000",
    "wikiDataId": null
  },
  {
    "id": 59466,
    "name": "Rocca Canterano",
    "state_id": 1678,
    "state_code": "62",
    "country_id": 107,
    "country_code": "IT",
    "latitude": "41.95652000",
    "longitude": "13.02179000",
    "wikiDataId": null
  },
  {
    "id": 59482,
    "name": "Rocca d'Arce",
    "state_id": 1678,
    "state_code": "62",
    "country_id": 107,
    "country_code": "IT",
    "latitude": "41.58712000",
    "longitude": "13.58511000",
    "wikiDataId": null
  },
  {
    "id": 59486,
    "name": "Rocca di Cave",
    "state_id": 1678,
    "state_code": "62",
    "country_id": 107,
    "country_code": "IT",
    "latitude": "41.84589000",
    "longitude": "12.94509000",
    "wikiDataId": null
  },
  {
    "id": 59489,
    "name": "Rocca di Papa",
    "state_id": 1678,
    "state_code": "62",
    "country_id": 107,
    "country_code": "IT",
    "latitude": "41.76580000",
    "longitude": "12.70188000",
    "wikiDataId": null
  },
  {
    "id": 59472,
    "name": "Rocca Massima",
    "state_id": 1678,
    "state_code": "62",
    "country_id": 107,
    "country_code": "IT",
    "latitude": "41.67907000",
    "longitude": "12.92116000",
    "wikiDataId": null
  },
  {
    "id": 59475,
    "name": "Rocca Priora",
    "state_id": 1678,
    "state_code": "62",
    "country_id": 107,
    "country_code": "IT",
    "latitude": "41.76585000",
    "longitude": "12.76577000",
    "wikiDataId": null
  },
  {
    "id": 59479,
    "name": "Rocca Santo Stefano",
    "state_id": 1678,
    "state_code": "62",
    "country_id": 107,
    "country_code": "IT",
    "latitude": "41.91052000",
    "longitude": "13.02379000",
    "wikiDataId": null
  },
  {
    "id": 59480,
    "name": "Rocca Sinibalda",
    "state_id": 1678,
    "state_code": "62",
    "country_id": 107,
    "country_code": "IT",
    "latitude": "42.27215000",
    "longitude": "12.92469000",
    "wikiDataId": null
  },
  {
    "id": 59502,
    "name": "Roccagiovine",
    "state_id": 1678,
    "state_code": "62",
    "country_id": 107,
    "country_code": "IT",
    "latitude": "42.05069000",
    "longitude": "12.89925000",
    "wikiDataId": null
  },
  {
    "id": 59504,
    "name": "Roccagorga",
    "state_id": 1678,
    "state_code": "62",
    "country_id": 107,
    "country_code": "IT",
    "latitude": "41.52511000",
    "longitude": "13.15510000",
    "wikiDataId": null
  },
  {
    "id": 59512,
    "name": "Roccantica",
    "state_id": 1678,
    "state_code": "62",
    "country_id": 107,
    "country_code": "IT",
    "latitude": "42.32073000",
    "longitude": "12.69398000",
    "wikiDataId": null
  },
  {
    "id": 59519,
    "name": "Roccasecca",
    "state_id": 1678,
    "state_code": "62",
    "country_id": 107,
    "country_code": "IT",
    "latitude": "41.55132000",
    "longitude": "13.66711000",
    "wikiDataId": null
  },
  {
    "id": 59521,
    "name": "Roccasecca dei Volsci",
    "state_id": 1678,
    "state_code": "62",
    "country_id": 107,
    "country_code": "IT",
    "latitude": "41.47852000",
    "longitude": "13.21280000",
    "wikiDataId": null
  },
  {
    "id": 59520,
    "name": "Roccasecca Stazione",
    "state_id": 1678,
    "state_code": "62",
    "country_id": 107,
    "country_code": "IT",
    "latitude": "41.53333000",
    "longitude": "13.65000000",
    "wikiDataId": null
  },
  {
    "id": 59566,
    "name": "Roiate",
    "state_id": 1678,
    "state_code": "62",
    "country_id": 107,
    "country_code": "IT",
    "latitude": "41.87332000",
    "longitude": "13.06627000",
    "wikiDataId": null
  },
  {
    "id": 59582,
    "name": "Rome",
    "state_id": 1678,
    "state_code": "62",
    "country_id": 107,
    "country_code": "IT",
    "latitude": "41.89193000",
    "longitude": "12.51133000",
    "wikiDataId": null
  },
  {
    "id": 59599,
    "name": "Ronciglione",
    "state_id": 1678,
    "state_code": "62",
    "country_id": 107,
    "country_code": "IT",
    "latitude": "42.28899000",
    "longitude": "12.21479000",
    "wikiDataId": null
  },
  {
    "id": 59684,
    "name": "Roviano",
    "state_id": 1678,
    "state_code": "62",
    "country_id": 107,
    "country_code": "IT",
    "latitude": "42.02643000",
    "longitude": "12.99390000",
    "wikiDataId": null
  },
  {
    "id": 59711,
    "name": "Sabaudia",
    "state_id": 1678,
    "state_code": "62",
    "country_id": 107,
    "country_code": "IT",
    "latitude": "41.30025000",
    "longitude": "13.02815000",
    "wikiDataId": null
  },
  {
    "id": 59721,
    "name": "Sacrofano",
    "state_id": 1678,
    "state_code": "62",
    "country_id": 107,
    "country_code": "IT",
    "latitude": "42.10457000",
    "longitude": "12.44781000",
    "wikiDataId": null
  },
  {
    "id": 59774,
    "name": "Salisano",
    "state_id": 1678,
    "state_code": "62",
    "country_id": 107,
    "country_code": "IT",
    "latitude": "42.25947000",
    "longitude": "12.74774000",
    "wikiDataId": null
  },
  {
    "id": 59807,
    "name": "Sambuci",
    "state_id": 1678,
    "state_code": "62",
    "country_id": 107,
    "country_code": "IT",
    "latitude": "41.98536000",
    "longitude": "12.93817000",
    "wikiDataId": null
  },
  {
    "id": 59817,
    "name": "San Bartolomeo",
    "state_id": 1678,
    "state_code": "62",
    "country_id": 107,
    "country_code": "IT",
    "latitude": "41.48265000",
    "longitude": "13.85747000",
    "wikiDataId": null
  },
  {
    "id": 59842,
    "name": "San Biagio Saracinisco",
    "state_id": 1678,
    "state_code": "62",
    "country_id": 107,
    "country_code": "IT",
    "latitude": "41.61322000",
    "longitude": "13.92758000",
    "wikiDataId": null
  },
  {
    "id": 59863,
    "name": "San Cesareo",
    "state_id": 1678,
    "state_code": "62",
    "country_id": 107,
    "country_code": "IT",
    "latitude": "41.82113000",
    "longitude": "12.80447000",
    "wikiDataId": null
  },
  {
    "id": 59897,
    "name": "San Donato Val di Comino",
    "state_id": 1678,
    "state_code": "62",
    "country_id": 107,
    "country_code": "IT",
    "latitude": "41.70726000",
    "longitude": "13.81220000",
    "wikiDataId": null
  },
  {
    "id": 59909,
    "name": "San Felice Circeo",
    "state_id": 1678,
    "state_code": "62",
    "country_id": 107,
    "country_code": "IT",
    "latitude": "41.23716000",
    "longitude": "13.09416000",
    "wikiDataId": null
  },
  {
    "id": 59964,
    "name": "San Giorgio a Liri",
    "state_id": 1678,
    "state_code": "62",
    "country_id": 107,
    "country_code": "IT",
    "latitude": "41.40584000",
    "longitude": "13.75979000",
    "wikiDataId": null
  },
  {
    "id": 59985,
    "name": "San Giovanni Incarico",
    "state_id": 1678,
    "state_code": "62",
    "country_id": 107,
    "country_code": "IT",
    "latitude": "41.50001000",
    "longitude": "13.55864000",
    "wikiDataId": null
  },
  {
    "id": 60002,
    "name": "San Giovanni-Patoni",
    "state_id": 1678,
    "state_code": "62",
    "country_id": 107,
    "country_code": "IT",
    "latitude": "41.77223000",
    "longitude": "13.27510000",
    "wikiDataId": null
  },
  {
    "id": 60014,
    "name": "San Giuseppe le Prata-Cotropagno",
    "state_id": 1678,
    "state_code": "62",
    "country_id": 107,
    "country_code": "IT",
    "latitude": "41.67788000",
    "longitude": "13.39664000",
    "wikiDataId": null
  },
  {
    "id": 60023,
    "name": "San Gregorio da Sassola",
    "state_id": 1678,
    "state_code": "62",
    "country_id": 107,
    "country_code": "IT",
    "latitude": "41.91881000",
    "longitude": "12.87447000",
    "wikiDataId": null
  },
  {
    "id": 60043,
    "name": "San Lorenzo Nuovo",
    "state_id": 1678,
    "state_code": "62",
    "country_id": 107,
    "country_code": "IT",
    "latitude": "42.68626000",
    "longitude": "11.90718000",
    "wikiDataId": null
  },
  {
    "id": 60079,
    "name": "San Martino al Cimino",
    "state_id": 1678,
    "state_code": "62",
    "country_id": 107,
    "country_code": "IT",
    "latitude": "42.36978000",
    "longitude": "12.12515000",
    "wikiDataId": null
  },
  {
    "id": 60206,
    "name": "San Polo dei Cavalieri",
    "state_id": 1678,
    "state_code": "62",
    "country_id": 107,
    "country_code": "IT",
    "latitude": "42.01037000",
    "longitude": "12.83989000",
    "wikiDataId": null
  },
  {
    "id": 60277,
    "name": "San Vito Romano",
    "state_id": 1678,
    "state_code": "62",
    "country_id": 107,
    "country_code": "IT",
    "latitude": "41.88001000",
    "longitude": "12.97793000",
    "wikiDataId": null
  },
  {
    "id": 60288,
    "name": "San Vittore del Lazio",
    "state_id": 1678,
    "state_code": "62",
    "country_id": 107,
    "country_code": "IT",
    "latitude": "41.46212000",
    "longitude": "13.93367000",
    "wikiDataId": null
  },
  {
    "id": 60339,
    "name": "Sant'Ambrogio sul Garigliano",
    "state_id": 1678,
    "state_code": "62",
    "country_id": 107,
    "country_code": "IT",
    "latitude": "41.39423000",
    "longitude": "13.86891000",
    "wikiDataId": null
  },
  {
    "id": 60347,
    "name": "Sant'Andrea del Garigliano",
    "state_id": 1678,
    "state_code": "62",
    "country_id": 107,
    "country_code": "IT",
    "latitude": "41.36868000",
    "longitude": "13.84198000",
    "wikiDataId": null
  },
  {
    "id": 60371,
    "name": "Sant'Angelo in Villa-Giglio",
    "state_id": 1678,
    "state_code": "62",
    "country_id": 107,
    "country_code": "IT",
    "latitude": "41.66217000",
    "longitude": "13.42871000",
    "wikiDataId": null
  },
  {
    "id": 60361,
    "name": "Sant'Angelo Romano",
    "state_id": 1678,
    "state_code": "62",
    "country_id": 107,
    "country_code": "IT",
    "latitude": "42.03570000",
    "longitude": "12.71342000",
    "wikiDataId": null
  },
  {
    "id": 60385,
    "name": "Sant'Apollinare",
    "state_id": 1678,
    "state_code": "62",
    "country_id": 107,
    "country_code": "IT",
    "latitude": "41.40176000",
    "longitude": "13.82992000",
    "wikiDataId": null
  },
  {
    "id": 60397,
    "name": "Sant'Elia Fiumerapido",
    "state_id": 1678,
    "state_code": "62",
    "country_id": 107,
    "country_code": "IT",
    "latitude": "41.53304000",
    "longitude": "13.86268000",
    "wikiDataId": null
  },
  {
    "id": 60410,
    "name": "Sant'Oreste",
    "state_id": 1678,
    "state_code": "62",
    "country_id": 107,
    "country_code": "IT",
    "latitude": "42.23298000",
    "longitude": "12.51507000",
    "wikiDataId": null
  },
  {
    "id": 60446,
    "name": "Santa Lucia",
    "state_id": 1678,
    "state_code": "62",
    "country_id": 107,
    "country_code": "IT",
    "latitude": "41.98240000",
    "longitude": "12.65625000",
    "wikiDataId": null
  },
  {
    "id": 60484,
    "name": "Santa Marinella",
    "state_id": 1678,
    "state_code": "62",
    "country_id": 107,
    "country_code": "IT",
    "latitude": "42.03425000",
    "longitude": "11.85416000",
    "wikiDataId": null
  },
  {
    "id": 60489,
    "name": "Santa Rufina",
    "state_id": 1678,
    "state_code": "62",
    "country_id": 107,
    "country_code": "IT",
    "latitude": "42.40897000",
    "longitude": "12.91843000",
    "wikiDataId": null
  },
  {
    "id": 60509,
    "name": "Santi Cosma e Damiano",
    "state_id": 1678,
    "state_code": "62",
    "country_id": 107,
    "country_code": "IT",
    "latitude": "41.30091000",
    "longitude": "13.81565000",
    "wikiDataId": null
  },
  {
    "id": 60529,
    "name": "Santopadre",
    "state_id": 1678,
    "state_code": "62",
    "country_id": 107,
    "country_code": "IT",
    "latitude": "41.60193000",
    "longitude": "13.63548000",
    "wikiDataId": null
  },
  {
    "id": 60540,
    "name": "Saracinesco",
    "state_id": 1678,
    "state_code": "62",
    "country_id": 107,
    "country_code": "IT",
    "latitude": "42.00332000",
    "longitude": "12.95329000",
    "wikiDataId": null
  },
  {
    "id": 60566,
    "name": "Sassacci",
    "state_id": 1678,
    "state_code": "62",
    "country_id": 107,
    "country_code": "IT",
    "latitude": "42.32342000",
    "longitude": "12.44108000",
    "wikiDataId": null
  },
  {
    "id": 60620,
    "name": "Scandriglia",
    "state_id": 1678,
    "state_code": "62",
    "country_id": 107,
    "country_code": "IT",
    "latitude": "42.16128000",
    "longitude": "12.84096000",
    "wikiDataId": null
  },