[
  {
    "id": 88953,
    "name": "Alter do Chão",
    "state_id": 2232,
    "state_code": "12",
    "country_id": 177,
    "country_code": "PT",
    "latitude": "39.23098000",
    "longitude": "-7.74430000",
    "wikiDataId": null
  },
  {
    "id": 88995,
    "name": "Arronches",
    "state_id": 2232,
    "state_code": "12",
    "country_id": 177,
    "country_code": "PT",
    "latitude": "39.12242000",
    "longitude": "-7.28619000",
    "wikiDataId": null
  },
  {
    "id": 88999,
    "name": "Atalaia",
    "state_id": 2232,
    "state_code": "12",
    "country_id": 177,
    "country_code": "PT",
    "latitude": "39.45551000",
    "longitude": "-7.87295000",
    "wikiDataId": null
  },
  {
    "id": 89008,
    "name": "Avis",
    "state_id": 2232,
    "state_code": "12",
    "country_id": 177,
    "country_code": "PT",
    "latitude": "39.06448000",
    "longitude": "-7.89560000",
    "wikiDataId": null
  },
  {
    "id": 89078,
    "name": "Campo Maior",
    "state_id": 2232,
    "state_code": "12",
    "country_id": 177,
    "country_code": "PT",
    "latitude": "39.02935000",
    "longitude": "-7.06479000",
    "wikiDataId": null
  },
  {
    "id": 89107,
    "name": "Castelo de Vide",
    "state_id": 2232,
    "state_code": "12",
    "country_id": 177,
    "country_code": "PT",
    "latitude": "39.41624000",
    "longitude": "-7.45680000",
    "wikiDataId": null
  },
  {
    "id": 89134,
    "name": "Crato",
    "state_id": 2232,
    "state_code": "12",
    "country_id": 177,
    "country_code": "PT",
    "latitude": "39.28657000",
    "longitude": "-7.64408000",
    "wikiDataId": null
  },
  {
    "id": 89142,
    "name": "Elvas",
    "state_id": 2232,
    "state_code": "12",
    "country_id": 177,
    "country_code": "PT",
    "latitude": "38.88150000",
    "longitude": "-7.16282000",
    "wikiDataId": null
  },
  {
    "id": 89195,
    "name": "Fronteira",
    "state_id": 2232,
    "state_code": "12",
    "country_id": 177,
    "country_code": "PT",
    "latitude": "39.07179000",
    "longitude": "-7.61052000",
    "wikiDataId": null
  },
  {
    "id": 89208,
    "name": "Gavião",
    "state_id": 2232,
    "state_code": "12",
    "country_id": 177,
    "country_code": "PT",
    "latitude": "39.44462000",
    "longitude": "-7.89532000",
    "wikiDataId": null
  },
  {
    "id": 89282,
    "name": "Marvão",
    "state_id": 2232,
    "state_code": "12",
    "country_id": 177,
    "country_code": "PT",
    "latitude": "39.39377000",
    "longitude": "-7.37663000",
    "wikiDataId": null
  },
  {
    "id": 89314,
    "name": "Monforte",
    "state_id": 2232,
    "state_code": "12",
    "country_id": 177,
    "country_code": "PT",
    "latitude": "39.04960000",
    "longitude": "-7.44428000",
    "wikiDataId": null
  },
  {
    "id": 89319,
    "name": "Montargil",
    "state_id": 2232,
    "state_code": "12",
    "country_id": 177,
    "country_code": "PT",
    "latitude": "39.07771000",
    "longitude": "-8.17044000",
    "wikiDataId": null
  },
  {
    "id": 89347,
    "name": "Nisa",
    "state_id": 2232,
    "state_code": "12",
    "country_id": 177,
    "country_code": "PT",
    "latitude": "39.51828000",
    "longitude": "-7.67496000",
    "wikiDataId": null
  },
  {
    "id": 89418,
    "name": "Ponte de Sor",
    "state_id": 2232,
    "state_code": "12",
    "country_id": 177,
    "country_code": "PT",
    "latitude": "39.21441000",
    "longitude": "-8.05420000",
    "wikiDataId": null
  },
  {
    "id": 89422,
    "name": "Portalegre",
    "state_id": 2232,
    "state_code": "12",
    "country_id": 177,
    "country_code": "PT",
    "latitude": "39.29740000",
    "longitude": "-7.41538000",
    "wikiDataId": null
  },
  {
    "id": 89513,
    "name": "Santo André",
    "state_id": 2232,
    "state_code": "12",
    "country_id": 177,
    "country_code": "PT",
    "latitude": "39.05532000",
    "longitude": "-8.24414000",
    "wikiDataId": null
  },
  {
    "id": 89553,
    "name": "Sousel",
    "state_id": 2232,
    "state_code": "12",
    "country_id": 177,
    "country_code": "PT",
    "latitude": "38.96685000",
    "longitude": "-7.71788000",
    "wikiDataId": null
  },
  {
    "id": 89624,
    "name": "Vale da Amoreira",
    "state_id": 2232,
    "state_code": "12",
    "country_id": 177,
    "country_code": "PT",
    "latitude": "39.06969000",
    "longitude": "-7.69849000",
    "wikiDataId": null
  }
]