[
  {
    "id": 89878,
    "name": "Acâş",
    "state_id": 4746,
    "state_code": "SM",
    "country_id": 181,
    "country_code": "RO",
    "latitude": "47.53333000",
    "longitude": "22.78333000",
    "wikiDataId": null
  },
  {
    "id": 89901,
    "name": "Agriș",
    "state_id": 4746,
    "state_code": "SM",
    "country_id": 181,
    "country_code": "RO",
    "latitude": "47.88075000",
    "longitude": "23.00340000",
    "wikiDataId": null
  },
  {
    "id": 89957,
    "name": "Andrid",
    "state_id": 4746,
    "state_code": "SM",
    "country_id": 181,
    "country_code": "RO",
    "latitude": "47.51667000",
    "longitude": "22.35000000",
    "wikiDataId": null
  },
  {
    "id": 89967,
    "name": "Apa",
    "state_id": 4746,
    "state_code": "SM",
    "country_id": 181,
    "country_code": "RO",
    "latitude": "47.76667000",
    "longitude": "23.20000000",
    "wikiDataId": null
  },
  {
    "id": 89983,
    "name": "Ardud",
    "state_id": 4746,
    "state_code": "SM",
    "country_id": 181,
    "country_code": "RO",
    "latitude": "47.63986250",
    "longitude": "22.88933500",
    "wikiDataId": null
  },
  {
    "id": 90020,
    "name": "Babța",
    "state_id": 4746,
    "state_code": "SM",
    "country_id": 181,
    "country_code": "RO",
    "latitude": "47.45778000",
    "longitude": "22.94283000",
    "wikiDataId": null
  },
  {
    "id": 90458,
    "name": "Bârsău de Sus",
    "state_id": 4746,
    "state_code": "SM",
    "country_id": 181,
    "country_code": "RO",
    "latitude": "47.60000000",
    "longitude": "23.21667000",
    "wikiDataId": null
  },
  {
    "id": 90551,
    "name": "Bătarci",
    "state_id": 4746,
    "state_code": "SM",
    "country_id": 181,
    "country_code": "RO",
    "latitude": "48.03333000",
    "longitude": "23.16667000",
    "wikiDataId": null
  },
  {
    "id": 90092,
    "name": "Beltiug",
    "state_id": 4746,
    "state_code": "SM",
    "country_id": 181,
    "country_code": "RO",
    "latitude": "47.55000000",
    "longitude": "22.85000000",
    "wikiDataId": null
  },
  {
    "id": 90116,
    "name": "Berveni",
    "state_id": 4746,
    "state_code": "SM",
    "country_id": 181,
    "country_code": "RO",
    "latitude": "47.75000000",
    "longitude": "22.46667000",
    "wikiDataId": null
  },
  {
    "id": 90154,
    "name": "Bixad",
    "state_id": 4746,
    "state_code": "SM",
    "country_id": 181,
    "country_code": "RO",
    "latitude": "47.93333000",
    "longitude": "23.40000000",
    "wikiDataId": null
  },
  {
    "id": 90190,
    "name": "Bogdand",
    "state_id": 4746,
    "state_code": "SM",
    "country_id": 181,
    "country_code": "RO",
    "latitude": "47.41667000",
    "longitude": "22.93333000",
    "wikiDataId": null
  },
  {
    "id": 90204,
    "name": "Boinești",
    "state_id": 4746,
    "state_code": "SM",
    "country_id": 181,
    "country_code": "RO",
    "latitude": "47.91567000",
    "longitude": "23.35117000",
    "wikiDataId": null
  },
  {
    "id": 90244,
    "name": "Botiz",
    "state_id": 4746,
    "state_code": "SM",
    "country_id": 181,
    "country_code": "RO",
    "latitude": "47.83333000",
    "longitude": "22.95000000",
    "wikiDataId": null
  },
  {
    "id": 93840,
    "name": "Călineşti-Oaş",
    "state_id": 4746,
    "state_code": "SM",
    "country_id": 181,
    "country_code": "RO",
    "latitude": "47.90000000",
    "longitude": "23.30000000",
    "wikiDataId": null
  },
  {
    "id": 93855,
    "name": "Cămărzana",
    "state_id": 4746,
    "state_code": "SM",
    "country_id": 181,
    "country_code": "RO",
    "latitude": "48.00000000",
    "longitude": "23.31667000",
    "wikiDataId": null
  },
  {
    "id": 93853,
    "name": "Cămin",
    "state_id": 4746,
    "state_code": "SM",
    "country_id": 181,
    "country_code": "RO",
    "latitude": "47.72836060",
    "longitude": "22.47987390",
    "wikiDataId": null
  },
  {
    "id": 93858,
    "name": "Căpleni",
    "state_id": 4746,
    "state_code": "SM",
    "country_id": 181,
    "country_code": "RO",
    "latitude": "47.71667000",
    "longitude": "22.50000000",
    "wikiDataId": null
  },
  {
    "id": 93872,
    "name": "Cărășeu",
    "state_id": 4746,
    "state_code": "SM",
    "country_id": 181,
    "country_code": "RO",
    "latitude": "47.74126000",
    "longitude": "23.09798000",
    "wikiDataId": null
  },
  {
    "id": 90580,
    "name": "Carei",
    "state_id": 4746,
    "state_code": "SM",
    "country_id": 181,
    "country_code": "RO",
    "latitude": "47.68333000",
    "longitude": "22.46667000",
    "wikiDataId": null
  },
  {
    "id": 93882,
    "name": "Căuaş",
    "state_id": 4746,
    "state_code": "SM",
    "country_id": 181,
    "country_code": "RO",
    "latitude": "47.56667000",
    "longitude": "22.55000000",
    "wikiDataId": null
  },
  {
    "id": 90608,
    "name": "Cehal",
    "state_id": 4746,
    "state_code": "SM",
    "country_id": 181,
    "country_code": "RO",
    "latitude": "47.38333000",
    "longitude": "22.60000000",
    "wikiDataId": null
  },
  {
    "id": 90641,
    "name": "Certeze",
    "state_id": 4746,
    "state_code": "SM",
    "country_id": 181,
    "country_code": "RO",
    "latitude": "47.90000000",
    "longitude": "23.46667000",
    "wikiDataId": null
  },
  {
    "id": 90700,
    "name": "Cidreag",
    "state_id": 4746,
    "state_code": "SM",
    "country_id": 181,
    "country_code": "RO",
    "latitude": "47.98677000",
    "longitude": "22.96395000",
    "wikiDataId": null
  },
  {
    "id": 90752,
    "name": "Ciumești",
    "state_id": 4746,
    "state_code": "SM",
    "country_id": 181,
    "country_code": "RO",
    "latitude": "47.66382000",
    "longitude": "22.34069000",
    "wikiDataId": null
  },
  {
    "id": 90820,
    "name": "Comuna Acâş",
    "state_id": 4746,
    "state_code": "SM",
    "country_id": 181,
    "country_code": "RO",
    "latitude": "47.53143000",
    "longitude": "22.74106000",
    "wikiDataId": null
  },
  {
    "id": 90833,
    "name": "Comuna Agriş",
    "state_id": 4746,
    "state_code": "SM",
    "country_id": 181,
    "country_code": "RO",
    "latitude": "47.87377000",
    "longitude": "23.00343000",
    "wikiDataId": null
  },
  {
    "id": 90869,
    "name": "Comuna Andrid",
    "state_id": 4746,
    "state_code": "SM",
    "country_id": 181,
    "country_code": "RO",
    "latitude": "47.51720000",
    "longitude": "22.34688000",
    "wikiDataId": null
  },
  {
    "id": 90875,
    "name": "Comuna Apa",
    "state_id": 4746,
    "state_code": "SM",
    "country_id": 181,
    "country_code": "RO",
    "latitude": "47.74934000",
    "longitude": "23.18966000",
    "wikiDataId": null
  },
  {
    "id": 91195,
    "name": "Comuna Bârsău",
    "state_id": 4746,
    "state_code": "SM",
    "country_id": 181,
    "country_code": "RO",
    "latitude": "47.59376000",
    "longitude": "23.24257000",
    "wikiDataId": null
  },
  {
    "id": 91245,
    "name": "Comuna Bătarci",
    "state_id": 4746,
    "state_code": "SM",
    "country_id": 181,
    "country_code": "RO",
    "latitude": "48.04054000",
    "longitude": "23.14274000",
    "wikiDataId": null
  },
  {
    "id": 90956,
    "name": "Comuna Beltiug",
    "state_id": 4746,
    "state_code": "SM",
    "country_id": 181,
    "country_code": "RO",
    "latitude": "47.56523000",
    "longitude": "22.85452000",
    "wikiDataId": null
  },
  {
    "id": 90974,
    "name": "Comuna Berveni",
    "state_id": 4746,
    "state_code": "SM",
    "country_id": 181,
    "country_code": "RO",
    "latitude": "47.74896000",
    "longitude": "22.47553000",
    "wikiDataId": null
  },
  {
    "id": 91000,
    "name": "Comuna Bixad",
    "state_id": 4746,
    "state_code": "SM",
    "country_id": 181,
    "country_code": "RO",
    "latitude": "47.92031000",
    "longitude": "23.37337000",
    "wikiDataId": null
  },
  {
    "id": 91025,
    "name": "Comuna Bogdand",
    "state_id": 4746,
    "state_code": "SM",
    "country_id": 181,
    "country_code": "RO",
    "latitude": "47.41824000",
    "longitude": "22.92868000",
    "wikiDataId": null
  },
  {
    "id": 91061,
    "name": "Comuna Botiz",
    "state_id": 4746,
    "state_code": "SM",
    "country_id": 181,
    "country_code": "RO",
    "latitude": "47.83285000",
    "longitude": "22.94865000",
    "wikiDataId": null
  },
  {
    "id": 91559,
    "name": "Comuna Cãlineşti-Oaş",
    "state_id": 4746,
    "state_code": "SM",
    "country_id": 181,
    "country_code": "RO",
    "latitude": "47.90340000",
    "longitude": "23.27351000",
    "wikiDataId": null
  },
  {
    "id": 91581,
    "name": "Comuna Cămărzana",
    "state_id": 4746,
    "state_code": "SM",
    "country_id": 181,
    "country_code": "RO",
    "latitude": "47.99435000",
    "longitude": "23.30874000",
    "wikiDataId": null
  },
  {
    "id": 91583,
    "name": "Comuna Căpleni",
    "state_id": 4746,
    "state_code": "SM",
    "country_id": 181,
    "country_code": "RO",
    "latitude": "47.70942000",
    "longitude": "22.50637000",
    "wikiDataId": null
  },
  {
    "id": 91596,
    "name": "Comuna Căuaş",
    "state_id": 4746,
    "state_code": "SM",
    "country_id": 181,
    "country_code": "RO",
    "latitude": "47.57998000",
    "longitude": "22.55546000",
    "wikiDataId": null
  },
  {
    "id": 91276,
    "name": "Comuna Cehal",
    "state_id": 4746,
    "state_code": "SM",
    "country_id": 181,
    "country_code": "RO",
    "latitude": "47.38440000",
    "longitude": "22.59613000",
    "wikiDataId": null
  },
  {
    "id": 91298,
    "name": "Comuna Certeze",
    "state_id": 4746,
    "state_code": "SM",
    "country_id": 181,
    "country_code": "RO",
    "latitude": "47.92014000",
    "longitude": "23.47350000",
    "wikiDataId": null
  },
  {
    "id": 91371,
    "name": "Comuna Ciumeşti",
    "state_id": 4746,
    "state_code": "SM",
    "country_id": 181,
    "country_code": "RO",
    "latitude": "47.66308000",
    "longitude": "22.33452000",
    "wikiDataId": null
  },
  {
    "id": 91484,
    "name": "Comuna Craidorolţ",
    "state_id": 4746,
    "state_code": "SM",
    "country_id": 181,
    "country_code": "RO",
    "latitude": "47.59793000",
    "longitude": "22.69883000",
    "wikiDataId": null
  },
  {
    "id": 91510,
    "name": "Comuna Crucişor",
    "state_id": 4746,
    "state_code": "SM",
    "country_id": 181,
    "country_code": "RO",
    "latitude": "47.65949000",
    "longitude": "23.24776000",
    "wikiDataId": null
  },
  {
    "id": 91523,
    "name": "Comuna Culciu",
    "state_id": 4746,
    "state_code": "SM",
    "country_id": 181,
    "country_code": "RO",
    "latitude": "47.75246000",
    "longitude": "23.05593000",
    "wikiDataId": null
  },
  {
    "id": 91631,
    "name": "Comuna Doba",
    "state_id": 4746,
    "state_code": "SM",
    "country_id": 181,
    "country_code": "RO",
    "latitude": "47.74588000",
    "longitude": "22.68383000",
    "wikiDataId": null
  },
  {
    "id": 91667,
    "name": "Comuna Dorolţ",
    "state_id": 4746,
    "state_code": "SM",
    "country_id": 181,
    "country_code": "RO",
    "latitude": "47.84524000",
    "longitude": "22.78642000",
    "wikiDataId": null
  },
  {
    "id": 91850,
    "name": "Comuna Gherţa Mică",
    "state_id": 4746,
    "state_code": "SM",
    "country_id": 181,
    "country_code": "RO",
    "latitude": "47.93724000",
    "longitude": "23.22169000",
    "wikiDataId": null
  },
  {
    "id": 91989,
    "name": "Comuna Halmeu",
    "state_id": 4746,
    "state_code": "SM",
    "country_id": 181,
    "country_code": "RO",
    "latitude": "47.97833000",
    "longitude": "23.05362000",
    "wikiDataId": null
  },
  {
    "id": 92005,
    "name": "Comuna Hodod",
    "state_id": 4746,
    "state_code": "SM",
    "country_id": 181,
    "country_code": "RO",
    "latitude": "47.39870000",
    "longitude": "23.04633000",
    "wikiDataId": null
  },
  {
    "id": 92012,
    "name": "Comuna Homoroade",
    "state_id": 4746,
    "state_code": "SM",
    "country_id": 181,
    "country_code": "RO",
    "latitude": "47.63896000",
    "longitude": "23.06593000",
    "wikiDataId": null
  },
  {
    "id": 92141,
    "name": "Comuna Lazuri",
    "state_id": 4746,
    "state_code": "SM",
    "country_id": 181,
    "country_code": "RO",
    "latitude": "47.89143000",
    "longitude": "22.87213000",
    "wikiDataId": null
  },
  {
    "id": 92250,
    "name": "Comuna Medieşu Aurit",
    "state_id": 4746,
    "state_code": "SM",
    "country_id": 181,
    "country_code": "RO",
    "latitude": "47.79451000",
    "longitude": "23.15360000",
    "wikiDataId": null
  },
  {
    "id": 92268,
    "name": "Comuna Micula",
    "state_id": 4746,
    "state_code": "SM",
    "country_id": 181,
    "country_code": "RO",
    "latitude": "47.91687000",
    "longitude": "22.93652000",
    "wikiDataId": null
  },
  {
    "id": 92316,
    "name": "Comuna Moftinu",
    "state_id": 4746,
    "state_code": "SM",
    "country_id": 181,
    "country_code": "RO",
    "latitude": "47.68333000",
    "longitude": "22.60000000",
    "wikiDataId": null
  },
  {
    "id": 92483,
    "name": "Comuna Odoreu",
    "state_id": 4746,
    "state_code": "SM",
    "country_id": 181,
    "country_code": "RO",
    "latitude": "47.79427000",
    "longitude": "22.99639000",
    "wikiDataId": null
  },
  {
    "id": 92505,
    "name": "Comuna Oraşu Nou",
    "state_id": 4746,
    "state_code": "SM",
    "country_id": 181,
    "country_code": "RO",
    "latitude": "47.83470000",
    "longitude": "23.30211000",
    "wikiDataId": null
  },
  {
    "id": 92713,
    "name": "Comuna Pãuleşti",
    "state_id": 4746,
    "state_code": "SM",
    "country_id": 181,
    "country_code": "RO",
    "latitude": "47.74992000",
    "longitude": "22.94743000",
    "wikiDataId": null
  },
  {
    "id": 92562,
    "name": "Comuna Petreşti",
    "state_id": 4746,
    "state_code": "SM",
    "country_id": 181,
    "country_code": "RO",
    "latitude": "47.58993000",
    "longitude": "22.35972000",
    "wikiDataId": null
  },
  {
    "id": 92586,
    "name": "Comuna Pir",
    "state_id": 4746,
    "state_code": "SM",
    "country_id": 181,
    "country_code": "RO",
    "latitude": "47.46650000",
    "longitude": "22.39380000",
    "wikiDataId": null
  },
  {
    "id": 92590,
    "name": "Comuna Pişcolt",
    "state_id": 4746,
    "state_code": "SM",
    "country_id": 181,
    "country_code": "RO",
    "latitude": "47.59761000",
    "longitude": "22.27498000",
    "wikiDataId": null
  },
  {
    "id": 92648,
    "name": "Comuna Pomi",
    "state_id": 4746,
    "state_code": "SM",
    "country_id": 181,
    "country_code": "RO",
    "latitude": "47.68071000",
    "longitude": "23.32362000",
    "wikiDataId": null
  },
  {
    "id": 92663,
    "name": "Comuna Porumbeşti",
    "state_id": 4746,
    "state_code": "SM",
    "country_id": 181,
    "country_code": "RO",
    "latitude": "47.98491000",
    "longitude": "22.97236000",
    "wikiDataId": null
  },
  {
    "id": 93088,
    "name": "Comuna Săcăşeni",
    "state_id": 4746,
    "state_code": "SM",
    "country_id": 181,
    "country_code": "RO",
    "latitude": "47.46964000",
    "longitude": "22.68273000",
    "wikiDataId": null
  },
  {
    "id": 92870,
    "name": "Comuna Sanislău",
    "state_id": 4746,
    "state_code": "SM",
    "country_id": 181,
    "country_code": "RO",
    "latitude": "47.63116000",
    "longitude": "22.33109000",
    "wikiDataId": null
  },
  {
    "id": 92872,
    "name": "Comuna Santău",
    "state_id": 4746,
    "state_code": "SM",
    "country_id": 181,
    "country_code": "RO",
    "latitude": "47.51152000",
    "longitude": "22.47327000",
    "wikiDataId": null
  },
  {
    "id": 93113,
    "name": "Comuna Săuca",
    "state_id": 4746,
    "state_code": "SM",
    "country_id": 181,
    "country_code": "RO",
    "latitude": "47.46041000",
    "longitude": "22.48621000",
    "wikiDataId": null
  },
  {
    "id": 92970,
    "name": "Comuna Socond",
    "state_id": 4746,
    "state_code": "SM",
    "country_id": 181,
    "country_code": "RO",
    "latitude": "47.54018000",
    "longitude": "22.98135000",
    "wikiDataId": null
  },
  {
    "id": 93034,
    "name": "Comuna Supur",
    "state_id": 4746,
    "state_code": "SM",
    "country_id": 181,
    "country_code": "RO",
    "latitude": "47.45826000",
    "longitude": "22.80767000",
    "wikiDataId": null
  },
  {
    "id": 93127,
    "name": "Comuna Tarna Mare",
    "state_id": 4746,
    "state_code": "SM",
    "country_id": 181,
    "country_code": "RO",
    "latitude": "48.08356000",
    "longitude": "23.19491000",
    "wikiDataId": null
  },
  {
    "id": 93140,
    "name": "Comuna Terebeşti",
    "state_id": 4746,
    "state_code": "SM",
    "country_id": 181,
    "country_code": "RO",
    "latitude": "47.67823000",
    "longitude": "22.74226000",
    "wikiDataId": null
  },
  {
    "id": 93158,
    "name": "Comuna Tiream",
    "state_id": 4746,
    "state_code": "SM",
    "country_id": 181,
    "country_code": "RO",
    "latitude": "47.58553000",
    "longitude": "22.43993000",
    "wikiDataId": null
  },
  {
    "id": 93218,
    "name": "Comuna Turţ",
    "state_id": 4746,
    "state_code": "SM",
    "country_id": 181,
    "country_code": "RO",
    "latitude": "47.98018000",
    "longitude": "23.20968000",
    "wikiDataId": null
  },
  {
    "id": 93217,
    "name": "Comuna Turulung",
    "state_id": 4746,
    "state_code": "SM",
    "country_id": 181,
    "country_code": "RO",
    "latitude": "47.92351000",
    "longitude": "23.10382000",
    "wikiDataId": null
  },
  {
    "id": 93286,
    "name": "Comuna Urziceni",
    "state_id": 4746,
    "state_code": "SM",
    "country_id": 181,
    "country_code": "RO",
    "latitude": "47.73286000",
    "longitude": "22.40181000",
    "wikiDataId": null
  },
  {
    "id": 93329,
    "name": "Comuna Valea Vinului",
    "state_id": 4746,
    "state_code": "SM",
    "country_id": 181,
    "country_code": "RO",
    "latitude": "47.69553000",
    "longitude": "23.18488000",
    "wikiDataId": null
  },
  {
    "id": 93331,
    "name": "Comuna Vama",
    "state_id": 4746,
    "state_code": "SM",
    "country_id": 181,
    "country_code": "RO",
    "latitude": "47.84354000",
    "longitude": "23.39660000",
    "wikiDataId": null
  },
  {
    "id": 93347,
    "name": "Comuna Vetiş",
    "state_id": 4746,
    "state_code": "SM",
    "country_id": 181,
    "country_code": "RO",
    "latitude": "47.79292000",
    "longitude": "22.75623000",
    "wikiDataId": null
  },
  {
    "id": 93703,
    "name": "Craidorolţ",
    "state_id": 4746,
    "state_code": "SM",
    "country_id": 181,
    "country_code": "RO",
    "latitude": "47.61667000",
    "longitude": "22.70000000",
    "wikiDataId": null
  },
  {
    "id": 93743,
    "name": "Crucişor",
    "state_id": 4746,
    "state_code": "SM",
    "country_id": 181,
    "country_code": "RO",
    "latitude": "47.68333000",
    "longitude": "23.25000000",
    "wikiDataId": null
  },
  {
    "id": 93767,
    "name": "Culciu Mic",
    "state_id": 4746,
    "state_code": "SM",
    "country_id": 181,
    "country_code": "RO",
    "latitude": "47.76667000",
    "longitude": "23.03333000",
    "wikiDataId": null
  },
  {
    "id": 93893,
    "name": "Dara",
    "state_id": 4746,
    "state_code": "SM",
    "country_id": 181,
    "country_code": "RO",
    "latitude": "47.81636000",
    "longitude": "22.75216000",
    "wikiDataId": null
  },
  {
    "id": 93906,
    "name": "Decebal",
    "state_id": 4746,
    "state_code": "SM",
    "country_id": 181,
    "country_code": "RO",
    "latitude": "47.76630000",
    "longitude": "22.75603000",
    "wikiDataId": null
  },
  {
    "id": 93944,
    "name": "Doba",
    "state_id": 4746,
    "state_code": "SM",
    "country_id": 181,
    "country_code": "RO",
    "latitude": "47.73333000",
    "longitude": "22.71667000",
    "wikiDataId": null
  },
  {
    "id": 93946,
    "name": "Dobra",
    "state_id": 4746,
    "state_code": "SM",
    "country_id": 181,
    "country_code": "RO",
    "latitude": "47.49477000",
    "longitude": "22.82762000",
    "wikiDataId": null
  },
  {
    "id": 93994,
    "name": "Domănești",
    "state_id": 4746,
    "state_code": "SM",
    "country_id": 181,
    "country_code": "RO",
    "latitude": "47.71071000",
    "longitude": "22.58975000",
    "wikiDataId": null
  },
  {
    "id": 94007,
    "name": "Dorolţ",
    "state_id": 4746,
    "state_code": "SM",
    "country_id": 181,
    "country_code": "RO",
    "latitude": "47.85000000",
    "longitude": "22.81667000",
    "wikiDataId": null
  },
  {
    "id": 94054,
    "name": "Drăgușeni",
    "state_id": 4746,
    "state_code": "SM",
    "country_id": 181,
    "country_code": "RO",
    "latitude": "47.90541000",
    "longitude": "23.07780000",
    "wikiDataId": null
  },
  {
    "id": 94078,
    "name": "Dumbrava",
    "state_id": 4746,
    "state_code": "SM",
    "country_id": 181,
    "country_code": "RO",
    "latitude": "47.84418000",
    "longitude": "23.08060000",
    "wikiDataId": null
  },
  {
    "id": 94196,
    "name": "Foieni",
    "state_id": 4746,
    "state_code": "SM",
    "country_id": 181,
    "country_code": "RO",
    "latitude": "47.69758930",
    "longitude": "22.38643760",
    "wikiDataId": null
  },
  {
    "id": 94315,
    "name": "Gherța Mare",
    "state_id": 4746,
    "state_code": "SM",
    "country_id": 181,
    "country_code": "RO",
    "latitude": "47.96884000",
    "longitude": "23.20853000",
    "wikiDataId": null
  },
  {
    "id": 94314,
    "name": "Gherţa Mică",
    "state_id": 4746,
    "state_code": "SM",
    "country_id": 181,
    "country_code": "RO",
    "latitude": "47.93333000",
    "longitude": "23.23333000",
    "wikiDataId": null
  },
  {
    "id": 94518,
    "name": "Halmeu",
    "state_id": 4746,
    "state_code": "SM",
    "country_id": 181,
    "country_code": "RO",
    "latitude": "47.96667000",
    "longitude": "23.01667000",
    "wikiDataId": null
  },
  {
    "id": 94542,
    "name": "Hodod",
    "state_id": 4746,
    "state_code": "SM",
    "country_id": 181,
    "country_code": "RO",
    "latitude": "47.40000000",
    "longitude": "23.03333000",
    "wikiDataId": null
  },
  {
    "id": 94554,
    "name": "Homorodu de Jos",
    "state_id": 4746,
    "state_code": "SM",
    "country_id": 181,
    "country_code": "RO",
    "latitude": "47.66667000",
    "longitude": "23.08333000",
    "wikiDataId": null
  },
  {
    "id": 94586,
    "name": "Huta Certeze",
    "state_id": 4746,
    "state_code": "SM",
    "country_id": 181,
    "country_code": "RO",
    "latitude": "47.92583000",
    "longitude": "23.48715000",
    "wikiDataId": null
  },
  {
    "id": 94672,
    "name": "Iojib",
    "state_id": 4746,
    "state_code": "SM",
    "country_id": 181,
    "country_code": "RO",
    "latitude": "47.81617000",
    "longitude": "23.15603000",
    "wikiDataId": null
  },
  {
    "id": 94766,
    "name": "Lazuri",
    "state_id": 4746,
    "state_code": "SM",
    "country_id": 181,
    "country_code": "RO",
    "latitude": "47.85000000",
    "longitude": "22.86667000",
    "wikiDataId": null
  },
  {
    "id": 94813,
    "name": "Livada",
    "state_id": 4746,
    "state_code": "SM",
    "country_id": 181,
    "country_code": "RO",
    "latitude": "47.86321930",
    "longitude": "23.12116390",
    "wikiDataId": null
  },
  {
    "id": 94840,
    "name": "Lucăceni",
    "state_id": 4746,
    "state_code": "SM",
    "country_id": 181,
    "country_code": "RO",
    "latitude": "47.74194000",
    "longitude": "22.47819000",
    "wikiDataId": null
  },
  {
    "id": 95233,
    "name": "Mădăras",
    "state_id": 4746,
    "state_code": "SM",
    "country_id": 181,
    "country_code": "RO",
    "latitude": "47.68403000",
    "longitude": "22.86554000",
    "wikiDataId": null
  },
  {
    "id": 94944,
    "name": "Medieşu Aurit",
    "state_id": 4746,
    "state_code": "SM",
    "country_id": 181,
    "country_code": "RO",
    "latitude": "47.78333000",
    "longitude": "23.15000000",
    "wikiDataId": null
  },
  {
    "id": 94970,
    "name": "Micula",
    "state_id": 4746,
    "state_code": "SM",
    "country_id": 181,
    "country_code": "RO",
    "latitude": "47.90000000",
    "longitude": "22.95000000",
    "wikiDataId": null
  },
  {
    "id": 95049,
    "name": "Moftinu Mare",
    "state_id": 4746,
    "state_code": "SM",
    "country_id": 181,
    "country_code": "RO",
    "latitude": "47.66667000",
    "longitude": "22.66667000",
    "wikiDataId": null
  },
  {
    "id": 95050,
    "name": "Moftinu Mic",
    "state_id": 4746,
    "state_code": "SM",
    "country_id": 181,
    "country_code": "RO",
    "latitude": "47.68669000",
    "longitude": "22.60054000",
    "wikiDataId": null
  },
  {
    "id": 95060,
    "name": "Moișeni",
    "state_id": 4746,
    "state_code": "SM",
    "country_id": 181,
    "country_code": "RO",
    "latitude": "47.92798000",
    "longitude": "23.46833000",
    "wikiDataId": null
  },
  {
    "id": 95125,
    "name": "Municipiul Carei",
    "state_id": 4746,
    "state_code": "SM",
    "country_id": 181,
    "country_code": "RO",
    "latitude": "47.68203000",
    "longitude": "22.46635000",
    "wikiDataId": null
  },
  {
    "id": 95178,
    "name": "Municipiul Satu Mare",
    "state_id": 4746,
    "state_code": "SM",
    "country_id": 181,
    "country_code": "RO",
    "latitude": "47.76514000",
    "longitude": "22.83565000",
    "wikiDataId": null
  },
  {
    "id": 95317,
    "name": "Negreşti-Oaş",
    "state_id": 4746,
    "state_code": "SM",
    "country_id": 181,
    "country_code": "RO",
    "latitude": "47.86667000",
    "longitude": "23.43333000",
    "wikiDataId": null
  },
  {
    "id": 95381,
    "name": "Oar",
    "state_id": 4746,
    "state_code": "SM",
    "country_id": 181,
    "country_code": "RO",
    "latitude": "47.80569000",
    "longitude": "22.73085000",
    "wikiDataId": null
  },
  {
    "id": 95409,
    "name": "Odoreu",
    "state_id": 4746,
    "state_code": "SM",
    "country_id": 181,
    "country_code": "RO",
    "latitude": "47.80000000",
    "longitude": "23.00000000",
    "wikiDataId": null
  },
  {
    "id": 95549,
    "name": "Oraş Negreşti-Oaş",
    "state_id": 4746,
    "state_code": "SM",
    "country_id": 181,
    "country_code": "RO",
    "latitude": "47.86801000",
    "longitude": "23.41816000",
    "wikiDataId": null
  },
  {
    "id": 95634,
    "name": "Oraşu Nou",
    "state_id": 4746,
    "state_code": "SM",
    "country_id": 181,
    "country_code": "RO",
    "latitude": "47.83333000",
    "longitude": "23.28333000",
    "wikiDataId": null
  },
  {
    "id": 96030,
    "name": "Păuleşti",
    "state_id": 4746,
    "state_code": "SM",
    "country_id": 181,
    "country_code": "RO",
    "latitude": "47.78333000",
    "longitude": "22.91667000",
    "wikiDataId": null
  },
  {
    "id": 95747,
    "name": "Petreşti",
    "state_id": 4746,
    "state_code": "SM",
    "country_id": 181,
    "country_code": "RO",
    "latitude": "47.60000000",
    "longitude": "22.36667000",
    "wikiDataId": null
  },
  {
    "id": 95795,
    "name": "Pir",
    "state_id": 4746,
    "state_code": "SM",
    "country_id": 181,
    "country_code": "RO",
    "latitude": "47.46667000",
    "longitude": "22.36667000",
    "wikiDataId": null
  },
  {
    "id": 95805,
    "name": "Pişcolt",
    "state_id": 4746,
    "state_code": "SM",
    "country_id": 181,
    "country_code": "RO",
    "latitude": "47.58333000",
    "longitude": "22.30000000",
    "wikiDataId": null
  },
  {
    "id": 95869,
    "name": "Poiana Codrului",
    "state_id": 4746,
    "state_code": "SM",
    "country_id": 181,
    "country_code": "RO",
    "latitude": "47.62667000",
    "longitude": "23.25056000",
    "wikiDataId": null
  },
  {
    "id": 95903,
    "name": "Pomi",
    "state_id": 4746,
    "state_code": "SM",
    "country_id": 181,
    "country_code": "RO",
    "latitude": "47.70000000",
    "longitude": "23.31667000",
    "wikiDataId": null
  },
  {
    "id": 95924,
    "name": "Porumbești",
    "state_id": 4746,
    "state_code": "SM",
    "country_id": 181,
    "country_code": "RO",
    "latitude": "47.98305000",
    "longitude": "22.98076000",
    "wikiDataId": null
  },
  {
    "id": 95935,
    "name": "Potău",
    "state_id": 4746,
    "state_code": "SM",
    "country_id": 181,
    "country_code": "RO",
    "latitude": "47.75673000",
    "longitude": "23.12090000",
    "wikiDataId": null
  },
  {
    "id": 96050,
    "name": "Racşa",
    "state_id": 4746,
    "state_code": "SM",
    "country_id": 181,
    "country_code": "RO",
    "latitude": "47.82072340",
    "longitude": "23.33450730",
    "wikiDataId": null
  },
  {
    "id": 106002,
    "name": "Săcăşeni",
    "state_id": 4746,
    "state_code": "SM",
    "country_id": 181,
    "country_code": "RO",
    "latitude": "47.48333000",
    "longitude": "22.68333000",
    "wikiDataId": null
  },
  {
    "id": 96239,
    "name": "Sanislău",
    "state_id": 4746,
    "state_code": "SM",
    "country_id": 181,
    "country_code": "RO",
    "latitude": "47.63333000",
    "longitude": "22.33333000",
    "wikiDataId": null
  },
  {
    "id": 96241,
    "name": "Santău",
    "state_id": 4746,
    "state_code": "SM",
    "country_id": 181,
    "country_code": "RO",
    "latitude": "47.51667000",
    "longitude": "22.51667000",
    "wikiDataId": null
  },
  {
    "id": 106036,
    "name": "Sărăuad",
    "state_id": 4746,
    "state_code": "SM",
    "country_id": 181,
    "country_code": "RO",
    "latitude": "47.47944000",
    "longitude": "22.62559000",
    "wikiDataId": null
  },
  {
    "id": 106041,
    "name": "Sătmărel",
    "state_id": 4746,
    "state_code": "SM",
    "country_id": 181,
    "country_code": "RO",
    "latitude": "47.73470000",
    "longitude": "22.79536000",
    "wikiDataId": null
  },
  {
    "id": 96256,
    "name": "Satu Mare",
    "state_id": 4746,
    "state_code": "SM",
    "country_id": 181,
    "country_code": "RO",
    "latitude": "47.79926000",
    "longitude": "22.86255000",
    "wikiDataId": null
  },
  {
    "id": 106042,
    "name": "Săuca",
    "state_id": 4746,
    "state_code": "SM",
    "country_id": 181,
    "country_code": "RO",
    "latitude": "47.46667000",
    "longitude": "22.48333000",
    "wikiDataId": null
  },
  {
    "id": 96398,
    "name": "Socond",
    "state_id": 4746,
    "state_code": "SM",
    "country_id": 181,
    "country_code": "RO",
    "latitude": "47.56667000",
    "longitude": "22.95000000",
    "wikiDataId": null
  },
  {
    "id": 96470,
    "name": "Stâna",
    "state_id": 4746,
    "state_code": "SM",
    "country_id": 181,
    "country_code": "RO",
    "latitude": "47.50757000",
    "longitude": "22.96423000",
    "wikiDataId": null
  },
  {
    "id": 96503,
    "name": "Supuru de Jos",
    "state_id": 4746,
    "state_code": "SM",
    "country_id": 181,
    "country_code": "RO",
    "latitude": "47.46667000",
    "longitude": "22.80000000",
    "wikiDataId": null
  },
  {
    "id": 106062,
    "name": "Tarna Mare",
    "state_id": 4746,
    "state_code": "SM",
    "country_id": 181,
    "country_code": "RO",
    "latitude": "48.09175000",
    "longitude": "23.19369000",
    "wikiDataId": null
  },
  {
    "id": 96597,
    "name": "Târşolţ",
    "state_id": 4746,
    "state_code": "SM",
    "country_id": 181,
    "country_code": "RO",
    "latitude": "47.95428280",
    "longitude": "23.34898810",
    "wikiDataId": null
  },
  {
    "id": 96630,
    "name": "Tăşnad",
    "state_id": 4746,
    "state_code": "SM",
    "country_id": 181,
    "country_code": "RO",
    "latitude": "47.47809160",
    "longitude": "22.58485520",
    "wikiDataId": null
  },
  {
    "id": 106083,
    "name": "Terebeşti",
    "state_id": 4746,
    "state_code": "SM",
    "country_id": 181,
    "country_code": "RO",
    "latitude": "47.68333000",
    "longitude": "22.71667000",
    "wikiDataId": null
  },
  {
    "id": 106105,
    "name": "Tiream",
    "state_id": 4746,
    "state_code": "SM",
    "country_id": 181,
    "country_code": "RO",
    "latitude": "47.61667000",
    "longitude": "22.46667000",
    "wikiDataId": null
  },
  {
    "id": 106157,
    "name": "Trip",
    "state_id": 4746,
    "state_code": "SM",
    "country_id": 181,
    "country_code": "RO",
    "latitude": "47.92450000",
    "longitude": "23.37648000",
    "wikiDataId": null
  },
  {
    "id": 96551,
    "name": "Tur",
    "state_id": 4746,
    "state_code": "SM",
    "country_id": 181,
    "country_code": "RO",
    "latitude": "47.88231000",
    "longitude": "23.39045000",
    "wikiDataId": null
  },
  {
    "id": 96569,
    "name": "Turţ",
    "state_id": 4746,
    "state_code": "SM",
    "country_id": 181,
    "country_code": "RO",
    "latitude": "47.98333000",
    "longitude": "23.21667000",
    "wikiDataId": null
  },
  {
    "id": 96568,
    "name": "Turulung",
    "state_id": 4746,
    "state_code": "SM",
    "country_id": 181,
    "country_code": "RO",
    "latitude": "47.93333000",
    "longitude": "23.08333000",
    "wikiDataId": null
  },
  {
    "id": 96687,
    "name": "Urziceni",
    "state_id": 4746,
    "state_code": "SM",
    "country_id": 181,
    "country_code": "RO",
    "latitude": "47.73333000",
    "longitude": "22.40000000",
    "wikiDataId": null
  },
  {
    "id": 96752,
    "name": "Valea Seacă",
    "state_id": 4746,
    "state_code": "SM",
    "country_id": 181,
    "country_code": "RO",
    "latitude": "48.08080000",
    "longitude": "23.16489000",
    "wikiDataId": null
  },
  {
    "id": 96763,
    "name": "Valea Vinului",
    "state_id": 4746,
    "state_code": "SM",
    "country_id": 181,
    "country_code": "RO",
    "latitude": "47.71667000",
    "longitude": "23.18333000",
    "wikiDataId": null
  },
  {
    "id": 96770,
    "name": "Vama",
    "state_id": 4746,
    "state_code": "SM",
    "country_id": 181,
    "country_code": "RO",
    "latitude": "47.83333000",
    "longitude": "23.40000000",
    "wikiDataId": null
  },
  {
    "id": 96795,
    "name": "Vetiş",
    "state_id": 4746,
    "state_code": "SM",
    "country_id": 181,
    "country_code": "RO",
    "latitude": "47.80000000",
    "longitude": "22.76667000",
    "wikiDataId": null
  },
  {
    "id": 96816,
    "name": "Viile Satu Mare",
    "state_id": 4746,
    "state_code": "SM",
    "country_id": 181,
    "country_code": "RO",
    "latitude": "47.66628700",
    "longitude": "22.95213110",
    "wikiDataId": null
  }
]