[
  {
    "id": 2964,
    "name": "Al Wahat",
    "country_id": 124,
    "country_code": "LY",
    "state_code": "WA",
    "type": "popularate",
    "latitude": "29.15731230",
    "longitude": "21.74963920",
    "iso3166_2": "LY-WA",
    "native": "الواحات",
    "timezone": "Africa/Tripoli"
  },
  {
    "id": 2981,
    "name": "Benghazi",
    "country_id": 124,
    "country_code": "LY",
    "state_code": "BA",
    "type": "popularate",
    "latitude": "32.11942420",
    "longitude": "20.08679090",
    "iso3166_2": "LY-BA",
    "native": "بنغازي",
    "timezone": "Africa/Tripoli"
  },
  {
    "id": 2966,
    "name": "Derna",
    "country_id": 124,
    "country_code": "LY",
    "state_code": "DR",
    "type": "popularate",
    "latitude": "32.75561300",
    "longitude": "22.63774320",
    "iso3166_2": "LY-DR",
    "native": "درنة",
    "timezone": "Africa/Tripoli"
  },
  {
    "id": 2969,
    "name": "Ghat",
    "country_id": 124,
    "country_code": "LY",
    "state_code": "GT",
    "type": "popularate",
    "latitude": "24.96403710",
    "longitude": "10.17592850",
    "iso3166_2": "LY-GT",
    "native": "غات",
    "timezone": "Africa/Tripoli"
  },
  {
    "id": 2980,
    "name": "Jabal al Akhdar",
    "country_id": 124,
    "country_code": "LY",
    "state_code": "JA",
    "type": "popularate",
    "latitude": "32.48741190",
    "longitude": "21.70897290",
    "iso3166_2": "LY-JA",
    "native": "الجبل الأخضر",
    "timezone": "Africa/Tripoli"
  },
  {
    "id": 2974,
    "name": "Jabal al Gharbi",
    "country_id": 124,
    "country_code": "LY",
    "state_code": "JG",
    "type": "popularate",
    "latitude": "30.70464900",
    "longitude": "13.22338590",
    "iso3166_2": "LY-JG",
    "native": "جبل الغربي",
    "timezone": "Africa/Tripoli"
  },
  {
    "id": 2979,
    "name": "Jafara",
    "country_id": 124,
    "country_code": "LY",
    "state_code": "JI",
    "type": "popularate",
    "latitude": "32.55879160",
    "longitude": "13.07070240",
    "iso3166_2": "LY-JI",
    "native": "جفارة",
    "timezone": "Africa/Tripoli"
  },
  {
    "id": 2970,
    "name": "Jufra",
    "country_id": 124,
    "country_code": "LY",
    "state_code": "JU",
    "type": "popularate",
    "latitude": "28.00557240",
    "longitude": "16.74302920",
    "iso3166_2": "LY-JU",
    "native": "الجفرة",
    "timezone": "Africa/Tripoli"
  },
  {
    "id": 2972,
    "name": "Kufra",
    "country_id": 124,
    "country_code": "LY",
    "state_code": "KF",
    "type": "popularate",
    "latitude": "23.33237760",
    "longitude": "22.08403310",
    "iso3166_2": "LY-KF",
    "native": "الكفرة",
    "timezone": "Africa/Tripoli"
  },
  {
    "id": 2968,
    "name": "Marj",
    "country_id": 124,
    "country_code": "LY",
    "state_code": "MJ",
    "type": "popularate",
    "latitude": "31.91087280",
    "longitude": "21.14778770",
    "iso3166_2": "LY-MJ",
    "native": "مارج",
    "timezone": "Africa/Tripoli"
  },
  {
    "id": 2978,
    "name": "Misrata",
    "country_id": 124,
    "country_code": "LY",
    "state_code": "MI",
    "type": "popularate",
    "latitude": "32.37459230",
    "longitude": "15.09058030",
    "iso3166_2": "LY-MI",
    "native": "مصراتة",
    "timezone": "Africa/Tripoli"
  },
  {
    "id": 2961,
    "name": "Murqub",
    "country_id": 124,
    "country_code": "LY",
    "state_code": "MB",
    "type": "popularate",
    "latitude": "32.40710580",
    "longitude": "13.86219030",
    "iso3166_2": "LY-MB",
    "native": "مرقب",
    "timezone": "Africa/Tripoli"
  },
  {
    "id": 2967,
    "name": "Murzuq",
    "country_id": 124,
    "country_code": "LY",
    "state_code": "MQ",
    "type": "popularate",
    "latitude": "25.91822620",
    "longitude": "13.92600010",
    "iso3166_2": "LY-MQ",
    "native": "مرزق",
    "timezone": "Africa/Tripoli"
  },
  {
    "id": 2976,
    "name": "Nalut",
    "country_id": 124,
    "country_code": "LY",
    "state_code": "NL",
    "type": "popularate",
    "latitude": "31.86378650",
    "longitude": "10.98279030",
    "iso3166_2": "LY-NL",
    "native": "نالوت",
    "timezone": "Africa/Tripoli"
  },
  {
    "id": 2962,
    "name": "Nuqat al Khams",
    "country_id": 124,
    "country_code": "LY",
    "state_code": "NQ",
    "type": "popularate",
    "latitude": "32.71771530",
    "longitude": "11.98964150",
    "iso3166_2": "LY-NQ",
    "native": "النقاط الخمس",
    "timezone": "Africa/Tripoli"
  },
  {
    "id": 2965,
    "name": "Sabha",
    "country_id": 124,
    "country_code": "LY",
    "state_code": "SB",
    "type": "popularate",
    "latitude": "27.03654060",
    "longitude": "14.42902360",
    "iso3166_2": "LY-SB",
    "native": "سبها",
    "timezone": "Africa/Tripoli"
  },
  {
    "id": 2977,
    "name": "Sirte",
    "country_id": 124,
    "country_code": "LY",
    "state_code": "SR",
    "type": "popularate",
    "latitude": "31.20596250",
    "longitude": "16.58362060",
    "iso3166_2": "LY-SR",
    "native": "سرت",
    "timezone": "Africa/Tripoli"
  },
  {
    "id": 2971,
    "name": "Tripoli",
    "country_id": 124,
    "country_code": "LY",
    "state_code": "TB",
    "type": "popularate",
    "latitude": "32.77338990",
    "longitude": "13.33187320",
    "iso3166_2": "LY-TB",
    "native": "طرابلس",
    "timezone": "Africa/Tripoli"
  },
  {
    "id": 2973,
    "name": "Wadi al Hayaa",
    "country_id": 124,
    "country_code": "LY",
    "state_code": "WD",
    "type": "popularate",
    "latitude": "26.42333690",
    "longitude": "12.71836380",
    "iso3166_2": "LY-WD",
    "native": "وادي الحياة",
    "timezone": "Africa/Tripoli"
  },
  {
    "id": 2975,
    "name": "Wadi al Shatii",
    "country_id": 124,
    "country_code": "LY",
    "state_code": "WS",
    "type": "popularate",
    "latitude": "27.60231720",
    "longitude": "12.86376270",
    "iso3166_2": "LY-WS",
    "native": "وادي الشاطئ",
    "timezone": "Africa/Tripoli"
  },
  {
    "id": 2963,
    "name": "Zawiya",
    "country_id": 124,
    "country_code": "LY",
    "state_code": "ZA",
    "type": "popularate",
    "latitude": "32.76302820",
    "longitude": "12.73649620",
    "iso3166_2": "LY-ZA",
    "native": "زاوية",
    "timezone": "Africa/Tripoli"
  }
]