[
  {
    "id": 107314,
    "name": "Başiskele",
    "state_id": 2195,
    "state_code": "41",
    "country_id": 225,
    "country_code": "TR",
    "latitude": "40.64574000",
    "longitude": "29.90015000",
    "wikiDataId": null
  },
  {
    "id": 108807,
    "name": "Çayırova",
    "state_id": 2195,
    "state_code": "41",
    "country_id": 225,
    "country_code": "TR",
    "latitude": "40.82784000",
    "longitude": "29.39014000",
    "wikiDataId": null
  },
  {
    "id": 107451,
    "name": "Darıca",
    "state_id": 2195,
    "state_code": "41",
    "country_id": 225,
    "country_code": "TR",
    "latitude": "40.76780000",
    "longitude": "29.37126000",
    "wikiDataId": null
  },
  {
    "id": 107479,
    "name": "Derince",
    "state_id": 2195,
    "state_code": "41",
    "country_id": 225,
    "country_code": "TR",
    "latitude": "40.75694000",
    "longitude": "29.81472000",
    "wikiDataId": null
  },
  {
    "id": 107497,
    "name": "Dilovası",
    "state_id": 2195,
    "state_code": "41",
    "country_id": 225,
    "country_code": "TR",
    "latitude": "40.77972000",
    "longitude": "29.53500000",
    "wikiDataId": null
  },
  {
    "id": 107650,
    "name": "Gebze",
    "state_id": 2195,
    "state_code": "41",
    "country_id": 225,
    "country_code": "TR",
    "latitude": "40.80276000",
    "longitude": "29.43068000",
    "wikiDataId": null
  },
  {
    "id": 107690,
    "name": "Gölcük",
    "state_id": 2195,
    "state_code": "41",
    "country_id": 225,
    "country_code": "TR",
    "latitude": "40.70323000",
    "longitude": "29.87216000",
    "wikiDataId": null
  },
  {
    "id": 108924,
    "name": "İzmit",
    "state_id": 2195,
    "state_code": "41",
    "country_id": 225,
    "country_code": "TR",
    "latitude": "40.77521000",
    "longitude": "29.94624000",
    "wikiDataId": null
  },
  {
    "id": 107881,
    "name": "Kandıra",
    "state_id": 2195,
    "state_code": "41",
    "country_id": 225,
    "country_code": "TR",
    "latitude": "41.07000000",
    "longitude": "30.15262000",
    "wikiDataId": null
  },
  {
    "id": 107908,
    "name": "Karamürsel",
    "state_id": 2195,
    "state_code": "41",
    "country_id": 225,
    "country_code": "TR",
    "latitude": "40.69129000",
    "longitude": "29.61649000",
    "wikiDataId": null
  },
  {
    "id": 107934,
    "name": "Kartepe",
    "state_id": 2195,
    "state_code": "41",
    "country_id": 225,
    "country_code": "TR",
    "latitude": "40.75246000",
    "longitude": "30.02787000",
    "wikiDataId": null
  },
  {
    "id": 108077,
    "name": "Körfez",
    "state_id": 2195,
    "state_code": "41",
    "country_id": 225,
    "country_code": "TR",
    "latitude": "40.76704000",
    "longitude": "29.78275000",
    "wikiDataId": null
  }
]