[
  {
    "id": 31919,
    "name": "Abusejo",
    "state_id": 1147,
    "state_code": "SA",
    "country_id": 207,
    "country_code": "ES",
    "latitude": "40.70900000",
    "longitude": "-6.14074000",
    "wikiDataId": null
  },
  {
    "id": 31945,
    "name": "Agallas",
    "state_id": 1147,
    "state_code": "SA",
    "country_id": 207,
    "country_code": "ES",
    "latitude": "40.44867000",
    "longitude": "-6.44176000",
    "wikiDataId": null
  },
  {
    "id": 31976,
    "name": "Ahigal de los Aceiteros",
    "state_id": 1147,
    "state_code": "SA",
    "country_id": 207,
    "country_code": "ES",
    "latitude": "40.87231000",
    "longitude": "-6.74702000",
    "wikiDataId": null
  },
  {
    "id": 31975,
    "name": "Ahigal de Villarino",
    "state_id": 1147,
    "state_code": "SA",
    "country_id": 207,
    "country_code": "ES",
    "latitude": "41.15819000",
    "longitude": "-6.38037000",
    "wikiDataId": null
  },
  {
    "id": 32003,
    "name": "Alaraz",
    "state_id": 1147,
    "state_code": "SA",
    "country_id": 207,
    "country_code": "ES",
    "latitude": "40.74886000",
    "longitude": "-5.28781000",
    "wikiDataId": null
  },
  {
    "id": 32011,
    "name": "Alba de Tormes",
    "state_id": 1147,
    "state_code": "SA",
    "country_id": 207,
    "country_code": "ES",
    "latitude": "40.82664000",
    "longitude": "-5.51237000",
    "wikiDataId": null
  },
  {
    "id": 32012,
    "name": "Alba de Yeltes",
    "state_id": 1147,
    "state_code": "SA",
    "country_id": 207,
    "country_code": "ES",
    "latitude": "40.67180000",
    "longitude": "-6.31660000",
    "wikiDataId": null
  },
  {
    "id": 32113,
    "name": "Alconada",
    "state_id": 1147,
    "state_code": "SA",
    "country_id": 207,
    "country_code": "ES",
    "latitude": "40.91092000",
    "longitude": "-5.36305000",
    "wikiDataId": null
  },
  {
    "id": 32145,
    "name": "Aldea del Obispo",
    "state_id": 1147,
    "state_code": "SA",
    "country_id": 207,
    "country_code": "ES",
    "latitude": "40.70677000",
    "longitude": "-6.79253000",
    "wikiDataId": null
  },
  {
    "id": 32148,
    "name": "Aldeacipreste",
    "state_id": 1147,
    "state_code": "SA",
    "country_id": 207,
    "country_code": "ES",
    "latitude": "40.38090000",
    "longitude": "-5.89754000",
    "wikiDataId": null
  },
  {
    "id": 32149,
    "name": "Aldeadávila de la Ribera",
    "state_id": 1147,
    "state_code": "SA",
    "country_id": 207,
    "country_code": "ES",
    "latitude": "41.21769000",
    "longitude": "-6.61786000",
    "wikiDataId": null
  },
  {
    "id": 32152,
    "name": "Aldealengua",
    "state_id": 1147,
    "state_code": "SA",
    "country_id": 207,
    "country_code": "ES",
    "latitude": "40.98090000",
    "longitude": "-5.54922000",
    "wikiDataId": null
  },
  {
    "id": 32159,
    "name": "Aldeanueva de Figueroa",
    "state_id": 1147,
    "state_code": "SA",
    "country_id": 207,
    "country_code": "ES",
    "latitude": "41.14809000",
    "longitude": "-5.52404000",
    "wikiDataId": null
  },
  {
    "id": 32163,
    "name": "Aldeanueva de la Sierra",
    "state_id": 1147,
    "state_code": "SA",
    "country_id": 207,
    "country_code": "ES",
    "latitude": "40.61620000",
    "longitude": "-6.10023000",
    "wikiDataId": null
  },
  {
    "id": 32168,
    "name": "Aldearrodrigo",
    "state_id": 1147,
    "state_code": "SA",
    "country_id": 207,
    "country_code": "ES",
    "latitude": "41.10966000",
    "longitude": "-5.80726000",
    "wikiDataId": null
  },
  {
    "id": 32169,
    "name": "Aldearrubia",
    "state_id": 1147,
    "state_code": "SA",
    "country_id": 207,
    "country_code": "ES",
    "latitude": "41.00807000",
    "longitude": "-5.49829000",
    "wikiDataId": null
  },
  {
    "id": 32171,
    "name": "Aldeaseca de Alba",
    "state_id": 1147,
    "state_code": "SA",
    "country_id": 207,
    "country_code": "ES",
    "latitude": "40.81909000",
    "longitude": "-5.44699000",
    "wikiDataId": null
  },
  {
    "id": 32172,
    "name": "Aldeaseca de la Frontera",
    "state_id": 1147,
    "state_code": "SA",
    "country_id": 207,
    "country_code": "ES",
    "latitude": "40.94161000",
    "longitude": "-5.20719000",
    "wikiDataId": null
  },
  {
    "id": 32174,
    "name": "Aldeatejada",
    "state_id": 1147,
    "state_code": "SA",
    "country_id": 207,
    "country_code": "ES",
    "latitude": "40.92168000",
    "longitude": "-5.69273000",
    "wikiDataId": null
  },
  {
    "id": 32175,
    "name": "Aldeavieja de Tormes",
    "state_id": 1147,
    "state_code": "SA",
    "country_id": 207,
    "country_code": "ES",
    "latitude": "40.58307000",
    "longitude": "-5.61705000",
    "wikiDataId": null
  },
  {
    "id": 32178,
    "name": "Aldehuela de la Bóveda",
    "state_id": 1147,
    "state_code": "SA",
    "country_id": 207,
    "country_code": "ES",
    "latitude": "40.85077000",
    "longitude": "-6.05260000",
    "wikiDataId": null
  },
  {
    "id": 32177,
    "name": "Aldehuela de Yeltes",
    "state_id": 1147,
    "state_code": "SA",
    "country_id": 207,
    "country_code": "ES",
    "latitude": "40.66254000",
    "longitude": "-6.24332000",
    "wikiDataId": null
  },
  {
    "id": 32284,
    "name": "Almenara de Tormes",
    "state_id": 1147,
    "state_code": "SA",
    "country_id": 207,
    "country_code": "ES",
    "latitude": "41.06390000",
    "longitude": "-5.82350000",
    "wikiDataId": null
  },
  {
    "id": 32285,
    "name": "Almendra",
    "state_id": 1147,
    "state_code": "SA",
    "country_id": 207,
    "country_code": "ES",
    "latitude": "41.22922000",
    "longitude": "-6.34068000",
    "wikiDataId": null
  },
  {
    "id": 32367,
    "name": "Anaya de Alba",
    "state_id": 1147,
    "state_code": "SA",
    "country_id": 207,
    "country_code": "ES",
    "latitude": "40.72828000",
    "longitude": "-5.49266000",
    "wikiDataId": null
  },
  {
    "id": 32599,
    "name": "Añover de Tormes",
    "state_id": 1147,
    "state_code": "SA",
    "country_id": 207,
    "country_code": "ES",
    "latitude": "41.13658000",
    "longitude": "-5.91585000",
    "wikiDataId": null
  },
  {
    "id": 152505,
    "name": "Arabayona de Mógica",
    "state_id": 1147,
    "state_code": "SA",
    "country_id": 207,
    "country_code": "ES",
    "latitude": "41.04842910",
    "longitude": "-5.38741130",
    "wikiDataId": null
  },
  {
    "id": 32415,
    "name": "Arapiles",
    "state_id": 1147,
    "state_code": "SA",
    "country_id": 207,
    "country_code": "ES",
    "latitude": "40.89366000",
    "longitude": "-5.64494000",
    "wikiDataId": null
  },
  {
    "id": 32428,
    "name": "Arcediano",
    "state_id": 1147,
    "state_code": "SA",
    "country_id": 207,
    "country_code": "ES",
    "latitude": "41.09379000",
    "longitude": "-5.56055000",
    "wikiDataId": null
  },
  {
    "id": 32487,
    "name": "Armenteros",
    "state_id": 1147,
    "state_code": "SA",
    "country_id": 207,
    "country_code": "ES",
    "latitude": "40.59320000",
    "longitude": "-5.44806000",
    "wikiDataId": null
  },
  {
    "id": 32600,
    "name": "Babilafuente",
    "state_id": 1147,
    "state_code": "SA",
    "country_id": 207,
    "country_code": "ES",
    "latitude": "40.97704000",
    "longitude": "-5.42554000",
    "wikiDataId": null
  },
  {
    "id": 32702,
    "name": "Bañobárez",
    "state_id": 1147,
    "state_code": "SA",
    "country_id": 207,
    "country_code": "ES",
    "latitude": "40.84825000",
    "longitude": "-6.61311000",
    "wikiDataId": null
  },
  {
    "id": 152509,
    "name": "Barbadillo",
    "state_id": 1147,
    "state_code": "SA",
    "country_id": 207,
    "country_code": "ES",
    "latitude": "40.93190170",
    "longitude": "-5.88089550",
    "wikiDataId": null
  },
  {
    "id": 32644,
    "name": "Barbalos",
    "state_id": 1147,
    "state_code": "SA",
    "country_id": 207,
    "country_code": "ES",
    "latitude": "40.67678000",
    "longitude": "-5.94258000",
    "wikiDataId": null
  },
  {
    "id": 32654,
    "name": "Barceo",
    "state_id": 1147,
    "state_code": "SA",
    "country_id": 207,
    "country_code": "ES",
    "latitude": "41.06108000",
    "longitude": "-6.45175000",
    "wikiDataId": null
  },
  {
    "id": 32681,
    "name": "Barruecopardo",
    "state_id": 1147,
    "state_code": "SA",
    "country_id": 207,
    "country_code": "ES",
    "latitude": "41.07215000",
    "longitude": "-6.66423000",
    "wikiDataId": null
  },
  {
    "id": 33058,
    "name": "Béjar",
    "state_id": 1147,
    "state_code": "SA",
    "country_id": 207,
    "country_code": "ES",
    "latitude": "40.38641000",
    "longitude": "-5.76341000",
    "wikiDataId": null
  },
  {
    "id": 32738,
    "name": "Beleña",
    "state_id": 1147,
    "state_code": "SA",
    "country_id": 207,
    "country_code": "ES",
    "latitude": "40.75067000",
    "longitude": "-5.62713000",
    "wikiDataId": null
  },
  {
    "id": 32858,
    "name": "Bermellar",
    "state_id": 1147,
    "state_code": "SA",
    "country_id": 207,
    "country_code": "ES",
    "latitude": "40.99918000",
    "longitude": "-6.67014000",
    "wikiDataId": null
  },
  {
    "id": 32869,
    "name": "Berrocal de Huebra",
    "state_id": 1147,
    "state_code": "SA",
    "country_id": 207,
    "country_code": "ES",
    "latitude": "40.71864000",
    "longitude": "-6.00054000",
    "wikiDataId": null
  },
  {
    "id": 32870,
    "name": "Berrocal de Salvatierra",
    "state_id": 1147,
    "state_code": "SA",
    "country_id": 207,
    "country_code": "ES",
    "latitude": "40.63331000",
    "longitude": "-5.69005000",
    "wikiDataId": null
  },
  {
    "id": 32914,
    "name": "Boada",
    "state_id": 1147,
    "state_code": "SA",
    "country_id": 207,
    "country_code": "ES",
    "latitude": "40.81569000",
    "longitude": "-6.30611000",
    "wikiDataId": null
  },
  {
    "id": 32929,
    "name": "Bogajo",
    "state_id": 1147,
    "state_code": "SA",
    "country_id": 207,
    "country_code": "ES",
    "latitude": "40.90710000",
    "longitude": "-6.53065000",
    "wikiDataId": null
  },
  {
    "id": 33063,
    "name": "Bóveda del Río Almar",
    "state_id": 1147,
    "state_code": "SA",
    "country_id": 207,
    "country_code": "ES",
    "latitude": "40.85719000",
    "longitude": "-5.21030000",
    "wikiDataId": null
  },
  {
    "id": 32987,
    "name": "Brincones",
    "state_id": 1147,
    "state_code": "SA",
    "country_id": 207,
    "country_code": "ES",
    "latitude": "41.11339000",
    "longitude": "-6.34865000",
    "wikiDataId": null
  },
  {
    "id": 33001,
    "name": "Buenamadre",
    "state_id": 1147,
    "state_code": "SA",
    "country_id": 207,
    "country_code": "ES",
    "latitude": "40.85705000",
    "longitude": "-6.24987000",
    "wikiDataId": null
  },
  {
    "id": 33003,
    "name": "Buenavista",
    "state_id": 1147,
    "state_code": "SA",
    "country_id": 207,
    "country_code": "ES",
    "latitude": "40.76763000",
    "longitude": "-5.61139000",
    "wikiDataId": null
  },
  {
    "id": 33078,
    "name": "Cabeza del Caballo",
    "state_id": 1147,
    "state_code": "SA",
    "country_id": 207,
    "country_code": "ES",
    "latitude": "41.12982000",
    "longitude": "-6.55742000",
    "wikiDataId": null
  },
  {
    "id": 33081,
    "name": "Cabezabellosa de la Calzada",
    "state_id": 1147,
    "state_code": "SA",
    "country_id": 207,
    "country_code": "ES",
    "latitude": "41.04395000",
    "longitude": "-5.48866000",
    "wikiDataId": null
  },
  {
    "id": 33105,
    "name": "Cabrerizos",
    "state_id": 1147,
    "state_code": "SA",
    "country_id": 207,
    "country_code": "ES",
    "latitude": "40.97808000",
    "longitude": "-5.60907000",
    "wikiDataId": null
  },
  {
    "id": 33110,
    "name": "Cabrillas",
    "state_id": 1147,
    "state_code": "SA",
    "country_id": 207,
    "country_code": "ES",
    "latitude": "40.73977000",
    "longitude": "-6.17873000",
    "wikiDataId": null
  },
  {
    "id": 33153,
    "name": "Calvarrasa de Abajo",
    "state_id": 1147,
    "state_code": "SA",
    "country_id": 207,
    "country_code": "ES",
    "latitude": "40.94638000",
    "longitude": "-5.55258000",
    "wikiDataId": null
  },
  {
    "id": 33154,
    "name": "Calvarrasa de Arriba",
    "state_id": 1147,
    "state_code": "SA",
    "country_id": 207,
    "country_code": "ES",
    "latitude": "40.90672000",
    "longitude": "-5.59199000",
    "wikiDataId": null
  },
  {
    "id": 33157,
    "name": "Calzada de Don Diego",
    "state_id": 1147,
    "state_code": "SA",
    "country_id": 207,
    "country_code": "ES",
    "latitude": "40.90500000",
    "longitude": "-5.90279000",
    "wikiDataId": null
  },
  {
    "id": 33158,
    "name": "Calzada de Valdunciel",
    "state_id": 1147,
    "state_code": "SA",
    "country_id": 207,
    "country_code": "ES",
    "latitude": "41.08663000",
    "longitude": "-5.70219000",
    "wikiDataId": null
  },
  {
    "id": 33190,
    "name": "Campillo de Azaba",
    "state_id": 1147,
    "state_code": "SA",
    "country_id": 207,
    "country_code": "ES",
    "latitude": "40.50951000",
    "longitude": "-6.68705000",
    "wikiDataId": null
  },
  {
    "id": 33227,
    "name": "Candelario",
    "state_id": 1147,
    "state_code": "SA",
    "country_id": 207,
    "country_code": "ES",
    "latitude": "40.36806000",
    "longitude": "-5.74499000",
    "wikiDataId": null
  },
  {
    "id": 33240,
    "name": "Canillas de Abajo",
    "state_id": 1147,
    "state_code": "SA",
    "country_id": 207,
    "country_code": "ES",
    "latitude": "40.92266000",
    "longitude": "-5.92905000",
    "wikiDataId": null
  },
  {
    "id": 33249,
    "name": "Cantagallo",
    "state_id": 1147,
    "state_code": "SA",
    "country_id": 207,
    "country_code": "ES",
    "latitude": "40.37239000",
    "longitude": "-5.81890000",
    "wikiDataId": null
  },
  {
    "id": 33250,
    "name": "Cantalapiedra",
    "state_id": 1147,
    "state_code": "SA",
    "country_id": 207,
    "country_code": "ES",
    "latitude": "41.12630000",
    "longitude": "-5.18351000",
    "wikiDataId": null
  },
  {
    "id": 33254,
    "name": "Cantalpino",
    "state_id": 1147,
    "state_code": "SA",
    "country_id": 207,
    "country_code": "ES",
    "latitude": "41.05341000",
    "longitude": "-5.33045000",
    "wikiDataId": null
  },
  {
    "id": 33255,
    "name": "Cantaracillo",
    "state_id": 1147,
    "state_code": "SA",
    "country_id": 207,
    "country_code": "ES",
    "latitude": "40.90376000",
    "longitude": "-5.16291000",
    "wikiDataId": null
  },
  {
    "id": 33281,
    "name": "Carbajosa de la Sagrada",
    "state_id": 1147,
    "state_code": "SA",
    "country_id": 207,
    "country_code": "ES",
    "latitude": "40.93305000",
    "longitude": "-5.65026000",
    "wikiDataId": null
  },
  {
    "id": 33314,
    "name": "Carpio de Azaba",
    "state_id": 1147,
    "state_code": "SA",
    "country_id": 207,
    "country_code": "ES",
    "latitude": "40.59602000",
    "longitude": "-6.64680000",
    "wikiDataId": null
  },
  {
    "id": 33318,
    "name": "Carrascal de Barregas",
    "state_id": 1147,
    "state_code": "SA",
    "country_id": 207,
    "country_code": "ES",
    "latitude": "40.97868000",
    "longitude": "-5.76227000",
    "wikiDataId": null
  },
  {
    "id": 33319,
    "name": "Carrascal del Obispo",
    "state_id": 1147,
    "state_code": "SA",
    "country_id": 207,
    "country_code": "ES",
    "latitude": "40.76376000",
    "longitude": "-5.99913000",
    "wikiDataId": null
  },
  {
    "id": 33344,
    "name": "Casafranca",
    "state_id": 1147,
    "state_code": "SA",
    "country_id": 207,
    "country_code": "ES",
    "latitude": "40.59267000",
    "longitude": "-5.76039000",
    "wikiDataId": null
  },
  {
    "id": 33390,
    "name": "Casillas de Flores",
    "state_id": 1147,
    "state_code": "SA",
    "country_id": 207,
    "country_code": "ES",
    "latitude": "40.38108000",
    "longitude": "-6.75602000",
    "wikiDataId": null
  },
  {
    "id": 33415,
    "name": "Castellanos de Moriscos",
    "state_id": 1147,
    "state_code": "SA",
    "country_id": 207,
    "country_code": "ES",
    "latitude": "41.01917000",
    "longitude": "-5.59065000",
    "wikiDataId": null
  },
  {
    "id": 33416,
    "name": "Castellanos de Villiquera",
    "state_id": 1147,
    "state_code": "SA",
    "country_id": 207,
    "country_code": "ES",
    "latitude": "41.05139000",
    "longitude": "-5.69477000",
    "wikiDataId": null
  },
  {
    "id": 33458,
    "name": "Castillejo de Martín Viejo",
    "state_id": 1147,
    "state_code": "SA",
    "country_id": 207,
    "country_code": "ES",
    "latitude": "40.69728000",
    "longitude": "-6.63763000",
    "wikiDataId": null
  },
  {
    "id": 33471,
    "name": "Castraz",
    "state_id": 1147,
    "state_code": "SA",
    "country_id": 207,
    "country_code": "ES",
    "latitude": "40.70517000",
    "longitude": "-6.33383000",
    "wikiDataId": null
  },
  {
    "id": 33576,
    "name": "Cepeda",
    "state_id": 1147,
    "state_code": "SA",
    "country_id": 207,
    "country_code": "ES",
    "latitude": "40.46600000",
    "longitude": "-6.04100000",
    "wikiDataId": null
  },
  {
    "id": 33583,
    "name": "Cereceda de la Sierra",
    "state_id": 1147,
    "state_code": "SA",
    "country_id": 207,
    "country_code": "ES",
    "latitude": "40.56627000",
    "longitude": "-6.09140000",
    "wikiDataId": null
  },
  {
    "id": 33586,
    "name": "Cerezal de Peñahorcada",
    "state_id": 1147,
    "state_code": "SA",
    "country_id": 207,
    "country_code": "ES",
    "latitude": "41.13071000",
    "longitude": "-6.65357000",
    "wikiDataId": null
  },
  {
    "id": 33591,
    "name": "Cerralbo",
    "state_id": 1147,
    "state_code": "SA",
    "country_id": 207,
    "country_code": "ES",
    "latitude": "40.97347000",
    "longitude": "-6.58710000",
    "wikiDataId": null
  },
  {
    "id": 152519,
    "name": "Cespedosa de Tormes",
    "state_id": 1147,
    "state_code": "SA",
    "country_id": 207,
    "country_code": "ES",
    "latitude": "40.54393940",
    "longitude": "-5.58076380",
    "wikiDataId": null
  },
  {
    "id": 152521,
    "name": "Chagarcía Medianero",
    "state_id": 1147,
    "state_code": "SA",
    "country_id": 207,
    "country_code": "ES",
    "latitude": "40.64962540",
    "longitude": "-5.38152250",
    "wikiDataId": null
  },
  {
    "id": 33668,
    "name": "Cilleros de la Bastida",
    "state_id": 1147,
    "state_code": "SA",
    "country_id": 207,
    "country_code": "ES",
    "latitude": "40.57614000",
    "longitude": "-6.06094000",
    "wikiDataId": null
  },
  {
    "id": 33680,
    "name": "Cipérez",
    "state_id": 1147,
    "state_code": "SA",
    "country_id": 207,
    "country_code": "ES",
    "latitude": "40.96210000",
    "longitude": "-6.26552000",
    "wikiDataId": null
  },
  {
    "id": 33698,
    "name": "Ciudad Rodrigo",
    "state_id": 1147,
    "state_code": "SA",
    "country_id": 207,
    "country_code": "ES",
    "latitude": "40.60000000",
    "longitude": "-6.53333000",
    "wikiDataId": null
  },
  {
    "id": 33715,
    "name": "Coca de Alba",
    "state_id": 1147,
    "state_code": "SA",
    "country_id": 207,
    "country_code": "ES",
    "latitude": "40.87833000",
    "longitude": "-5.36537000",
    "wikiDataId": null
  },
  {
    "id": 33743,
    "name": "Colmenar de Montemayor",
    "state_id": 1147,
    "state_code": "SA",
    "country_id": 207,
    "country_code": "ES",
    "latitude": "40.39957000",
    "longitude": "-5.95618000",
    "wikiDataId": null
  },
  {
    "id": 33781,
    "name": "Cordovilla",
    "state_id": 1147,
    "state_code": "SA",
    "country_id": 207,
    "country_code": "ES",
    "latitude": "40.95095000",
    "longitude": "-5.40725000",
    "wikiDataId": null
  },
  {
    "id": 33837,
    "name": "Cristóbal",
    "state_id": 1147,
    "state_code": "SA",
    "country_id": 207,
    "country_code": "ES",
    "latitude": "40.46923000",
    "longitude": "-5.88967000",
    "wikiDataId": null
  },
  {
    "id": 33935,
    "name": "Dios le Guarde",
    "state_id": 1147,
    "state_code": "SA",
    "country_id": 207,
    "country_code": "ES",
    "latitude": "40.64283000",
    "longitude": "-6.31511000",
    "wikiDataId": null
  },
  {
    "id": 33955,
    "name": "Doñinos de Ledesma",
    "state_id": 1147,
    "state_code": "SA",
    "country_id": 207,
    "country_code": "ES",
    "latitude": "41.01251000",
    "longitude": "-6.03412000",
    "wikiDataId": null
  },
  {
    "id": 33956,
    "name": "Doñinos de Salamanca",
    "state_id": 1147,
    "state_code": "SA",
    "country_id": 207,
    "country_code": "ES",
    "latitude": "40.95978000",
    "longitude": "-5.74349000",
    "wikiDataId": null
  },
  {
    "id": 33975,
    "name": "Ejeme",
    "state_id": 1147,
    "state_code": "SA",
    "country_id": 207,
    "country_code": "ES",
    "latitude": "40.76685000",
    "longitude": "-5.53828000",
    "wikiDataId": null
  },
  {
    "id": 152506,
    "name": "El Arco",
    "state_id": 1147,
    "state_code": "SA",
    "country_id": 207,
    "country_code": "ES",
    "latitude": "41.11312950",
    "longitude": "-5.82549440",
    "wikiDataId": null
  },
  {
    "id": 152511,
    "name": "El Bodón",
    "state_id": 1147,
    "state_code": "SA",
    "country_id": 207,
    "country_code": "ES",
    "latitude": "40.48785100",
    "longitude": "-6.57500220",
    "wikiDataId": null
  },
  {
    "id": 152513,
    "name": "El Cabaco",
    "state_id": 1147,
    "state_code": "SA",
    "country_id": 207,
    "country_code": "ES",
    "latitude": "40.97010390",
    "longitude": "-5.66353970",
    "wikiDataId": null
  },
  {
    "id": 152516,
    "name": "El Campo de Peñaranda",
    "state_id": 1147,
    "state_code": "SA",
    "country_id": 207,
    "country_code": "ES",
    "latitude": "40.98464870",
    "longitude": "-5.25734400",
    "wikiDataId": null
  },
  {
    "id": 152518,
    "name": "El Cerro",
    "state_id": 1147,
    "state_code": "SA",
    "country_id": 207,
    "country_code": "ES",
    "latitude": "40.32668200",
    "longitude": "-5.91653750",
    "wikiDataId": null
  },
  {
    "id": 152520,
    "name": "El Cubo de Don Sancho",
    "state_id": 1147,
    "state_code": "SA",
    "country_id": 207,
    "country_code": "ES",
    "latitude": "40.89122940",
    "longitude": "-6.30532970",
    "wikiDataId": null
  },
  {
    "id": 152531,
    "name": "El Maíllo",
    "state_id": 1147,
    "state_code": "SA",
    "country_id": 207,
    "country_code": "ES",
    "latitude": "40.56628660",
    "longitude": "-6.18087380",
    "wikiDataId": null
  },
  {
    "id": 152532,
    "name": "El Manzano",
    "state_id": 1147,
    "state_code": "SA",
    "country_id": 207,
    "country_code": "ES",
    "latitude": "41.17401000",
    "longitude": "-6.28872110",
    "wikiDataId": null
  },
  {
    "id": 152535,
    "name": "El Milano",
    "state_id": 1147,
    "state_code": "SA",
    "country_id": 207,
    "country_code": "ES",
    "latitude": "41.09273770",
    "longitude": "-6.59902880",
    "wikiDataId": null
  },
  {
    "id": 152538,
    "name": "El Payo",
    "state_id": 1147,
    "state_code": "SA",
    "country_id": 207,
    "country_code": "ES",
    "latitude": "40.28745490",
    "longitude": "-6.72732290",
    "wikiDataId": null
  },
  {
    "id": 152539,
    "name": "El Pedroso de la Armuña",
    "state_id": 1147,
    "state_code": "SA",
    "country_id": 207,
    "country_code": "ES",
    "latitude": "41.07987980",
    "longitude": "-5.39984520",
    "wikiDataId": null
  },
  {
    "id": 152542,
    "name": "El Pino de Tormes",
    "state_id": 1147,
    "state_code": "SA",
    "country_id": 207,
    "country_code": "ES",
    "latitude": "41.03947080",
    "longitude": "-5.79254190",
    "wikiDataId": null
  },
  {
    "id": 152547,
    "name": "El Sahugo",
    "state_id": 1147,
    "state_code": "SA",
    "country_id": 207,
    "country_code": "ES",
    "latitude": "40.41494090",
    "longitude": "-6.54164700",
    "wikiDataId": null
  },
  {
    "id": 152552,
    "name": "El Tejado",
    "state_id": 1147,
    "state_code": "SA",
    "country_id": 207,
    "country_code": "ES",
    "latitude": "40.44234670",
    "longitude": "-5.53932780",
    "wikiDataId": null
  },
  {
    "id": 152553,
    "name": "El Tornadizo",
    "state_id": 1147,
    "state_code": "SA",
    "country_id": 207,
    "country_code": "ES",
    "latitude": "40.54246180",
    "longitude": "-5.89145390",
    "wikiDataId": null
  },
  {
    "id": 34044,
    "name": "Encina de San Silvestre",
    "state_id": 1147,
    "state_code": "SA",
    "country_id": 207,
    "country_code": "ES",
    "latitude": "41.01442000",
    "longitude": "-6.09268000",
    "wikiDataId": null
  },
  {
    "id": 34048,
    "name": "Encinas de Abajo",
    "state_id": 1147,
    "state_code": "SA",
    "country_id": 207,
    "country_code": "ES",
    "latitude": "40.93493000",
    "longitude": "-5.47037000",
    "wikiDataId": null
  },
  {
    "id": 34049,
    "name": "Encinas de Arriba",
    "state_id": 1147,
    "state_code": "SA",
    "country_id": 207,
    "country_code": "ES",
    "latitude": "40.77120000",
    "longitude": "-5.55661000",
    "wikiDataId": null
  },
  {
    "id": 34052,
    "name": "Encinasola de los Comendadores",
    "state_id": 1147,
    "state_code": "SA",
    "country_id": 207,
    "country_code": "ES",
    "latitude": "41.03089000",
    "longitude": "-6.53261000",
    "wikiDataId": null
  },
  {
    "id": 34057,
    "name": "Endrinal",
    "state_id": 1147,
    "state_code": "SA",
    "country_id": 207,
    "country_code": "ES",
    "latitude": "40.59109000",
    "longitude": "-5.80411000",
    "wikiDataId": null
  },
  {
    "id": 34093,
    "name": "Escurial de la Sierra",
    "state_id": 1147,
    "state_code": "SA",
    "country_id": 207,
    "country_code": "ES",
    "latitude": "40.61731000",
    "longitude": "-5.95520000",
    "wikiDataId": null
  },
  {
    "id": 34101,
    "name": "Espadaña",
    "state_id": 1147,
    "state_code": "SA",
    "country_id": 207,
    "country_code": "ES",
    "latitude": "41.06085000",
    "longitude": "-6.28457000",
    "wikiDataId": null
  },
  {
    "id": 34110,
    "name": "Espeja",
    "state_id": 1147,
    "state_code": "SA",
    "country_id": 207,
    "country_code": "ES",
    "latitude": "40.56565000",
    "longitude": "-6.71582000",
    "wikiDataId": null
  },
  {
    "id": 34117,
    "name": "Espino de la Orbada",
    "state_id": 1147,
    "state_code": "SA",
    "country_id": 207,
    "country_code": "ES",
    "latitude": "41.10693000",
    "longitude": "-5.42515000",
    "wikiDataId": null
  },
  {
    "id": 34197,
    "name": "Florida de Liébana",
    "state_id": 1147,
    "state_code": "SA",
    "country_id": 207,
    "country_code": "ES",
    "latitude": "41.02361000",
    "longitude": "-5.76252000",
    "wikiDataId": null
  },
  {
    "id": 34221,
    "name": "Forfoleda",
    "state_id": 1147,
    "state_code": "SA",
    "country_id": 207,
    "country_code": "ES",
    "latitude": "41.09779000",
    "longitude": "-5.74979000",
    "wikiDataId": null
  },
  {
    "id": 34236,
    "name": "Frades de la Sierra",
    "state_id": 1147,
    "state_code": "SA",
    "country_id": 207,
    "country_code": "ES",
    "latitude": "40.65687000",
    "longitude": "-5.78223000",
    "wikiDataId": null
  },
  {
    "id": 34250,
    "name": "Fresnedoso",
    "state_id": 1147,
    "state_code": "SA",
    "country_id": 207,
    "country_code": "ES",
    "latitude": "40.43619000",
    "longitude": "-5.70969000",
    "wikiDataId": null
  },
  {
    "id": 152524,
    "name": "Fresno Alhándiga",
    "state_id": 1147,
    "state_code": "SA",
    "country_id": 207,
    "country_code": "ES",
    "latitude": "40.71307930",
    "longitude": "-5.61520210",
    "wikiDataId": null
  },
  {
    "id": 34315,
    "name": "Fuenteguinaldo",
    "state_id": 1147,
    "state_code": "SA",
    "country_id": 207,
    "country_code": "ES",
    "latitude": "40.42876000",
    "longitude": "-6.67528000",
    "wikiDataId": null
  },
  {
    "id": 152526,
    "name": "Fuenteliante",
    "state_id": 1147,
    "state_code": "SA",
    "country_id": 207,
    "country_code": "ES",
    "latitude": "40.84259290",
    "longitude": "-6.56766250",
    "wikiDataId": null
  },
  {
    "id": 34333,
    "name": "Fuenterroble de Salvatierra",
    "state_id": 1147,
    "state_code": "SA",
    "country_id": 207,
    "country_code": "ES",
    "latitude": "40.56466000",
    "longitude": "-5.73379000",
    "wikiDataId": null
  },
  {
    "id": 34341,
    "name": "Fuentes de Béjar",
    "state_id": 1147,
    "state_code": "SA",
    "country_id": 207,
    "country_code": "ES",
    "latitude": "40.50815000",
    "longitude": "-5.69270000",
    "wikiDataId": null
  },
  {
    "id": 34348,
    "name": "Fuentes de Oñoro",
    "state_id": 1147,
    "state_code": "SA",
    "country_id": 207,
    "country_code": "ES",
    "latitude": "40.59102000",
    "longitude": "-6.81144000",
    "wikiDataId": null
  },
  {
    "id": 34372,
    "name": "Gajates",
    "state_id": 1147,
    "state_code": "SA",
    "country_id": 207,
    "country_code": "ES",
    "latitude": "40.78254000",
    "longitude": "-5.36506000",
    "wikiDataId": null
  },
  {
    "id": 34382,
    "name": "Galindo y Perahuy",
    "state_id": 1147,
    "state_code": "SA",
    "country_id": 207,
    "country_code": "ES",
    "latitude": "40.94397000",
    "longitude": "-5.87410000",
    "wikiDataId": null
  },
  {
    "id": 34383,
    "name": "Galinduste",
    "state_id": 1147,
    "state_code": "SA",
    "country_id": 207,
    "country_code": "ES",
    "latitude": "40.66266000",
    "longitude": "-5.54003000",
    "wikiDataId": null
  },
  {
    "id": 34384,
    "name": "Galisancho",
    "state_id": 1147,
    "state_code": "SA",
    "country_id": 207,
    "country_code": "ES",
    "latitude": "40.74418000",
    "longitude": "-5.55471000",
    "wikiDataId": null
  },
  {
    "id": 34387,
    "name": "Gallegos de Argañán",
    "state_id": 1147,
    "state_code": "SA",
    "country_id": 207,
    "country_code": "ES",
    "latitude": "40.63146000",
    "longitude": "-6.70246000",
    "wikiDataId": null
  },
  {
    "id": 152527,
    "name": "Gallegos de Solmirón",
    "state_id": 1147,
    "state_code": "SA",
    "country_id": 207,
    "country_code": "ES",
    "latitude": "40.53605130",
    "longitude": "-5.46729620",
    "wikiDataId": null
  },
  {
    "id": 34409,
    "name": "Garcibuey",
    "state_id": 1147,
    "state_code": "SA",
    "country_id": 207,
    "country_code": "ES",
    "latitude": "40.51552000",
    "longitude": "-5.99439000",
    "wikiDataId": null
  },
  {
    "id": 34410,
    "name": "Garcihernández",
    "state_id": 1147,
    "state_code": "SA",
    "country_id": 207,
    "country_code": "ES",
    "latitude": "40.86096000",
    "longitude": "-5.43567000",
    "wikiDataId": null
  },
  {
    "id": 34412,
    "name": "Garcirrey",
    "state_id": 1147,
    "state_code": "SA",
    "country_id": 207,
    "country_code": "ES",
    "latitude": "40.90049000",
    "longitude": "-6.13120000",
    "wikiDataId": null
  },
  {
    "id": 34444,
    "name": "Gejuelo del Barro",
    "state_id": 1147,
    "state_code": "SA",
    "country_id": 207,
    "country_code": "ES",
    "latitude": "41.07633000",
    "longitude": "-6.12332000",
    "wikiDataId": null
  },
  {
    "id": 34481,
    "name": "Golpejas",
    "state_id": 1147,
    "state_code": "SA",
    "country_id": 207,
    "country_code": "ES",
    "latitude": "40.99981000",
    "longitude": "-5.90687000",
    "wikiDataId": null
  },
  {
    "id": 34482,
    "name": "Gomecello",
    "state_id": 1147,
    "state_code": "SA",
    "country_id": 207,
    "country_code": "ES",
    "latitude": "41.04280000",
    "longitude": "-5.53585000",
    "wikiDataId": null
  },
  {
    "id": 34532,
    "name": "Guadramiro",
    "state_id": 1147,
    "state_code": "SA",
    "country_id": 207,
    "country_code": "ES",
    "latitude": "41.01703000",
    "longitude": "-6.49369000",
    "wikiDataId": null
  },
  {
    "id": 34546,
    "name": "Guijo de Ávila",
    "state_id": 1147,
    "state_code": "SA",
    "country_id": 207,
    "country_code": "ES",
    "latitude": "40.53078000",
    "longitude": "-5.63970000",
    "wikiDataId": null
  },
  {
    "id": 34547,
    "name": "Guijuelo",
    "state_id": 1147,
    "state_code": "SA",
    "country_id": 207,
    "country_code": "ES",
    "latitude": "40.55757000",
    "longitude": "-5.67067000",
    "wikiDataId": null
  },
  {
    "id": 34583,
    "name": "Herguijuela de Ciudad Rodrigo",
    "state_id": 1147,
    "state_code": "SA",
    "country_id": 207,
    "country_code": "ES",
    "latitude": "40.45860000",
    "longitude": "-6.52075000",
    "wikiDataId": null
  },
  {
    "id": 34584,
    "name": "Herguijuela de la Sierra",
    "state_id": 1147,
    "state_code": "SA",
    "country_id": 207,
    "country_code": "ES",
    "latitude": "40.44535000",
    "longitude": "-6.07445000",
    "wikiDataId": null
  },
  {
    "id": 34585,
    "name": "Herguijuela del Campo",
    "state_id": 1147,
    "state_code": "SA",
    "country_id": 207,
    "country_code": "ES",
    "latitude": "40.63102000",
    "longitude": "-5.86398000",
    "wikiDataId": null
  },
  {
    "id": 34623,
    "name": "Hinojosa de Duero",
    "state_id": 1147,
    "state_code": "SA",
    "country_id": 207,
    "country_code": "ES",
    "latitude": "40.98674000",
    "longitude": "-6.79529000",
    "wikiDataId": null
  },
  {
    "id": 34650,
    "name": "Horcajo de Montemayor",
    "state_id": 1147,
    "state_code": "SA",
    "country_id": 207,
    "country_code": "ES",
    "latitude": "40.42265000",
    "longitude": "-5.89427000",
    "wikiDataId": null
  },
  {
    "id": 152528,
    "name": "Horcajo Medianero",
    "state_id": 1147,
    "state_code": "SA",
    "country_id": 207,
    "country_code": "ES",
    "latitude": "40.63900510",
    "longitude": "-5.40573580",
    "wikiDataId": null
  },
  {
    "id": 152530,
    "name": "Huerta",
    "state_id": 1147,
    "state_code": "SA",
    "country_id": 207,
    "country_code": "ES",
    "latitude": "40.96838410",
    "longitude": "-5.46777690",
    "wikiDataId": null
  },
  {
    "id": 34760,
    "name": "Iruelos",
    "state_id": 1147,
    "state_code": "SA",
    "country_id": 207,
    "country_code": "ES",
    "latitude": "41.14135000",
    "longitude": "-6.32808000",
    "wikiDataId": null
  },
  {
    "id": 34772,
    "name": "Ituero de Azaba",
    "state_id": 1147,
    "state_code": "SA",
    "country_id": 207,
    "country_code": "ES",
    "latitude": "40.48487000",
    "longitude": "-6.69272000",
    "wikiDataId": null
  },
  {
    "id": 34835,
    "name": "Juzbado",
    "state_id": 1147,
    "state_code": "SA",
    "country_id": 207,
    "country_code": "ES",
    "latitude": "41.07791000",
    "longitude": "-5.86140000",
    "wikiDataId": null
  },
  {
    "id": 152501,
    "name": "La Alameda de Gardón",
    "state_id": 1147,
    "state_code": "SA",
    "country_id": 207,
    "country_code": "ES",
    "latitude": "40.65060050",
    "longitude": "-6.75809810",
    "wikiDataId": null
  },
  {
    "id": 152502,
    "name": "La Alamedilla",
    "state_id": 1147,
    "state_code": "SA",
    "country_id": 207,
    "country_code": "ES",
    "latitude": "40.47221790",
    "longitude": "-6.82806550",
    "wikiDataId": null
  },
  {
    "id": 152503,
    "name": "La Alberca",
    "state_id": 1147,
    "state_code": "SA",
    "country_id": 207,
    "country_code": "ES",
    "latitude": "40.48301250",
    "longitude": "-6.12089260",
    "wikiDataId": null
  },
  {
    "id": 152504,
    "name": "La Alberguería de Argañán",
    "state_id": 1147,
    "state_code": "SA",
    "country_id": 207,
    "country_code": "ES",
    "latitude": "40.41313450",
    "longitude": "-6.81433390",
    "wikiDataId": null
  },
  {
    "id": 152508,
    "name": "La Atalaya",
    "state_id": 1147,
    "state_code": "SA",
    "country_id": 207,
    "country_code": "ES",
    "latitude": "40.50860900",
    "longitude": "-6.39708840",
    "wikiDataId": null
  },
  {
    "id": 152510,
    "name": "La Bastida",
    "state_id": 1147,
    "state_code": "SA",
    "country_id": 207,
    "country_code": "ES",
    "latitude": "40.58540180",
    "longitude": "-6.05898470",
    "wikiDataId": null
  },
  {
    "id": 152512,
    "name": "La Bouza",
    "state_id": 1147,
    "state_code": "SA",
    "country_id": 207,
    "country_code": "ES",
    "latitude": "40.83630880",
    "longitude": "-6.79558320",
    "wikiDataId": null
  },
  {
    "id": 152514,
    "name": "La Cabeza de Béjar",
    "state_id": 1147,
    "state_code": "SA",
    "country_id": 207,
    "country_code": "ES",
    "latitude": "40.50134550",
    "longitude": "-5.66157100",
    "wikiDataId": null
  },
  {
    "id": 152515,
    "name": "La Calzada de Béjar",
    "state_id": 1147,
    "state_code": "SA",
    "country_id": 207,
    "country_code": "ES",
    "latitude": "40.41175350",
    "longitude": "-5.81758420",
    "wikiDataId": null
  },
  {
    "id": 152522,
    "name": "La Encina",
    "state_id": 1147,
    "state_code": "SA",
    "country_id": 207,
    "country_code": "ES",
    "latitude": "40.51635500",
    "longitude": "-6.53031020",
    "wikiDataId": null
  },
  {
    "id": 152523,
    "name": "La Fregeneda",
    "state_id": 1147,
    "state_code": "SA",
    "country_id": 207,
    "country_code": "ES",
    "latitude": "40.98801120",
    "longitude": "-6.86659650",
    "wikiDataId": null
  },
  {
    "id": 152525,
    "name": "La Fuente de San Esteban",
    "state_id": 1147,
    "state_code": "SA",
    "country_id": 207,
    "country_code": "ES",
    "latitude": "40.80061560",
    "longitude": "-6.25750910",
    "wikiDataId": null
  },
  {
    "id": 152529,
    "name": "La Hoya",
    "state_id": 1147,
    "state_code": "SA",
    "country_id": 207,
    "country_code": "ES",
    "latitude": "40.40719210",
    "longitude": "-5.69872690",
    "wikiDataId": null
  },
  {
    "id": 152533,
    "name": "La Mata de Ledesma",
    "state_id": 1147,
    "state_code": "SA",
    "country_id": 207,
    "country_code": "ES",
    "latitude": "41.00052450",
    "longitude": "-5.97103110",
    "wikiDataId": null
  },
  {
    "id": 152534,
    "name": "La Maya",
    "state_id": 1147,
    "state_code": "SA",
    "country_id": 207,
    "country_code": "ES",
    "latitude": "40.68838100",
    "longitude": "-5.61688340",
    "wikiDataId": null
  },
  {
    "id": 152537,
    "name": "La Orbada",
    "state_id": 1147,
    "state_code": "SA",
    "country_id": 207,
    "country_code": "ES",
    "latitude": "41.10354440",
    "longitude": "-5.48367970",
    "wikiDataId": null
  },
  {
    "id": 152540,
    "name": "La Peña",
    "state_id": 1147,
    "state_code": "SA",
    "country_id": 207,
    "country_code": "ES",
    "latitude": "41.17376640",
    "longitude": "-6.51875450",
    "wikiDataId": null
  },
  {
    "id": 152543,
    "name": "La Redonda",
    "state_id": 1147,
    "state_code": "SA",
    "country_id": 207,
    "country_code": "ES",
    "latitude": "40.90827040",
    "longitude": "-6.74873020",
    "wikiDataId": null
  },
  {
    "id": 152544,
    "name": "La Rinconada de la Sierra",
    "state_id": 1147,
    "state_code": "SA",
    "country_id": 207,
    "country_code": "ES",
    "latitude": "40.61301620",
    "longitude": "-6.02094400",
    "wikiDataId": null
  },
  {
    "id": 152545,
    "name": "La Sagrada",
    "state_id": 1147,
    "state_code": "SA",
    "country_id": 207,
    "country_code": "ES",
    "latitude": "40.74433770",
    "longitude": "-6.07122890",
    "wikiDataId": null
  },
  {
    "id": 152549,
    "name": "La Sierpe",
    "state_id": 1147,
    "state_code": "SA",
    "country_id": 207,
    "country_code": "ES",
    "latitude": "40.64387490",
    "longitude": "-5.85121000",
    "wikiDataId": null
  },
  {
    "id": 152551,
    "name": "La Tala",
    "state_id": 1147,
    "state_code": "SA",
    "country_id": 207,
    "country_code": "ES",
    "latitude": "40.58982760",
    "longitude": "-5.53683540",
    "wikiDataId": null
  },
  {
    "id": 152555,
    "name": "La Vellés",
    "state_id": 1147,
    "state_code": "SA",
    "country_id": 207,
    "country_code": "ES",
    "latitude": "41.07079740",
    "longitude": "-5.57748140",
    "wikiDataId": null
  },
  {
    "id": 152556,
    "name": "La Vídola",
    "state_id": 1147,
    "state_code": "SA",
    "country_id": 207,
    "country_code": "ES",
    "latitude": "41.15424380",
    "longitude": "-6.48698230",
    "wikiDataId": null
  },
  {
    "id": 152558,
    "name": "La Zarza de Pumareda",
    "state_id": 1147,
    "state_code": "SA",
    "country_id": 207,
    "country_code": "ES",
    "latitude": "41.16127260",
    "longitude": "-6.62765420",
    "wikiDataId": null
  },
  {
    "id": 34952,
    "name": "Lagunilla",
    "state_id": 1147,
    "state_code": "SA",
    "country_id": 207,
    "country_code": "ES",
    "latitude": "40.32491000",
    "longitude": "-5.97132000",
    "wikiDataId": null
  },
  {
    "id": 34981,
    "name": "Larrodrigo",
    "state_id": 1147,
    "state_code": "SA",
    "country_id": 207,
    "country_code": "ES",
    "latitude": "40.73722000",
    "longitude": "-5.44895000",
    "wikiDataId": null
  },
  {
    "id": 152517,
    "name": "Las Casas del Conde",
    "state_id": 1147,
    "state_code": "SA",
    "country_id": 207,
    "country_code": "ES",
    "latitude": "40.50759830",
    "longitude": "-6.04158850",
    "wikiDataId": null
  },
  {
    "id": 152554,
    "name": "Las Veguillas",
    "state_id": 1147,
    "state_code": "SA",
    "country_id": 207,
    "country_code": "ES",
    "latitude": "40.71499430",
    "longitude": "-5.83208710",
    "wikiDataId": null
  },
  {
    "id": 35016,
    "name": "Ledesma",
    "state_id": 1147,
    "state_code": "SA",
    "country_id": 207,
    "country_code": "ES",
    "latitude": "41.08829000",
    "longitude": "-6.00178000",
    "wikiDataId": null
  },
  {
    "id": 35019,
    "name": "Ledrada",
    "state_id": 1147,
    "state_code": "SA",
    "country_id": 207,
    "country_code": "ES",
    "latitude": "40.46878000",
    "longitude": "-5.72038000",
    "wikiDataId": null
  },
  {
    "id": 35054,
    "name": "Linares de Riofrío",
    "state_id": 1147,
    "state_code": "SA",
    "country_id": 207,
    "country_code": "ES",
    "latitude": "40.58338000",
    "longitude": "-5.92091000",
    "wikiDataId": null
  },
  {
    "id": 35163,
    "name": "Lumbrales",
    "state_id": 1147,
    "state_code": "SA",
    "country_id": 207,
    "country_code": "ES",
    "latitude": "40.93501000",
    "longitude": "-6.71948000",
    "wikiDataId": null
  },
  {
    "id": 35182,
    "name": "Machacón",
    "state_id": 1147,
    "state_code": "SA",
    "country_id": 207,
    "country_code": "ES",
    "latitude": "40.92623000",
    "longitude": "-5.52430000",
    "wikiDataId": null
  },
  {
    "id": 35183,
    "name": "Macotera",
    "state_id": 1147,
    "state_code": "SA",
    "country_id": 207,
    "country_code": "ES",
    "latitude": "40.83105000",
    "longitude": "-5.28526000",
    "wikiDataId": null
  },
  {
    "id": 35195,
    "name": "Madroñal",
    "state_id": 1147,
    "state_code": "SA",
    "country_id": 207,
    "country_code": "ES",
    "latitude": "40.46407000",
    "longitude": "-6.06271000",
    "wikiDataId": null
  },
  {
    "id": 35225,
    "name": "Malpartida",
    "state_id": 1147,
    "state_code": "SA",
    "country_id": 207,
    "country_code": "ES",
    "latitude": "40.76269000",
    "longitude": "-5.23149000",
    "wikiDataId": null
  },
  {
    "id": 35240,
    "name": "Mancera de Abajo",
    "state_id": 1147,
    "state_code": "SA",
    "country_id": 207,
    "country_code": "ES",
    "latitude": "40.83974000",
    "longitude": "-5.19933000",
    "wikiDataId": null
  },
  {
    "id": 35298,
    "name": "Martiago",
    "state_id": 1147,
    "state_code": "SA",
    "country_id": 207,
    "country_code": "ES",
    "latitude": "40.45420000",
    "longitude": "-6.49010000",
    "wikiDataId": null
  },
  {
    "id": 35306,
    "name": "Martín de Yeltes",
    "state_id": 1147,
    "state_code": "SA",
    "country_id": 207,
    "country_code": "ES",
    "latitude": "40.77594000",
    "longitude": "-6.29162000",
    "wikiDataId": null
  },
  {
    "id": 35300,
    "name": "Martinamor",
    "state_id": 1147,
    "state_code": "SA",
    "country_id": 207,
    "country_code": "ES",
    "latitude": "40.80676000",
    "longitude": "-5.59913000",
    "wikiDataId": null
  },
  {
    "id": 35328,
    "name": "Masueco",
    "state_id": 1147,
    "state_code": "SA",
    "country_id": 207,
    "country_code": "ES",
    "latitude": "41.20352000",
    "longitude": "-6.58938000",
    "wikiDataId": null
  },
  {
    "id": 35344,
    "name": "Matilla de los Caños del Río",
    "state_id": 1147,
    "state_code": "SA",
    "country_id": 207,
    "country_code": "ES",
    "latitude": "40.82539000",
    "longitude": "-5.94276000",
    "wikiDataId": null
  },
  {
    "id": 35394,
    "name": "Membribe de la Sierra",
    "state_id": 1147,
    "state_code": "SA",
    "country_id": 207,
    "country_code": "ES",
    "latitude": "40.69123000",
    "longitude": "-5.80568000",
    "wikiDataId": null
  },
  {
    "id": 35422,
    "name": "Mieza",
    "state_id": 1147,
    "state_code": "SA",
    "country_id": 207,
    "country_code": "ES",
    "latitude": "41.16424000",
    "longitude": "-6.69137000",
    "wikiDataId": null
  },
  {
    "id": 35449,
    "name": "Miranda de Azán",
    "state_id": 1147,
    "state_code": "SA",
    "country_id": 207,
    "country_code": "ES",
    "latitude": "40.88752000",
    "longitude": "-5.68182000",
    "wikiDataId": null
  },
  {
    "id": 35451,
    "name": "Miranda del Castañar",
    "state_id": 1147,
    "state_code": "SA",
    "country_id": 207,
    "country_code": "ES",
    "latitude": "40.48448000",
    "longitude": "-5.99581000",
    "wikiDataId": null
  },
  {
    "id": 35466,
    "name": "Mogarraz",
    "state_id": 1147,
    "state_code": "SA",
    "country_id": 207,
    "country_code": "ES",
    "latitude": "40.49264000",
    "longitude": "-6.05327000",
    "wikiDataId": null
  },
  {
    "id": 35481,
    "name": "Molinillo",
    "state_id": 1147,
    "state_code": "SA",
    "country_id": 207,
    "country_code": "ES",
    "latitude": "40.46898000",
    "longitude": "-5.94493000",
    "wikiDataId": null
  },
  {
    "id": 35515,
    "name": "Monforte de la Sierra",
    "state_id": 1147,
    "state_code": "SA",
    "country_id": 207,
    "country_code": "ES",
    "latitude": "40.48264000",
    "longitude": "-6.05671000",
    "wikiDataId": null
  },
  {
    "id": 35519,
    "name": "Monleón",
    "state_id": 1147,
    "state_code": "SA",
    "country_id": 207,
    "country_code": "ES",
    "latitude": "40.58192000",
    "longitude": "-5.84312000",
    "wikiDataId": null
  },
  {
    "id": 35518,
    "name": "Monleras",
    "state_id": 1147,
    "state_code": "SA",
    "country_id": 207,
    "country_code": "ES",
    "latitude": "41.18704000",
    "longitude": "-6.22622000",
    "wikiDataId": null
  },
  {
    "id": 35525,
    "name": "Monsagro",
    "state_id": 1147,
    "state_code": "SA",
    "country_id": 207,
    "country_code": "ES",
    "latitude": "40.50343000",
    "longitude": "-6.27110000",
    "wikiDataId": null
  },
  {
    "id": 35552,
    "name": "Montejo",
    "state_id": 1147,
    "state_code": "SA",
    "country_id": 207,
    "country_code": "ES",
    "latitude": "40.63246000",
    "longitude": "-5.62287000",
    "wikiDataId": null
  },
  {
    "id": 35560,
    "name": "Montemayor del Río",
    "state_id": 1147,
    "state_code": "SA",
    "country_id": 207,
    "country_code": "ES",
    "latitude": "40.34836000",
    "longitude": "-5.89427000",
    "wikiDataId": null
  },
  {
    "id": 35567,
    "name": "Monterrubio de Armuña",
    "state_id": 1147,
    "state_code": "SA",
    "country_id": 207,
    "country_code": "ES",
    "latitude": "41.02651000",
    "longitude": "-5.64389000",
    "wikiDataId": null
  },
  {
    "id": 35569,
    "name": "Monterrubio de la Sierra",
    "state_id": 1147,
    "state_code": "SA",
    "country_id": 207,
    "country_code": "ES",
    "latitude": "40.75592000",
    "longitude": "-5.69329000",
    "wikiDataId": null
  },
  {
    "id": 35613,
    "name": "Morasverdes",
    "state_id": 1147,
    "state_code": "SA",
    "country_id": 207,
    "country_code": "ES",
    "latitude": "40.60019000",
    "longitude": "-6.27503000",
    "wikiDataId": null
  },
  {
    "id": 35630,
    "name": "Morille",
    "state_id": 1147,
    "state_code": "SA",
    "country_id": 207,
    "country_code": "ES",
    "latitude": "40.80693000",
    "longitude": "-5.69833000",
    "wikiDataId": null
  },
  {
    "id": 152536,
    "name": "Moríñigo",
    "state_id": 1147,
    "state_code": "SA",
    "country_id": 207,
    "country_code": "ES",
    "latitude": "40.96984480",
    "longitude": "-5.41424560",
    "wikiDataId": null
  },
  {
    "id": 35631,
    "name": "Moriscos",
    "state_id": 1147,
    "state_code": "SA",
    "country_id": 207,
    "country_code": "ES",
    "latitude": "41.00818000",
    "longitude": "-5.58184000",
    "wikiDataId": null
  },
  {
    "id": 35632,
    "name": "Moronta",
    "state_id": 1147,
    "state_code": "SA",
    "country_id": 207,
    "country_code": "ES",
    "latitude": "40.97688000",
    "longitude": "-6.43103000",
    "wikiDataId": null
  },
  {
    "id": 35651,
    "name": "Mozárbez",
    "state_id": 1147,
    "state_code": "SA",
    "country_id": 207,
    "country_code": "ES",
    "latitude": "40.85652000",
    "longitude": "-5.65144000",
    "wikiDataId": null
  },
  {
    "id": 35716,
    "name": "Narros de Matalayegua",
    "state_id": 1147,
    "state_code": "SA",
    "country_id": 207,
    "country_code": "ES",
    "latitude": "40.69880000",
    "longitude": "-5.92658000",
    "wikiDataId": null
  },
  {
    "id": 35722,
    "name": "Nava de Béjar",
    "state_id": 1147,
    "state_code": "SA",
    "country_id": 207,
    "country_code": "ES",
    "latitude": "40.47518000",
    "longitude": "-5.67856000",
    "wikiDataId": null
  },
  {
    "id": 35723,
    "name": "Nava de Francia",
    "state_id": 1147,
    "state_code": "SA",
    "country_id": 207,
    "country_code": "ES",
    "latitude": "40.53572000",
    "longitude": "-6.11628000",
    "wikiDataId": null
  },
  {
    "id": 35725,
    "name": "Nava de Sotrobal",
    "state_id": 1147,
    "state_code": "SA",
    "country_id": 207,
    "country_code": "ES",
    "latitude": "40.89039000",
    "longitude": "-5.28562000",
    "wikiDataId": null
  },
  {
    "id": 35729,
    "name": "Navacarros",
    "state_id": 1147,
    "state_code": "SA",
    "country_id": 207,
    "country_code": "ES",
    "latitude": "40.39776000",
    "longitude": "-5.71425000",
    "wikiDataId": null
  },
  {
    "id": 35747,
    "name": "Navales",
    "state_id": 1147,
    "state_code": "SA",
    "country_id": 207,
    "country_code": "ES",
    "latitude": "40.78857000",
    "longitude": "-5.47863000",
    "wikiDataId": null
  },
  {
    "id": 35751,
    "name": "Navalmoral de Béjar",
    "state_id": 1147,
    "state_code": "SA",
    "country_id": 207,
    "country_code": "ES",
    "latitude": "40.42264000",
    "longitude": "-5.78310000",
    "wikiDataId": null
  },
  {
    "id": 35762,
    "name": "Navamorales",
    "state_id": 1147,
    "state_code": "SA",
    "country_id": 207,
    "country_code": "ES",
    "latitude": "40.47618000",
    "longitude": "-5.47893000",
    "wikiDataId": null
  },
  {
    "id": 35772,
    "name": "Navarredonda de la Rinconada",
    "state_id": 1147,
    "state_code": "SA",
    "country_id": 207,
    "country_code": "ES",
    "latitude": "40.60657000",
    "longitude": "-6.01169000",
    "wikiDataId": null
  },
  {
    "id": 35785,
    "name": "Navasfrías",
    "state_id": 1147,
    "state_code": "SA",
    "country_id": 207,
    "country_code": "ES",
    "latitude": "40.29679000",
    "longitude": "-6.81975000",
    "wikiDataId": null
  },
  {
    "id": 35798,
    "name": "Negrilla de Palencia",
    "state_id": 1147,
    "state_code": "SA",
    "country_id": 207,
    "country_code": "ES",
    "latitude": "41.09185000",
    "longitude": "-5.59165000",
    "wikiDataId": null
  },
  {
    "id": 35902,
    "name": "Olmedo de Camaces",
    "state_id": 1147,
    "state_code": "SA",
    "country_id": 207,
    "country_code": "ES",
    "latitude": "40.87967000",
    "longitude": "-6.62360000",
    "wikiDataId": null
  },
  {
    "id": 36001,
    "name": "Pajares de la Laguna",
    "state_id": 1147,
    "state_code": "SA",
    "country_id": 207,
    "country_code": "ES",
    "latitude": "41.08754000",
    "longitude": "-5.50888000",
    "wikiDataId": null
  },
  {
    "id": 36010,
    "name": "Palacios del Arzobispo",
    "state_id": 1147,
    "state_code": "SA",
    "country_id": 207,
    "country_code": "ES",
    "latitude": "41.16655000",
    "longitude": "-5.88933000",
    "wikiDataId": null
  },
  {
    "id": 36013,
    "name": "Palaciosrubios",
    "state_id": 1147,
    "state_code": "SA",
    "country_id": 207,
    "country_code": "ES",
    "latitude": "41.05238000",
    "longitude": "-5.19507000",
    "wikiDataId": null
  },
  {
    "id": 36023,
    "name": "Palencia de Negrilla",
    "state_id": 1147,
    "state_code": "SA",
    "country_id": 207,
    "country_code": "ES",
    "latitude": "41.09439000",
    "longitude": "-5.60168000",
    "wikiDataId": null
  },
  {
    "id": 36056,
    "name": "Parada de Arriba",
    "state_id": 1147,
    "state_code": "SA",
    "country_id": 207,
    "country_code": "ES",
    "latitude": "40.98655000",
    "longitude": "-5.79332000",
    "wikiDataId": null
  },
  {
    "id": 36057,
    "name": "Parada de Rubiales",
    "state_id": 1147,
    "state_code": "SA",
    "country_id": 207,
    "country_code": "ES",
    "latitude": "41.14818000",
    "longitude": "-5.43638000",
    "wikiDataId": null
  },
  {
    "id": 36060,
    "name": "Paradinas de San Juan",
    "state_id": 1147,
    "state_code": "SA",
    "country_id": 207,
    "country_code": "ES",
    "latitude": "40.98325000",
    "longitude": "-5.15418000",
    "wikiDataId": null
  },
  {
    "id": 36074,
    "name": "Pastores",
    "state_id": 1147,
    "state_code": "SA",
    "country_id": 207,
    "country_code": "ES",
    "latitude": "40.51508000",
    "longitude": "-6.51018000",
    "wikiDataId": null
  },
  {
    "id": 36093,
    "name": "Pedraza de Alba",
    "state_id": 1147,
    "state_code": "SA",
    "country_id": 207,
    "country_code": "ES",
    "latitude": "40.75502000",
    "longitude": "-5.37524000",
    "wikiDataId": null
  },
  {
    "id": 36109,
    "name": "Pedrosillo de Alba",
    "state_id": 1147,
    "state_code": "SA",
    "country_id": 207,
    "country_code": "ES",
    "latitude": "40.82277000",
    "longitude": "-5.39506000",
    "wikiDataId": null
  },
  {
    "id": 36110,
    "name": "Pedrosillo de los Aires",
    "state_id": 1147,
    "state_code": "SA",
    "country_id": 207,
    "country_code": "ES",
    "latitude": "40.71524000",
    "longitude": "-5.70511000",
    "wikiDataId": null
  },
  {
    "id": 36111,
    "name": "Pedrosillo el Ralo",
    "state_id": 1147,
    "state_code": "SA",
    "country_id": 207,
    "country_code": "ES",
    "latitude": "41.06305000",
    "longitude": "-5.54794000",
    "wikiDataId": null
  },
  {
    "id": 36118,
    "name": "Pelabravo",
    "state_id": 1147,
    "state_code": "SA",
    "country_id": 207,
    "country_code": "ES",
    "latitude": "40.93658000",
    "longitude": "-5.57916000",
    "wikiDataId": null
  },
  {
    "id": 36120,
    "name": "Pelarrodríguez",
    "state_id": 1147,
    "state_code": "SA",
    "country_id": 207,
    "country_code": "ES",
    "latitude": "40.88723000",
    "longitude": "-6.21271000",
    "wikiDataId": null
  },
  {
    "id": 36121,
    "name": "Pelayos",
    "state_id": 1147,
    "state_code": "SA",
    "country_id": 207,
    "country_code": "ES",
    "latitude": "40.64985000",
    "longitude": "-5.57580000",
    "wikiDataId": null
  },
  {
    "id": 36161,
    "name": "Peñacaballera",
    "state_id": 1147,
    "state_code": "SA",
    "country_id": 207,
    "country_code": "ES",
    "latitude": "40.34353000",
    "longitude": "-5.86121000",
    "wikiDataId": null
  },
  {
    "id": 36170,
    "name": "Peñaparda",
    "state_id": 1147,
    "state_code": "SA",
    "country_id": 207,
    "country_code": "ES",
    "latitude": "40.32093000",
    "longitude": "-6.66948000",
    "wikiDataId": null
  },
  {
    "id": 36171,
    "name": "Peñaranda de Bracamonte",
    "state_id": 1147,
    "state_code": "SA",
    "country_id": 207,
    "country_code": "ES",
    "latitude": "40.90108000",
    "longitude": "-5.20026000",
    "wikiDataId": null
  },
  {
    "id": 36173,
    "name": "Peñarandilla",
    "state_id": 1147,
    "state_code": "SA",
    "country_id": 207,
    "country_code": "ES",
    "latitude": "40.88348000",
    "longitude": "-5.39360000",
    "wikiDataId": null
  },
  {
    "id": 36135,
    "name": "Peralejos de Abajo",
    "state_id": 1147,
    "state_code": "SA",
    "country_id": 207,
    "country_code": "ES",
    "latitude": "41.00469000",
    "longitude": "-6.36238000",
    "wikiDataId": null
  },
  {
    "id": 36136,
    "name": "Peralejos de Arriba",
    "state_id": 1147,
    "state_code": "SA",
    "country_id": 207,
    "country_code": "ES",
    "latitude": "41.00410000",
    "longitude": "-6.33362000",
    "wikiDataId": null
  },
  {
    "id": 152541,
    "name": "Pereña de la Ribera",
    "state_id": 1147,
    "state_code": "SA",
    "country_id": 207,
    "country_code": "ES",
    "latitude": "41.23790750",
    "longitude": "-6.52364240",
    "wikiDataId": null
  },
  {
    "id": 36151,
    "name": "Peromingo",
    "state_id": 1147,
    "state_code": "SA",
    "country_id": 207,
    "country_code": "ES",
    "latitude": "40.46386000",
    "longitude": "-5.77238000",
    "wikiDataId": null
  },
  {
    "id": 36199,
    "name": "Pinedas",
    "state_id": 1147,
    "state_code": "SA",
    "country_id": 207,
    "country_code": "ES",
    "latitude": "40.44493000",
    "longitude": "-5.96025000",
    "wikiDataId": null
  },
  {
    "id": 36222,
    "name": "Pitiegua",
    "state_id": 1147,
    "state_code": "SA",
    "country_id": 207,
    "country_code": "ES",
    "latitude": "41.06210000",
    "longitude": "-5.46647000",
    "wikiDataId": null
  },
  {
    "id": 36225,
    "name": "Pizarral",
    "state_id": 1147,
    "state_code": "SA",
    "country_id": 207,
    "country_code": "ES",
    "latitude": "40.61450000",
    "longitude": "-5.65238000",
    "wikiDataId": null
  },
  {
    "id": 36308,
    "name": "Poveda de las Cintas",
    "state_id": 1147,
    "state_code": "SA",
    "country_id": 207,
    "country_code": "ES",
    "latitude": "41.04596000",
    "longitude": "-5.26019000",
    "wikiDataId": null
  },
  {
    "id": 36327,
    "name": "Pozos de Hinojo",
    "state_id": 1147,
    "state_code": "SA",
    "country_id": 207,
    "country_code": "ES",
    "latitude": "40.91303000",
    "longitude": "-6.41144000",
    "wikiDataId": null
  },
  {
    "id": 36413,
    "name": "Puebla de Azaba",
    "state_id": 1147,
    "state_code": "SA",
    "country_id": 207,
    "country_code": "ES",
    "latitude": "40.44732000",
    "longitude": "-6.74616000",
    "wikiDataId": null
  },
  {
    "id": 36421,
    "name": "Puebla de San Medel",
    "state_id": 1147,
    "state_code": "SA",
    "country_id": 207,
    "country_code": "ES",
    "latitude": "40.51073000",
    "longitude": "-5.73673000",
    "wikiDataId": null
  },
  {
    "id": 36425,
    "name": "Puebla de Yeltes",
    "state_id": 1147,
    "state_code": "SA",
    "country_id": 207,
    "country_code": "ES",
    "latitude": "40.62528000",
    "longitude": "-6.18150000",
    "wikiDataId": null
  },
  {
    "id": 36438,
    "name": "Puente del Congosto",
    "state_id": 1147,
    "state_code": "SA",
    "country_id": 207,
    "country_code": "ES",
    "latitude": "40.49041000",
    "longitude": "-5.52628000",
    "wikiDataId": null
  },
  {
    "id": 36443,
    "name": "Puertas",
    "state_id": 1147,
    "state_code": "SA",
    "country_id": 207,
    "country_code": "ES",
    "latitude": "41.09681000",
    "longitude": "-6.28752000",
    "wikiDataId": null
  },
  {
    "id": 36451,
    "name": "Puerto de Béjar",
    "state_id": 1147,
    "state_code": "SA",
    "country_id": 207,
    "country_code": "ES",
    "latitude": "40.35052000",
    "longitude": "-5.83756000",
    "wikiDataId": null
  },
  {
    "id": 36449,
    "name": "Puerto Seguro",
    "state_id": 1147,
    "state_code": "SA",
    "country_id": 207,
    "country_code": "ES",
    "latitude": "40.82718000",
    "longitude": "-6.76109000",
    "wikiDataId": null
  },
  {
    "id": 36713,
    "name": "Rágama",
    "state_id": 1147,
    "state_code": "SA",
    "country_id": 207,
    "country_code": "ES",
    "latitude": "40.99768000",
    "longitude": "-5.12724000",
    "wikiDataId": null
  },
  {
    "id": 36588,
    "name": "Retortillo",
    "state_id": 1147,
    "state_code": "SA",
    "country_id": 207,
    "country_code": "ES",
    "latitude": "40.80132000",
    "longitude": "-6.35951000",
    "wikiDataId": null
  },
  {
    "id": 36646,
    "name": "Robleda",
    "state_id": 1147,
    "state_code": "SA",
    "country_id": 207,
    "country_code": "ES",
    "latitude": "40.38469000",
    "longitude": "-6.60726000",
    "wikiDataId": null
  },
  {
    "id": 36657,
    "name": "Robliza de Cojos",
    "state_id": 1147,
    "state_code": "SA",
    "country_id": 207,
    "country_code": "ES",
    "latitude": "40.86766000",
    "longitude": "-5.97786000",
    "wikiDataId": null
  },
  {
    "id": 36668,
    "name": "Rollán",
    "state_id": 1147,
    "state_code": "SA",
    "country_id": 207,
    "country_code": "ES",
    "latitude": "40.96230000",
    "longitude": "-5.91753000",
    "wikiDataId": null
  },
  {
    "id": 36736,
    "name": "Saelices el Chico",
    "state_id": 1147,
    "state_code": "SA",
    "country_id": 207,
    "country_code": "ES",
    "latitude": "40.66998000",
    "longitude": "-6.63271000",
    "wikiDataId": null
  },
  {
    "id": 36744,
    "name": "Salamanca",
    "state_id": 1147,
    "state_code": "SA",
    "country_id": 207,
    "country_code": "ES",
    "latitude": "40.96882000",
    "longitude": "-5.66388000",
    "wikiDataId": null
  },
  {
    "id": 36756,
    "name": "Saldeana",
    "state_id": 1147,
    "state_code": "SA",
    "country_id": 207,
    "country_code": "ES",
    "latitude": "41.02068000",
    "longitude": "-6.64015000",
    "wikiDataId": null
  },
  {
    "id": 36771,
    "name": "Salmoral",
    "state_id": 1147,
    "state_code": "SA",
    "country_id": 207,
    "country_code": "ES",
    "latitude": "40.80137000",
    "longitude": "-5.21910000",
    "wikiDataId": null
  },
  {
    "id": 36787,
    "name": "Salvatierra de Tormes",
    "state_id": 1147,
    "state_code": "SA",
    "country_id": 207,
    "country_code": "ES",
    "latitude": "40.59007000",
    "longitude": "-5.59763000",
    "wikiDataId": null
  },
  {
    "id": 36823,
    "name": "San Cristóbal de la Cuesta",
    "state_id": 1147,
    "state_code": "SA",
    "country_id": 207,
    "country_code": "ES",
    "latitude": "41.02919000",
    "longitude": "-5.61771000",
    "wikiDataId": null
  },
  {
    "id": 36830,
    "name": "San Esteban de la Sierra",
    "state_id": 1147,
    "state_code": "SA",
    "country_id": 207,
    "country_code": "ES",
    "latitude": "40.50680000",
    "longitude": "-5.90619000",
    "wikiDataId": null
  },
  {
    "id": 36834,
    "name": "San Felices de los Gallegos",
    "state_id": 1147,
    "state_code": "SA",
    "country_id": 207,
    "country_code": "ES",
    "latitude": "40.84954000",
    "longitude": "-6.70804000",
    "wikiDataId": null
  },
  {
    "id": 36875,
    "name": "San Martín del Castañar",
    "state_id": 1147,
    "state_code": "SA",
    "country_id": 207,
    "country_code": "ES",
    "latitude": "40.52264000",
    "longitude": "-6.06387000",
    "wikiDataId": null
  },
  {
    "id": 36885,
    "name": "San Miguel de Valero",
    "state_id": 1147,
    "state_code": "SA",
    "country_id": 207,
    "country_code": "ES",
    "latitude": "40.54361000",
    "longitude": "-5.92280000",
    "wikiDataId": null
  },
  {
    "id": 152507,
    "name": "San Miguel del Robledo",
    "state_id": 1147,
    "state_code": "SA",
    "country_id": 207,
    "country_code": "ES",
    "latitude": "40.53689480",
    "longitude": "-6.04525420",
    "wikiDataId": null
  },
  {
    "id": 36893,
    "name": "San Morales",
    "state_id": 1147,
    "state_code": "SA",
    "country_id": 207,
    "country_code": "ES",
    "latitude": "40.99358000",
    "longitude": "-5.50234000",
    "wikiDataId": null
  },
  {
    "id": 36894,
    "name": "San Muñoz",
    "state_id": 1147,
    "state_code": "SA",
    "country_id": 207,
    "country_code": "ES",
    "latitude": "40.78334000",
    "longitude": "-6.12758000",
    "wikiDataId": null
  },
  {
    "id": 36908,
    "name": "San Pedro de Rozados",
    "state_id": 1147,
    "state_code": "SA",
    "country_id": 207,
    "country_code": "ES",
    "latitude": "40.79008000",
    "longitude": "-5.73716000",
    "wikiDataId": null
  },
  {
    "id": 36912,
    "name": "San Pedro del Valle",
    "state_id": 1147,
    "state_code": "SA",
    "country_id": 207,
    "country_code": "ES",
    "latitude": "41.03332000",
    "longitude": "-5.86025000",
    "wikiDataId": null
  },
  {
    "id": 36914,
    "name": "San Pelayo de Guareña",
    "state_id": 1147,
    "state_code": "SA",
    "country_id": 207,
    "country_code": "ES",
    "latitude": "41.11579000",
    "longitude": "-5.85702000",
    "wikiDataId": null
  },
  {
    "id": 36939,
    "name": "Sanchón de la Ribera",
    "state_id": 1147,
    "state_code": "SA",
    "country_id": 207,
    "country_code": "ES",
    "latitude": "41.08844000",
    "longitude": "-6.41314000",
    "wikiDataId": null
  },
  {
    "id": 36940,
    "name": "Sanchón de la Sagrada",
    "state_id": 1147,
    "state_code": "SA",
    "country_id": 207,
    "country_code": "ES",
    "latitude": "40.74287000",
    "longitude": "-6.02502000",
    "wikiDataId": null
  },
  {
    "id": 36938,
    "name": "Sanchotello",
    "state_id": 1147,
    "state_code": "SA",
    "country_id": 207,
    "country_code": "ES",
    "latitude": "40.43812000",
    "longitude": "-5.75394000",
    "wikiDataId": null
  },
  {
    "id": 151187,
    "name": "Sancti-Spíritus",
    "state_id": 1147,
    "state_code": "SA",
    "country_id": 207,
    "country_code": "ES",
    "latitude": "40.70709620",
    "longitude": "-6.39841920",
    "wikiDataId": null
  },
  {
    "id": 36941,
    "name": "Sando",
    "state_id": 1147,
    "state_code": "SA",
    "country_id": 207,
    "country_code": "ES",
    "latitude": "40.96773000",
    "longitude": "-6.11136000",
    "wikiDataId": null
  },
  {
    "id": 37077,
    "name": "Santa María de Sando",
    "state_id": 1147,
    "state_code": "SA",
    "country_id": 207,
    "country_code": "ES",
    "latitude": "40.97909000",
    "longitude": "-6.12904000",
    "wikiDataId": null
  },
  {
    "id": 37072,
    "name": "Santa Marta de Tormes",
    "state_id": 1147,
    "state_code": "SA",
    "country_id": 207,
    "country_code": "ES",
    "latitude": "40.95065000",
    "longitude": "-5.62723000",
    "wikiDataId": null
  },
  {
    "id": 37115,
    "name": "Santiago de la Puebla",
    "state_id": 1147,
    "state_code": "SA",
    "country_id": 207,
    "country_code": "ES",
    "latitude": "40.80132000",
    "longitude": "-5.28073000",
    "wikiDataId": null
  },
  {
    "id": 37120,
    "name": "Santibáñez de Béjar",
    "state_id": 1147,
    "state_code": "SA",
    "country_id": 207,
    "country_code": "ES",
    "latitude": "40.48785000",
    "longitude": "-5.61110000",
    "wikiDataId": null
  },
  {
    "id": 37126,
    "name": "Santibáñez de la Sierra",
    "state_id": 1147,
    "state_code": "SA",
    "country_id": 207,
    "country_code": "ES",
    "latitude": "40.49464000",
    "longitude": "-5.91576000",
    "wikiDataId": null
  },
  {
    "id": 37138,
    "name": "Santiz",
    "state_id": 1147,
    "state_code": "SA",
    "country_id": 207,
    "country_code": "ES",
    "latitude": "41.20579000",
    "longitude": "-5.89654000",
    "wikiDataId": null
  },
  {
    "id": 152546,
    "name": "Santos Los",
    "state_id": 1147,
    "state_code": "SA",
    "country_id": 207,
    "country_code": "ES",
    "latitude": "40.54520100",
    "longitude": "-5.79712100",
    "wikiDataId": null
  },
  {
    "id": 37160,
    "name": "Sardón de los Frailes",
    "state_id": 1147,
    "state_code": "SA",
    "country_id": 207,
    "country_code": "ES",
    "latitude": "41.21373000",
    "longitude": "-6.27101000",
    "wikiDataId": null
  },
  {
    "id": 37178,
    "name": "Saucelle",
    "state_id": 1147,
    "state_code": "SA",
    "country_id": 207,
    "country_code": "ES",
    "latitude": "41.04769000",
    "longitude": "-6.75328000",
    "wikiDataId": null
  },
  {
    "id": 152548,
    "name": "Sepulcro-Hilario",
    "state_id": 1147,
    "state_code": "SA",
    "country_id": 207,
    "country_code": "ES",
    "latitude": "40.69900370",
    "longitude": "-6.18783670",
    "wikiDataId": null
  },
  {
    "id": 37217,
    "name": "Sequeros",
    "state_id": 1147,
    "state_code": "SA",
    "country_id": 207,
    "country_code": "ES",
    "latitude": "40.51295000",
    "longitude": "-6.02495000",
    "wikiDataId": null
  },
  {
    "id": 37222,
    "name": "Serradilla del Arroyo",
    "state_id": 1147,
    "state_code": "SA",
    "country_id": 207,
    "country_code": "ES",
    "latitude": "40.52133000",
    "longitude": "-6.36008000",
    "wikiDataId": null
  },
  {
    "id": 37223,
    "name": "Serradilla del Llano",
    "state_id": 1147,
    "state_code": "SA",
    "country_id": 207,
    "country_code": "ES",
    "latitude": "40.49996000",
    "longitude": "-6.35701000",
    "wikiDataId": null
  },
  {
    "id": 152550,
    "name": "Sieteiglesias de Tormes",
    "state_id": 1147,
    "state_code": "SA",
    "country_id": 207,
    "country_code": "ES",
    "latitude": "40.74143320",
    "longitude": "-5.57813780",
    "wikiDataId": null
  },
  {
    "id": 37273,
    "name": "Sobradillo",
    "state_id": 1147,
    "state_code": "SA",
    "country_id": 207,
    "country_code": "ES",
    "latitude": "40.91754000",
    "longitude": "-6.79729000",
    "wikiDataId": null
  },
  {
    "id": 37301,
    "name": "Sorihuela",
    "state_id": 1147,
    "state_code": "SA",
    "country_id": 207,
    "country_code": "ES",
    "latitude": "40.44378000",
    "longitude": "-5.67818000",
    "wikiDataId": null
  },
  {
    "id": 37324,
    "name": "Sotoserrano",
    "state_id": 1147,
    "state_code": "SA",
    "country_id": 207,
    "country_code": "ES",
    "latitude": "40.43499000",
    "longitude": "-6.03261000",
    "wikiDataId": null
  },
  {
    "id": 37342,
    "name": "Tabera de Abajo",
    "state_id": 1147,
    "state_code": "SA",
    "country_id": 207,
    "country_code": "ES",
    "latitude": "40.91021000",
    "longitude": "-6.00227000",
    "wikiDataId": null
  },
  {
    "id": 37363,
    "name": "Tamames",
    "state_id": 1147,
    "state_code": "SA",
    "country_id": 207,
    "country_code": "ES",
    "latitude": "40.65725000",
    "longitude": "-6.10536000",
    "wikiDataId": null
  },
  {
    "id": 37375,
    "name": "Tarazona de Guareña",
    "state_id": 1147,
    "state_code": "SA",
    "country_id": 207,
    "country_code": "ES",
    "latitude": "41.17206000",
    "longitude": "-5.25005000",
    "wikiDataId": null
  },
  {
    "id": 37380,
    "name": "Tardáguila",
    "state_id": 1147,
    "state_code": "SA",
    "country_id": 207,
    "country_code": "ES",
    "latitude": "41.11493000",
    "longitude": "-5.57423000",
    "wikiDataId": null
  },
  {
    "id": 37399,
    "name": "Tejeda y Segoyuela",
    "state_id": 1147,
    "state_code": "SA",
    "country_id": 207,
    "country_code": "ES",
    "latitude": "40.63155000",
    "longitude": "-6.02311000",
    "wikiDataId": null
  },
  {
    "id": 37403,
    "name": "Tenebrón",
    "state_id": 1147,
    "state_code": "SA",
    "country_id": 207,
    "country_code": "ES",
    "latitude": "40.62449000",
    "longitude": "-6.35450000",
    "wikiDataId": null
  },
  {
    "id": 37407,
    "name": "Terradillos",
    "state_id": 1147,
    "state_code": "SA",
    "country_id": 207,
    "country_code": "ES",
    "latitude": "40.83836000",
    "longitude": "-5.54160000",
    "wikiDataId": null
  },
  {
    "id": 37453,
    "name": "Topas",
    "state_id": 1147,
    "state_code": "SA",
    "country_id": 207,
    "country_code": "ES",
    "latitude": "41.15759000",
    "longitude": "-5.63402000",
    "wikiDataId": null
  },
  {
    "id": 37461,
    "name": "Tordillos",
    "state_id": 1147,
    "state_code": "SA",
    "country_id": 207,
    "country_code": "ES",
    "latitude": "40.85266000",
    "longitude": "-5.35278000",
    "wikiDataId": null
  },
  {
    "id": 37582,
    "name": "Torresmenudas",
    "state_id": 1147,
    "state_code": "SA",
    "country_id": 207,
    "country_code": "ES",
    "latitude": "41.10249000",
    "longitude": "-5.78475000",
    "wikiDataId": null
  },
  {
    "id": 37613,
    "name": "Trabanca",
    "state_id": 1147,
    "state_code": "SA",
    "country_id": 207,
    "country_code": "ES",
    "latitude": "41.23278000",
    "longitude": "-6.38484000",
    "wikiDataId": null
  },
  {
    "id": 37627,
    "name": "Tremedal de Tormes",
    "state_id": 1147,
    "state_code": "SA",
    "country_id": 207,
    "country_code": "ES",
    "latitude": "41.07423000",
    "longitude": "-6.18164000",
    "wikiDataId": null
  },
  {
    "id": 37738,
    "name": "Valdecarros",
    "state_id": 1147,
    "state_code": "SA",
    "country_id": 207,
    "country_code": "ES",
    "latitude": "40.77007000",
    "longitude": "-5.42219000",
    "wikiDataId": null
  },
  {
    "id": 37746,
    "name": "Valdefuentes de Sangusín",
    "state_id": 1147,
    "state_code": "SA",
    "country_id": 207,
    "country_code": "ES",
    "latitude": "40.46578000",
    "longitude": "-5.83286000",
    "wikiDataId": null
  },
  {
    "id": 37750,
    "name": "Valdehijaderos",
    "state_id": 1147,
    "state_code": "SA",
    "country_id": 207,
    "country_code": "ES",
    "latitude": "40.41916000",
    "longitude": "-5.84792000",
    "wikiDataId": null
  },
  {
    "id": 37754,
    "name": "Valdelacasa",
    "state_id": 1147,
    "state_code": "SA",
    "country_id": 207,
    "country_code": "ES",
    "latitude": "40.50631000",
    "longitude": "-5.76354000",
    "wikiDataId": null
  },
  {
    "id": 37756,
    "name": "Valdelageve",
    "state_id": 1147,
    "state_code": "SA",
    "country_id": 207,
    "country_code": "ES",
    "latitude": "40.36949000",
    "longitude": "-5.99078000",
    "wikiDataId": null
  },
  {
    "id": 37761,
    "name": "Valdelosa",
    "state_id": 1147,
    "state_code": "SA",
    "country_id": 207,
    "country_code": "ES",
    "latitude": "41.17157000",
    "longitude": "-5.78390000",
    "wikiDataId": null
  },
  {
    "id": 37769,
    "name": "Valdemierque",
    "state_id": 1147,
    "state_code": "SA",
    "country_id": 207,
    "country_code": "ES",
    "latitude": "40.82176000",
    "longitude": "-5.58225000",
    "wikiDataId": null
  },
  {
    "id": 37795,
    "name": "Valderrodrigo",
    "state_id": 1147,
    "state_code": "SA",
    "country_id": 207,
    "country_code": "ES",
    "latitude": "41.06524000",
    "longitude": "-6.50878000",
    "wikiDataId": null
  },
  {
    "id": 37813,
    "name": "Valdunciel",
    "state_id": 1147,
    "state_code": "SA",
    "country_id": 207,
    "country_code": "ES",
    "latitude": "41.08544000",
    "longitude": "-5.67217000",
    "wikiDataId": null
  },
  {
    "id": 37825,
    "name": "Valero",
    "state_id": 1147,
    "state_code": "SA",
    "country_id": 207,
    "country_code": "ES",
    "latitude": "40.53533000",
    "longitude": "-5.94307000",
    "wikiDataId": null
  },
  {
    "id": 37851,
    "name": "Vallejera de Riofrío",
    "state_id": 1147,
    "state_code": "SA",
    "country_id": 207,
    "country_code": "ES",
    "latitude": "40.40910000",
    "longitude": "-5.71943000",
    "wikiDataId": null
  },
  {
    "id": 37872,
    "name": "Valsalabroso",
    "state_id": 1147,
    "state_code": "SA",
    "country_id": 207,
    "country_code": "ES",
    "latitude": "41.10962000",
    "longitude": "-6.50269000",
    "wikiDataId": null
  },
  {
    "id": 37889,
    "name": "Valverde de Valdelacasa",
    "state_id": 1147,
    "state_code": "SA",
    "country_id": 207,
    "country_code": "ES",
    "latitude": "40.48155000",
    "longitude": "-5.78145000",
    "wikiDataId": null
  },
  {
    "id": 37898,
    "name": "Valverdón",
    "state_id": 1147,
    "state_code": "SA",
    "country_id": 207,
    "country_code": "ES",
    "latitude": "41.04691000",
    "longitude": "-5.76955000",
    "wikiDataId": null
  },
  {
    "id": 37901,
    "name": "Vecinos",
    "state_id": 1147,
    "state_code": "SA",
    "country_id": 207,
    "country_code": "ES",
    "latitude": "40.77875000",
    "longitude": "-5.87815000",
    "wikiDataId": null
  },
  {
    "id": 37910,
    "name": "Vega de Tirados",
    "state_id": 1147,
    "state_code": "SA",
    "country_id": 207,
    "country_code": "ES",
    "latitude": "41.02543000",
    "longitude": "-5.88667000",
    "wikiDataId": null
  },
  {
    "id": 37944,
    "name": "Ventosa del Río Almar",
    "state_id": 1147,
    "state_code": "SA",
    "country_id": 207,
    "country_code": "ES",
    "latitude": "40.92728000",
    "longitude": "-5.34838000",
    "wikiDataId": null
  },
  {
    "id": 38053,
    "name": "Villaflores",
    "state_id": 1147,
    "state_code": "SA",
    "country_id": 207,
    "country_code": "ES",
    "latitude": "41.08397000",
    "longitude": "-5.23436000",
    "wikiDataId": null
  },
  {
    "id": 38077,
    "name": "Villagonzalo de Tormes",
    "state_id": 1147,
    "state_code": "SA",
    "country_id": 207,
    "country_code": "ES",
    "latitude": "40.89221000",
    "longitude": "-5.49664000",
    "wikiDataId": null
  },
  {
    "id": 38101,
    "name": "Villalba de los Llanos",
    "state_id": 1147,
    "state_code": "SA",
    "country_id": 207,
    "country_code": "ES",
    "latitude": "40.80020000",
    "longitude": "-5.97580000",
    "wikiDataId": null
  },
  {
    "id": 38139,
    "name": "Villamayor",
    "state_id": 1147,
    "state_code": "SA",
    "country_id": 207,
    "country_code": "ES",
    "latitude": "40.99939000",
    "longitude": "-5.69579000",
    "wikiDataId": null
  },
  {
    "id": 38216,
    "name": "Villanueva del Conde",
    "state_id": 1147,
    "state_code": "SA",
    "country_id": 207,
    "country_code": "ES",
    "latitude": "40.51039000",
    "longitude": "-6.01210000",
    "wikiDataId": null
  },
  {
    "id": 152557,
    "name": "Villar de Argañán",
    "state_id": 1147,
    "state_code": "SA",
    "country_id": 207,
    "country_code": "ES",
    "latitude": "40.67299650",
    "longitude": "-6.72063460",
    "wikiDataId": null
  },
  {
    "id": 38236,
    "name": "Villar de Ciervo",
    "state_id": 1147,
    "state_code": "SA",
    "country_id": 207,
    "country_code": "ES",
    "latitude": "40.73772000",
    "longitude": "-6.73850000",
    "wikiDataId": null
  },
  {
    "id": 38240,
    "name": "Villar de Gallimazo",
    "state_id": 1147,
    "state_code": "SA",
    "country_id": 207,
    "country_code": "ES",
    "latitude": "40.95367000",
    "longitude": "-5.28819000",
    "wikiDataId": null
  },
  {
    "id": 38248,
    "name": "Villar de la Yegua",
    "state_id": 1147,
    "state_code": "SA",
    "country_id": 207,
    "country_code": "ES",
    "latitude": "40.72554000",
    "longitude": "-6.70364000",
    "wikiDataId": null
  },
  {
    "id": 38242,
    "name": "Villar de Peralonso",
    "state_id": 1147,
    "state_code": "SA",
    "country_id": 207,
    "country_code": "ES",
    "latitude": "41.03223000",
    "longitude": "-6.22284000",
    "wikiDataId": null
  },
  {
    "id": 38245,
    "name": "Villar de Samaniego",
    "state_id": 1147,
    "state_code": "SA",
    "country_id": 207,
    "country_code": "ES",
    "latitude": "41.11667000",
    "longitude": "-6.43333000",
    "wikiDataId": null
  },
  {
    "id": 38280,
    "name": "Villares de la Reina",
    "state_id": 1147,
    "state_code": "SA",
    "country_id": 207,
    "country_code": "ES",
    "latitude": "41.00832000",
    "longitude": "-5.64881000",
    "wikiDataId": null
  },
  {
    "id": 38279,
    "name": "Villares de Yeltes",
    "state_id": 1147,
    "state_code": "SA",
    "country_id": 207,
    "country_code": "ES",
    "latitude": "40.86594000",
    "longitude": "-6.41300000",
    "wikiDataId": null
  },
  {
    "id": 38285,
    "name": "Villarino de los Aires",
    "state_id": 1147,
    "state_code": "SA",
    "country_id": 207,
    "country_code": "ES",
    "latitude": "41.27102000",
    "longitude": "-6.46847000",
    "wikiDataId": null
  },
  {
    "id": 38287,
    "name": "Villarmayor",
    "state_id": 1147,
    "state_code": "SA",
    "country_id": 207,
    "country_code": "ES",
    "latitude": "41.01514000",
    "longitude": "-5.97151000",
    "wikiDataId": null
  },
  {
    "id": 38290,
    "name": "Villarmuerto",
    "state_id": 1147,
    "state_code": "SA",
    "country_id": 207,
    "country_code": "ES",
    "latitude": "41.05620000",
    "longitude": "-6.36294000",
    "wikiDataId": null
  },
  {
    "id": 38315,
    "name": "Villasbuenas",
    "state_id": 1147,
    "state_code": "SA",
    "country_id": 207,
    "country_code": "ES",
    "latitude": "41.06263000",
    "longitude": "-6.59662000",
    "wikiDataId": null
  },
  {
    "id": 38317,
    "name": "Villasdardo",
    "state_id": 1147,
    "state_code": "SA",
    "country_id": 207,
    "country_code": "ES",
    "latitude": "41.00449000",
    "longitude": "-6.16303000",
    "wikiDataId": null
  },
  {
    "id": 38322,
    "name": "Villaseco de los Gamitos",
    "state_id": 1147,
    "state_code": "SA",
    "country_id": 207,
    "country_code": "ES",
    "latitude": "41.03621000",
    "longitude": "-6.11323000",
    "wikiDataId": null
  },
  {
    "id": 38323,
    "name": "Villaseco de los Reyes",
    "state_id": 1147,
    "state_code": "SA",
    "country_id": 207,
    "country_code": "ES",
    "latitude": "41.16262000",
    "longitude": "-6.18426000",
    "wikiDataId": null
  },
  {
    "id": 38328,
    "name": "Villasrubias",
    "state_id": 1147,
    "state_code": "SA",
    "country_id": 207,
    "country_code": "ES",
    "latitude": "40.33822000",
    "longitude": "-6.63920000",
    "wikiDataId": null
  },
  {
    "id": 38345,
    "name": "Villaverde de Guareña",
    "state_id": 1147,
    "state_code": "SA",
    "country_id": 207,
    "country_code": "ES",
    "latitude": "41.06406000",
    "longitude": "-5.52492000",
    "wikiDataId": null
  },
  {
    "id": 38359,
    "name": "Villavieja de Yeltes",
    "state_id": 1147,
    "state_code": "SA",
    "country_id": 207,
    "country_code": "ES",
    "latitude": "40.87573000",
    "longitude": "-6.46792000",
    "wikiDataId": null
  },
  {
    "id": 38376,
    "name": "Villoría",
    "state_id": 1147,
    "state_code": "SA",
    "country_id": 207,
    "country_code": "ES",
    "latitude": "40.99435000",
    "longitude": "-5.37363000",
    "wikiDataId": null
  },
  {
    "id": 38375,
    "name": "Villoruela",
    "state_id": 1147,
    "state_code": "SA",
    "country_id": 207,
    "country_code": "ES",
    "latitude": "41.00860000",
    "longitude": "-5.39381000",
    "wikiDataId": null
  },
  {
    "id": 38385,
    "name": "Vilvestre",
    "state_id": 1147,
    "state_code": "SA",
    "country_id": 207,
    "country_code": "ES",
    "latitude": "41.10636000",
    "longitude": "-6.72725000",
    "wikiDataId": null
  },
  {
    "id": 38402,
    "name": "Vitigudino",
    "state_id": 1147,
    "state_code": "SA",
    "country_id": 207,
    "country_code": "ES",
    "latitude": "41.00912000",
    "longitude": "-6.43404000",
    "wikiDataId": null
  },
  {
    "id": 38432,
    "name": "Yecla de Yeltes",
    "state_id": 1147,
    "state_code": "SA",
    "country_id": 207,
    "country_code": "ES",
    "latitude": "40.95917000",
    "longitude": "-6.48904000",
    "wikiDataId": null
  },
  {
    "id": 38462,
    "name": "Zamarra",
    "state_id": 1147,
    "state_code": "SA",
    "country_id": 207,
    "country_code": "ES",
    "latitude": "40.51893000",
    "longitude": "-6.45248000",
    "wikiDataId": null
  },
  {
    "id": 38463,
    "name": "Zamayón",
    "state_id": 1147,
    "state_code": "SA",
    "country_id": 207,
    "country_code": "ES",
    "latitude": "41.14861000",
    "longitude": "-5.83054000",
    "wikiDataId": null
  },
  {
    "id": 38471,
    "name": "Zarapicos",
    "state_id": 1147,
    "state_code": "SA",
    "country_id": 207,
    "country_code": "ES",
    "latitude": "41.03830000",
    "longitude": "-5.84526000",
    "wikiDataId": null
  },
  {
    "id": 38496,
    "name": "Zorita de la Frontera",
    "state_id": 1147,
    "state_code": "SA",
    "country_id": 207,
    "country_code": "ES",
    "latitude": "41.01453000",
    "longitude": "-5.19659000",
    "wikiDataId": null
  }
]