[
  {
    "id": 31595,
    "name": "Anija vald",
    "state_id": 3567,
    "state_code": "37",
    "country_id": 69,
    "country_code": "EE",
    "latitude": "59.27644000",
    "longitude": "25.48168000",
    "wikiDataId": null
  },
  {
    "id": 31598,
    "name": "Aruk체la",
    "state_id": 3567,
    "state_code": "37",
    "country_id": 69,
    "country_code": "EE",
    "latitude": "59.36686000",
    "longitude": "25.07618000",
    "wikiDataId": null
  },
  {
    "id": 31602,
    "name": "Haabneeme",
    "state_id": 3567,
    "state_code": "37",
    "country_id": 69,
    "country_code": "EE",
    "latitude": "59.51358000",
    "longitude": "24.82225000",
    "wikiDataId": null
  },
  {
    "id": 31607,
    "name": "Harku",
    "state_id": 3567,
    "state_code": "37",
    "country_id": 69,
    "country_code": "EE",
    "latitude": "59.38641000",
    "longitude": "24.57176000",
    "wikiDataId": null
  },
  {
    "id": 31608,
    "name": "Harku vald",
    "state_id": 3567,
    "state_code": "37",
    "country_id": 69,
    "country_code": "EE",
    "latitude": "59.39157000",
    "longitude": "24.46206000",
    "wikiDataId": null
  },
  {
    "id": 31613,
    "name": "J천el채htme vald",
    "state_id": 3567,
    "state_code": "37",
    "country_id": 69,
    "country_code": "EE",
    "latitude": "59.43996000",
    "longitude": "25.13535000",
    "wikiDataId": null
  },
  {
    "id": 31618,
    "name": "J체ri",
    "state_id": 3567,
    "state_code": "37",
    "country_id": 69,
    "country_code": "EE",
    "latitude": "59.35417000",
    "longitude": "24.89417000",
    "wikiDataId": null
  },
  {
    "id": 31626,
    "name": "Kehra",
    "state_id": 3567,
    "state_code": "37",
    "country_id": 69,
    "country_code": "EE",
    "latitude": "59.33611000",
    "longitude": "25.32111000",
    "wikiDataId": null
  },
  {
    "id": 31629,
    "name": "Keila",
    "state_id": 3567,
    "state_code": "37",
    "country_id": 69,
    "country_code": "EE",
    "latitude": "59.30361000",
    "longitude": "24.41306000",
    "wikiDataId": null
  },
  {
    "id": 31631,
    "name": "Kiili",
    "state_id": 3567,
    "state_code": "37",
    "country_id": 69,
    "country_code": "EE",
    "latitude": "59.30775000",
    "longitude": "24.83776000",
    "wikiDataId": null
  },
  {
    "id": 31632,
    "name": "Kiili vald",
    "state_id": 3567,
    "state_code": "37",
    "country_id": 69,
    "country_code": "EE",
    "latitude": "59.29672000",
    "longitude": "24.85292000",
    "wikiDataId": null
  },
  {
    "id": 31640,
    "name": "Kose",
    "state_id": 3567,
    "state_code": "37",
    "country_id": 69,
    "country_code": "EE",
    "latitude": "59.46001000",
    "longitude": "24.87824000",
    "wikiDataId": null
  },
  {
    "id": 31644,
    "name": "Kuusalu",
    "state_id": 3567,
    "state_code": "37",
    "country_id": 69,
    "country_code": "EE",
    "latitude": "59.44389000",
    "longitude": "25.44139000",
    "wikiDataId": null
  },
  {
    "id": 31647,
    "name": "Laagri",
    "state_id": 3567,
    "state_code": "37",
    "country_id": 69,
    "country_code": "EE",
    "latitude": "59.35083000",
    "longitude": "24.61418000",
    "wikiDataId": null
  },
  {
    "id": 31651,
    "name": "Loksa",
    "state_id": 3567,
    "state_code": "37",
    "country_id": 69,
    "country_code": "EE",
    "latitude": "59.57639000",
    "longitude": "25.72139000",
    "wikiDataId": null
  },
  {
    "id": 31652,
    "name": "Loksa linn",
    "state_id": 3567,
    "state_code": "37",
    "country_id": 69,
    "country_code": "EE",
    "latitude": "59.57844000",
    "longitude": "25.71667000",
    "wikiDataId": null
  },
  {
    "id": 31653,
    "name": "Loo",
    "state_id": 3567,
    "state_code": "37",
    "country_id": 69,
    "country_code": "EE",
    "latitude": "59.43123000",
    "longitude": "24.94949000",
    "wikiDataId": null
  },
  {
    "id": 31658,
    "name": "Maardu",
    "state_id": 3567,
    "state_code": "37",
    "country_id": 69,
    "country_code": "EE",
    "latitude": "59.46529000",
    "longitude": "24.98215000",
    "wikiDataId": null
  },
  {
    "id": 31659,
    "name": "Maardu linn",
    "state_id": 3567,
    "state_code": "37",
    "country_id": 69,
    "country_code": "EE",
    "latitude": "59.46385000",
    "longitude": "24.97350000",
    "wikiDataId": null
  },
  {
    "id": 31676,
    "name": "Paldiski",
    "state_id": 3567,
    "state_code": "37",
    "country_id": 69,
    "country_code": "EE",
    "latitude": "59.35667000",
    "longitude": "24.05306000",
    "wikiDataId": null
  },
  {
    "id": 31678,
    "name": "Pringi",
    "state_id": 3567,
    "state_code": "37",
    "country_id": 69,
    "country_code": "EE",
    "latitude": "59.53459000",
    "longitude": "24.79726000",
    "wikiDataId": null
  },
  {
    "id": 31688,
    "name": "Raasiku",
    "state_id": 3567,
    "state_code": "37",
    "country_id": 69,
    "country_code": "EE",
    "latitude": "59.36639000",
    "longitude": "25.18306000",
    "wikiDataId": null
  },
  {
    "id": 31689,
    "name": "Rae vald",
    "state_id": 3567,
    "state_code": "37",
    "country_id": 69,
    "country_code": "EE",
    "latitude": "59.33202000",
    "longitude": "24.93932000",
    "wikiDataId": null
  },
  {
    "id": 31695,
    "name": "Riisipere",
    "state_id": 3567,
    "state_code": "37",
    "country_id": 69,
    "country_code": "EE",
    "latitude": "59.11417000",
    "longitude": "24.31056000",
    "wikiDataId": null
  },
  {
    "id": 31698,
    "name": "Rummu",
    "state_id": 3567,
    "state_code": "37",
    "country_id": 69,
    "country_code": "EE",
    "latitude": "59.53528000",
    "longitude": "24.79972000",
    "wikiDataId": null
  },
  {
    "id": 31704,
    "name": "Saku",
    "state_id": 3567,
    "state_code": "37",
    "country_id": 69,
    "country_code": "EE",
    "latitude": "59.30354000",
    "longitude": "24.66382000",
    "wikiDataId": null
  },
  {
    "id": 31705,
    "name": "Saku vald",
    "state_id": 3567,
    "state_code": "37",
    "country_id": 69,
    "country_code": "EE",
    "latitude": "59.28069000",
    "longitude": "24.71649000",
    "wikiDataId": null
  },
  {
    "id": 31706,
    "name": "Saue",
    "state_id": 3567,
    "state_code": "37",
    "country_id": 69,
    "country_code": "EE",
    "latitude": "59.32258000",
    "longitude": "24.54967000",
    "wikiDataId": null
  },
  {
    "id": 31707,
    "name": "Saue vald",
    "state_id": 3567,
    "state_code": "37",
    "country_id": 69,
    "country_code": "EE",
    "latitude": "59.29255000",
    "longitude": "24.52503000",
    "wikiDataId": null
  },
  {
    "id": 31714,
    "name": "Tabasalu",
    "state_id": 3567,
    "state_code": "37",
    "country_id": 69,
    "country_code": "EE",
    "latitude": "59.42607000",
    "longitude": "24.55330000",
    "wikiDataId": null
  },
  {
    "id": 31716,
    "name": "Tallinn",
    "state_id": 3567,
    "state_code": "37",
    "country_id": 69,
    "country_code": "EE",
    "latitude": "59.43696000",
    "longitude": "24.75353000",
    "wikiDataId": null
  },
  {
    "id": 31727,
    "name": "Turba",
    "state_id": 3567,
    "state_code": "37",
    "country_id": 69,
    "country_code": "EE",
    "latitude": "59.08306000",
    "longitude": "24.22500000",
    "wikiDataId": null
  },
  {
    "id": 31734,
    "name": "Vaida",
    "state_id": 3567,
    "state_code": "37",
    "country_id": 69,
    "country_code": "EE",
    "latitude": "59.28546000",
    "longitude": "24.97897000",
    "wikiDataId": null
  },
  {
    "id": 31737,
    "name": "Viimsi",
    "state_id": 3567,
    "state_code": "37",
    "country_id": 69,
    "country_code": "EE",
    "latitude": "59.50502000",
    "longitude": "24.84807000",
    "wikiDataId": null
  },
  {
    "id": 31738,
    "name": "Viimsi vald",
    "state_id": 3567,
    "state_code": "37",
    "country_id": 69,
    "country_code": "EE",
    "latitude": "59.50204000",
    "longitude": "24.84833000",
    "wikiDataId": null
  }
]