[
  {
    "id": 154188,
    "name": "Alexandroupolis",
    "state_id": 2117,
    "state_code": "A",
    "country_id": 85,
    "country_code": "GR",
    "latitude": "40.84916600",
    "longitude": "25.85471070",
    "wikiDataId": null
  },
  {
    "id": 154197,
    "name": "Arriana",
    "state_id": 2117,
    "state_code": "A",
    "country_id": 85,
    "country_code": "GR",
    "latitude": "41.08210780",
    "longitude": "25.69035930",
    "wikiDataId": null
  },
  {
    "id": 154189,
    "name": "Didymoteicho",
    "state_id": 2117,
    "state_code": "A",
    "country_id": 85,
    "country_code": "GR",
    "latitude": "41.34985800",
    "longitude": "26.48682660",
    "wikiDataId": null
  },
  {
    "id": 154193,
    "name": "Doxato",
    "state_id": 2117,
    "state_code": "A",
    "country_id": 85,
    "country_code": "GR",
    "latitude": "41.09262850",
    "longitude": "24.21979930",
    "wikiDataId": null
  },
  {
    "id": 154184,
    "name": "Drama",
    "state_id": 2117,
    "state_code": "A",
    "country_id": 85,
    "country_code": "GR",
    "latitude": "41.26985920",
    "longitude": "23.54427950",
    "wikiDataId": null
  },
  {
    "id": 154183,
    "name": "Evros",
    "state_id": 2117,
    "state_code": "A",
    "country_id": 85,
    "country_code": "GR",
    "latitude": "41.06578980",
    "longitude": "24.71987800",
    "wikiDataId": null
  },
  {
    "id": 154198,
    "name": "Iasmos",
    "state_id": 2117,
    "state_code": "A",
    "country_id": 85,
    "country_code": "GR",
    "latitude": "41.12625120",
    "longitude": "25.17428610",
    "wikiDataId": null
  },
  {
    "id": 154194,
    "name": "Kato Nevrokopi",
    "state_id": 2117,
    "state_code": "A",
    "country_id": 85,
    "country_code": "GR",
    "latitude": "41.34224440",
    "longitude": "23.85693120",
    "wikiDataId": null
  },
  {
    "id": 154186,
    "name": "Kavala",
    "state_id": 2117,
    "state_code": "A",
    "country_id": 85,
    "country_code": "GR",
    "latitude": "40.96273800",
    "longitude": "24.00269490",
    "wikiDataId": null
  },
  {
    "id": 154199,
    "name": "Komotini",
    "state_id": 2117,
    "state_code": "A",
    "country_id": 85,
    "country_code": "GR",
    "latitude": "41.11812720",
    "longitude": "25.38632950",
    "wikiDataId": null
  },
  {
    "id": 154200,
    "name": "Maroneia-Sapes",
    "state_id": 2117,
    "state_code": "A",
    "country_id": 85,
    "country_code": "GR",
    "latitude": "40.99670860",
    "longitude": "25.49721720",
    "wikiDataId": null
  },
  {
    "id": 154202,
    "name": "Myki",
    "state_id": 2117,
    "state_code": "A",
    "country_id": 85,
    "country_code": "GR",
    "latitude": "41.24495670",
    "longitude": "24.91486140",
    "wikiDataId": null
  },
  {
    "id": 154190,
    "name": "Orestiada",
    "state_id": 2117,
    "state_code": "A",
    "country_id": 85,
    "country_code": "GR",
    "latitude": "41.50437790",
    "longitude": "26.45344230",
    "wikiDataId": null
  },
  {
    "id": 154201,
    "name": "Pangaio",
    "state_id": 2117,
    "state_code": "A",
    "country_id": 85,
    "country_code": "GR",
    "latitude": "40.86237500",
    "longitude": "23.77916640",
    "wikiDataId": null
  },
  {
    "id": 154195,
    "name": "Paranesti",
    "state_id": 2117,
    "state_code": "A",
    "country_id": 85,
    "country_code": "GR",
    "latitude": "41.26771080",
    "longitude": "24.49470930",
    "wikiDataId": null
  },
  {
    "id": 154196,
    "name": "Prosotsani",
    "state_id": 2117,
    "state_code": "A",
    "country_id": 85,
    "country_code": "GR",
    "latitude": "41.18128940",
    "longitude": "23.96177490",
    "wikiDataId": null
  },
  {
    "id": 154185,
    "name": "Rhodope",
    "state_id": 2117,
    "state_code": "A",
    "country_id": 85,
    "country_code": "GR",
    "latitude": "41.10265440",
    "longitude": "25.17488780",
    "wikiDataId": null
  },
  {
    "id": 154191,
    "name": "Samothrace",
    "state_id": 2117,
    "state_code": "A",
    "country_id": 85,
    "country_code": "GR",
    "latitude": "40.45142390",
    "longitude": "25.40676720",
    "wikiDataId": null
  },
  {
    "id": 154192,
    "name": "Soufli",
    "state_id": 2117,
    "state_code": "A",
    "country_id": 85,
    "country_code": "GR",
    "latitude": "41.17943070",
    "longitude": "25.85285960",
    "wikiDataId": null
  },
  {
    "id": 154203,
    "name": "Topeiros",
    "state_id": 2117,
    "state_code": "A",
    "country_id": 85,
    "country_code": "GR",
    "latitude": "41.01017360",
    "longitude": "24.47431520",
    "wikiDataId": null
  },
  {
    "id": 154187,
    "name": "Xanthi",
    "state_id": 2117,
    "state_code": "A",
    "country_id": 85,
    "country_code": "GR",
    "latitude": "41.12706480",
    "longitude": "24.51328930",
    "wikiDataId": null
  }
]