[
  {
    "id": 135416,
    "name": "Allein",
    "state_id": 1716,
    "state_code": "23",
    "country_id": 107,
    "country_code": "IT",
    "latitude": "45.80723000",
    "longitude": "7.27262000",
    "wikiDataId": null
  },
  {
    "id": 135511,
    "name": "Antagnod",
    "state_id": 1716,
    "state_code": "23",
    "country_id": 107,
    "country_code": "IT",
    "latitude": "45.81484000",
    "longitude": "7.68931000",
    "wikiDataId": null
  },
  {
    "id": 135516,
    "name": "Antey-Saint-Andrè",
    "state_id": 1716,
    "state_code": "23",
    "country_id": 107,
    "country_code": "IT",
    "latitude": "45.80603000",
    "longitude": "7.58666000",
    "wikiDataId": null
  },
  {
    "id": 135530,
    "name": "Aosta",
    "state_id": 1716,
    "state_code": "23",
    "country_id": 107,
    "country_code": "IT",
    "latitude": "45.73764000",
    "longitude": "7.31722000",
    "wikiDataId": null
  },
  {
    "id": 135618,
    "name": "Arnad",
    "state_id": 1716,
    "state_code": "23",
    "country_id": 107,
    "country_code": "IT",
    "latitude": "45.64726000",
    "longitude": "7.71701000",
    "wikiDataId": null
  },
  {
    "id": 135645,
    "name": "Arvier",
    "state_id": 1716,
    "state_code": "23",
    "country_id": 107,
    "country_code": "IT",
    "latitude": "45.70205000",
    "longitude": "7.16267000",
    "wikiDataId": null
  },
  {
    "id": 135712,
    "name": "Avise",
    "state_id": 1716,
    "state_code": "23",
    "country_id": 107,
    "country_code": "IT",
    "latitude": "45.70886000",
    "longitude": "7.13990000",
    "wikiDataId": null
  },
  {
    "id": 135716,
    "name": "Ayas",
    "state_id": 1716,
    "state_code": "23",
    "country_id": 107,
    "country_code": "IT",
    "latitude": "45.81506000",
    "longitude": "7.68911000",
    "wikiDataId": null
  },
  {
    "id": 135717,
    "name": "Aymavilles",
    "state_id": 1716,
    "state_code": "23",
    "country_id": 107,
    "country_code": "IT",
    "latitude": "45.70130000",
    "longitude": "7.24683000",
    "wikiDataId": null
  },
  {
    "id": 135838,
    "name": "Bard",
    "state_id": 1716,
    "state_code": "23",
    "country_id": 107,
    "country_code": "IT",
    "latitude": "45.60936000",
    "longitude": "7.74491000",
    "wikiDataId": null
  },
  {
    "id": 135997,
    "name": "Berriat",
    "state_id": 1716,
    "state_code": "23",
    "country_id": 107,
    "country_code": "IT",
    "latitude": "45.70729000",
    "longitude": "7.67617000",
    "wikiDataId": null
  },
  {
    "id": 136055,
    "name": "Bionaz",
    "state_id": 1716,
    "state_code": "23",
    "country_id": 107,
    "country_code": "IT",
    "latitude": "45.87356000",
    "longitude": "7.42310000",
    "wikiDataId": null
  },
  {
    "id": 136378,
    "name": "Brusson",
    "state_id": 1716,
    "state_code": "23",
    "country_id": 107,
    "country_code": "IT",
    "latitude": "45.75926000",
    "longitude": "7.72899000",
    "wikiDataId": null
  },
  {
    "id": 137627,
    "name": "Challand-Saint-Anselme",
    "state_id": 1716,
    "state_code": "23",
    "country_id": 107,
    "country_code": "IT",
    "latitude": "45.71456000",
    "longitude": "7.73451000",
    "wikiDataId": null
  },
  {
    "id": 137628,
    "name": "Challand-Saint-Victor",
    "state_id": 1716,
    "state_code": "23",
    "country_id": 107,
    "country_code": "IT",
    "latitude": "45.69046000",
    "longitude": "7.70471000",
    "wikiDataId": null
  },
  {
    "id": 137629,
    "name": "Chambave",
    "state_id": 1716,
    "state_code": "23",
    "country_id": 107,
    "country_code": "IT",
    "latitude": "45.74426000",
    "longitude": "7.54931000",
    "wikiDataId": null
  },
  {
    "id": 137630,
    "name": "Chamois",
    "state_id": 1716,
    "state_code": "23",
    "country_id": 107,
    "country_code": "IT",
    "latitude": "45.83886000",
    "longitude": "7.61871000",
    "wikiDataId": null
  },
  {
    "id": 137631,
    "name": "Champdepraz",
    "state_id": 1716,
    "state_code": "23",
    "country_id": 107,
    "country_code": "IT",
    "latitude": "45.68526000",
    "longitude": "7.65681000",
    "wikiDataId": null
  },
  {
    "id": 137632,
    "name": "Champorcher",
    "state_id": 1716,
    "state_code": "23",
    "country_id": 107,
    "country_code": "IT",
    "latitude": "45.62376000",
    "longitude": "7.62151000",
    "wikiDataId": null
  },
  {
    "id": 137633,
    "name": "Charvensod",
    "state_id": 1716,
    "state_code": "23",
    "country_id": 107,
    "country_code": "IT",
    "latitude": "45.72025000",
    "longitude": "7.32433000",
    "wikiDataId": null
  },
  {
    "id": 137634,
    "name": "Chatillon",
    "state_id": 1716,
    "state_code": "23",
    "country_id": 107,
    "country_code": "IT",
    "latitude": "45.74991000",
    "longitude": "7.61668000",
    "wikiDataId": null
  },
  {
    "id": 137635,
    "name": "Chef-Lieu",
    "state_id": 1716,
    "state_code": "23",
    "country_id": 107,
    "country_code": "IT",
    "latitude": "45.75091000",
    "longitude": "7.35372000",
    "wikiDataId": null
  },
  {
    "id": 137841,
    "name": "Cogne",
    "state_id": 1716,
    "state_code": "23",
    "country_id": 107,
    "country_code": "IT",
    "latitude": "45.60742000",
    "longitude": "7.35803000",
    "wikiDataId": null
  },
  {
    "id": 138115,
    "name": "Courmayeur",
    "state_id": 1716,
    "state_code": "23",
    "country_id": 107,
    "country_code": "IT",
    "latitude": "45.79659000",
    "longitude": "6.96893000",
    "wikiDataId": null
  },
  {
    "id": 138301,
    "name": "Donnas",
    "state_id": 1716,
    "state_code": "23",
    "country_id": 107,
    "country_code": "IT",
    "latitude": "45.60286000",
    "longitude": "7.77491000",
    "wikiDataId": null
  },
  {
    "id": 138321,
    "name": "Doues",
    "state_id": 1716,
    "state_code": "23",
    "country_id": 107,
    "country_code": "IT",
    "latitude": "45.81916000",
    "longitude": "7.30600000",
    "wikiDataId": null
  },
  {
    "id": 138355,
    "name": "Emarese",
    "state_id": 1716,
    "state_code": "23",
    "country_id": 107,
    "country_code": "IT",
    "latitude": "45.72489000",
    "longitude": "7.68976000",
    "wikiDataId": null
  },
  {
    "id": 138388,
    "name": "Etroubles",
    "state_id": 1716,
    "state_code": "23",
    "country_id": 107,
    "country_code": "IT",
    "latitude": "45.82082000",
    "longitude": "7.23137000",
    "wikiDataId": null
  },
  {
    "id": 138765,
    "name": "Fénis",
    "state_id": 1716,
    "state_code": "23",
    "country_id": 107,
    "country_code": "IT",
    "latitude": "45.73469000",
    "longitude": "7.49544000",
    "wikiDataId": null
  },
  {
    "id": 138591,
    "name": "Fontainemore",
    "state_id": 1716,
    "state_code": "23",
    "country_id": 107,
    "country_code": "IT",
    "latitude": "45.64746000",
    "longitude": "7.85952000",
    "wikiDataId": null
  },
  {
    "id": 138771,
    "name": "Gaby",
    "state_id": 1716,
    "state_code": "23",
    "country_id": 107,
    "country_code": "IT",
    "latitude": "45.71300000",
    "longitude": "7.88224000",
    "wikiDataId": null
  },
  {
    "id": 138960,
    "name": "Gignod",
    "state_id": 1716,
    "state_code": "23",
    "country_id": 107,
    "country_code": "IT",
    "latitude": "45.77996000",
    "longitude": "7.29640000",
    "wikiDataId": null
  },
  {
    "id": 139063,
    "name": "Grand Brissogne",
    "state_id": 1716,
    "state_code": "23",
    "country_id": 107,
    "country_code": "IT",
    "latitude": "45.72566000",
    "longitude": "7.39260000",
    "wikiDataId": null
  },
  {
    "id": 139089,
    "name": "Gressan",
    "state_id": 1716,
    "state_code": "23",
    "country_id": 107,
    "country_code": "IT",
    "latitude": "45.72050000",
    "longitude": "7.29311000",
    "wikiDataId": null
  },
  {
    "id": 139090,
    "name": "Gressoney-La-Trinitè",
    "state_id": 1716,
    "state_code": "23",
    "country_id": 107,
    "country_code": "IT",
    "latitude": "45.82967000",
    "longitude": "7.82321000",
    "wikiDataId": null
  },
  {
    "id": 139091,
    "name": "Gressoney-Saint-Jean",
    "state_id": 1716,
    "state_code": "23",
    "country_id": 107,
    "country_code": "IT",
    "latitude": "45.77272000",
    "longitude": "7.82802000",
    "wikiDataId": null
  },
  {
    "id": 139187,
    "name": "Hone",
    "state_id": 1716,
    "state_code": "23",
    "country_id": 107,
    "country_code": "IT",
    "latitude": "45.61356000",
    "longitude": "7.73851000",
    "wikiDataId": null
  },
  {
    "id": 139211,
    "name": "Introd",
    "state_id": 1716,
    "state_code": "23",
    "country_id": 107,
    "country_code": "IT",
    "latitude": "45.69306000",
    "longitude": "7.18240000",
    "wikiDataId": null
  },
  {
    "id": 139262,
    "name": "Issime",
    "state_id": 1716,
    "state_code": "23",
    "country_id": 107,
    "country_code": "IT",
    "latitude": "45.68546000",
    "longitude": "7.85411000",
    "wikiDataId": null
  },
  {
    "id": 139264,
    "name": "Issogne",
    "state_id": 1716,
    "state_code": "23",
    "country_id": 107,
    "country_code": "IT",
    "latitude": "45.65496000",
    "longitude": "7.68571000",
    "wikiDataId": null
  },
  {
    "id": 139283,
    "name": "Jovencan",
    "state_id": 1716,
    "state_code": "23",
    "country_id": 107,
    "country_code": "IT",
    "latitude": "45.71486000",
    "longitude": "7.27260000",
    "wikiDataId": null
  },
  {
    "id": 139290,
    "name": "La Cretaz-Roisan",
    "state_id": 1716,
    "state_code": "23",
    "country_id": 107,
    "country_code": "IT",
    "latitude": "45.78396000",
    "longitude": "7.31310000",
    "wikiDataId": null
  },
  {
    "id": 139294,
    "name": "La Magdeleine",
    "state_id": 1716,
    "state_code": "23",
    "country_id": 107,
    "country_code": "IT",
    "latitude": "45.80996000",
    "longitude": "7.61871000",
    "wikiDataId": null
  },
  {
    "id": 139299,
    "name": "La Place",
    "state_id": 1716,
    "state_code": "23",
    "country_id": 107,
    "country_code": "IT",
    "latitude": "45.65414000",
    "longitude": "7.68414000",
    "wikiDataId": null
  },
  {
    "id": 139303,
    "name": "La Salle",
    "state_id": 1716,
    "state_code": "23",
    "country_id": 107,
    "country_code": "IT",
    "latitude": "45.74497000",
    "longitude": "7.07295000",
    "wikiDataId": null
  },
  {
    "id": 139306,
    "name": "La Thuile",
    "state_id": 1716,
    "state_code": "23",
    "country_id": 107,
    "country_code": "IT",
    "latitude": "45.71366000",
    "longitude": "6.95099000",
    "wikiDataId": null
  },
  {
    "id": 139383,
    "name": "Lassolaz",
    "state_id": 1716,
    "state_code": "23",
    "country_id": 107,
    "country_code": "IT",
    "latitude": "45.73851000",
    "longitude": "7.58883000",
    "wikiDataId": null
  },
  {
    "id": 139514,
    "name": "Lillianes",
    "state_id": 1716,
    "state_code": "23",
    "country_id": 107,
    "country_code": "IT",
    "latitude": "45.62948000",
    "longitude": "7.84126000",
    "wikiDataId": null
  },
  {
    "id": 140288,
    "name": "Mongnod",
    "state_id": 1716,
    "state_code": "23",
    "country_id": 107,
    "country_code": "IT",
    "latitude": "45.80549000",
    "longitude": "7.56806000",
    "wikiDataId": null
  },
  {
    "id": 140337,
    "name": "Montan-Angelin-Arensod",
    "state_id": 1716,
    "state_code": "23",
    "country_id": 107,
    "country_code": "IT",
    "latitude": "45.72820000",
    "longitude": "7.27647000",
    "wikiDataId": null
  },
  {
    "id": 140576,
    "name": "Montjovet",
    "state_id": 1716,
    "state_code": "23",
    "country_id": 107,
    "country_code": "IT",
    "latitude": "45.70796000",
    "longitude": "7.67411000",
    "wikiDataId": null
  },
  {
    "id": 140613,
    "name": "Morgex",
    "state_id": 1716,
    "state_code": "23",
    "country_id": 107,
    "country_code": "IT",
    "latitude": "45.75664000",
    "longitude": "7.04123000",
    "wikiDataId": null
  },
  {
    "id": 140860,
    "name": "Nus",
    "state_id": 1716,
    "state_code": "23",
    "country_id": 107,
    "country_code": "IT",
    "latitude": "45.74026000",
    "longitude": "7.46660000",
    "wikiDataId": null
  },
  {
    "id": 140907,
    "name": "Ollomont",
    "state_id": 1716,
    "state_code": "23",
    "country_id": 107,
    "country_code": "IT",
    "latitude": "45.84976000",
    "longitude": "7.31060000",
    "wikiDataId": null
  },
  {
    "id": 141060,
    "name": "Oyace",
    "state_id": 1716,
    "state_code": "23",
    "country_id": 107,
    "country_code": "IT",
    "latitude": "45.85116000",
    "longitude": "7.38300000",
    "wikiDataId": null
  },
  {
    "id": 58293,
    "name": "Paquier",
    "state_id": 1716,
    "state_code": "23",
    "country_id": 107,
    "country_code": "IT",
    "latitude": "45.87879000",
    "longitude": "7.62575000",
    "wikiDataId": null
  },
  {
    "id": 58430,
    "name": "Perloz",
    "state_id": 1716,
    "state_code": "23",
    "country_id": 107,
    "country_code": "IT",
    "latitude": "45.61386000",
    "longitude": "7.80811000",
    "wikiDataId": null
  },
  {
    "id": 58476,
    "name": "Petit Fenis",
    "state_id": 1716,
    "state_code": "23",
    "country_id": 107,
    "country_code": "IT",
    "latitude": "45.75115000",
    "longitude": "7.46391000",
    "wikiDataId": null
  },
  {
    "id": 58732,
    "name": "Plan d'Introd",
    "state_id": 1716,
    "state_code": "23",
    "country_id": 107,
    "country_code": "IT",
    "latitude": "45.69203000",
    "longitude": "7.18328000",
    "wikiDataId": null
  },
  {
    "id": 58796,
    "name": "Pollein",
    "state_id": 1716,
    "state_code": "23",
    "country_id": 107,
    "country_code": "IT",
    "latitude": "45.72780000",
    "longitude": "7.35146000",
    "wikiDataId": null
  },
  {
    "id": 58827,
    "name": "Pont-Bozet",
    "state_id": 1716,
    "state_code": "23",
    "country_id": 107,
    "country_code": "IT",
    "latitude": "45.60726000",
    "longitude": "7.68641000",
    "wikiDataId": null
  },
  {
    "id": 58829,
    "name": "Pont-Saint-Martin",
    "state_id": 1716,
    "state_code": "23",
    "country_id": 107,
    "country_code": "IT",
    "latitude": "45.59536000",
    "longitude": "7.79451000",
    "wikiDataId": null
  },
  {
    "id": 58881,
    "name": "Pontey",
    "state_id": 1716,
    "state_code": "23",
    "country_id": 107,
    "country_code": "IT",
    "latitude": "45.73886000",
    "longitude": "7.58831000",
    "wikiDataId": null
  },
  {
    "id": 59193,
    "name": "Prè Saint Didier",
    "state_id": 1716,
    "state_code": "23",
    "country_id": 107,
    "country_code": "IT",
    "latitude": "45.76416000",
    "longitude": "6.98579000",
    "wikiDataId": null
  },
  {
    "id": 59225,
    "name": "Quart",
    "state_id": 1716,
    "state_code": "23",
    "country_id": 107,
    "country_code": "IT",
    "latitude": "45.74096000",
    "longitude": "7.41520000",
    "wikiDataId": null
  },
  {
    "id": 59244,
    "name": "Quincod",
    "state_id": 1716,
    "state_code": "23",
    "country_id": 107,
    "country_code": "IT",
    "latitude": "45.71513000",
    "longitude": "7.73495000",
    "wikiDataId": null
  },
  {
    "id": 59350,
    "name": "Rhemes-Notre-Dame",
    "state_id": 1716,
    "state_code": "23",
    "country_id": 107,
    "country_code": "IT",
    "latitude": "45.56965000",
    "longitude": "7.11870000",
    "wikiDataId": null
  },
  {
    "id": 59351,
    "name": "Rhemes-Saint-Georges",
    "state_id": 1716,
    "state_code": "23",
    "country_id": 107,
    "country_code": "IT",
    "latitude": "45.65226000",
    "longitude": "7.15440000",
    "wikiDataId": null
  },
  {
    "id": 59727,
    "name": "Saint Marcel",
    "state_id": 1716,
    "state_code": "23",
    "country_id": 107,
    "country_code": "IT",
    "latitude": "45.73146000",
    "longitude": "7.44820000",
    "wikiDataId": null
  },
  {
    "id": 59728,
    "name": "Saint Maurice",
    "state_id": 1716,
    "state_code": "23",
    "country_id": 107,
    "country_code": "IT",
    "latitude": "45.71771000",
    "longitude": "7.25547000",
    "wikiDataId": null
  },
  {
    "id": 59729,
    "name": "Saint-Christophe",
    "state_id": 1716,
    "state_code": "23",
    "country_id": 107,
    "country_code": "IT",
    "latitude": "45.75406000",
    "longitude": "7.34720000",
    "wikiDataId": null
  },
  {
    "id": 59730,
    "name": "Saint-Denis",
    "state_id": 1716,
    "state_code": "23",
    "country_id": 107,
    "country_code": "IT",
    "latitude": "45.75256000",
    "longitude": "7.55531000",
    "wikiDataId": null
  },
  {
    "id": 59731,
    "name": "Saint-Nicolas",
    "state_id": 1716,
    "state_code": "23",
    "country_id": 107,
    "country_code": "IT",
    "latitude": "45.71656000",
    "longitude": "7.16670000",
    "wikiDataId": null
  },
  {
    "id": 59732,
    "name": "Saint-Oyen",
    "state_id": 1716,
    "state_code": "23",
    "country_id": 107,
    "country_code": "IT",
    "latitude": "45.82439000",
    "longitude": "7.21372000",
    "wikiDataId": null
  },
  {
    "id": 59733,
    "name": "Saint-Pierre",
    "state_id": 1716,
    "state_code": "23",
    "country_id": 107,
    "country_code": "IT",
    "latitude": "45.71153000",
    "longitude": "7.22683000",
    "wikiDataId": null
  },
  {
    "id": 59734,
    "name": "Saint-Rhémy",
    "state_id": 1716,
    "state_code": "23",
    "country_id": 107,
    "country_code": "IT",
    "latitude": "45.83553000",
    "longitude": "7.18393000",
    "wikiDataId": null
  },
  {
    "id": 59735,
    "name": "Saint-Vincent",
    "state_id": 1716,
    "state_code": "23",
    "country_id": 107,
    "country_code": "IT",
    "latitude": "45.75082000",
    "longitude": "7.64815000",
    "wikiDataId": null
  },
  {
    "id": 60030,
    "name": "San Leonardo",
    "state_id": 1716,
    "state_code": "23",
    "country_id": 107,
    "country_code": "IT",
    "latitude": "45.82366000",
    "longitude": "7.18140000",
    "wikiDataId": null
  },
  {
    "id": 61328,
    "name": "Torgnon",
    "state_id": 1716,
    "state_code": "23",
    "country_id": 107,
    "country_code": "IT",
    "latitude": "45.80616000",
    "longitude": "7.56980000",
    "wikiDataId": null
  },
  {
    "id": 61677,
    "name": "Valgrisenche",
    "state_id": 1716,
    "state_code": "23",
    "country_id": 107,
    "country_code": "IT",
    "latitude": "45.63036000",
    "longitude": "7.06400000",
    "wikiDataId": null
  },
  {
    "id": 61694,
    "name": "Valle d'Aosta",
    "state_id": 1716,
    "state_code": "23",
    "country_id": 107,
    "country_code": "IT",
    "latitude": "45.76667000",
    "longitude": "7.41667000",
    "wikiDataId": null
  },
  {
    "id": 61735,
    "name": "Valpelline",
    "state_id": 1716,
    "state_code": "23",
    "country_id": 107,
    "country_code": "IT",
    "latitude": "45.82486000",
    "longitude": "7.32550000",
    "wikiDataId": null
  },
  {
    "id": 61738,
    "name": "Valsavarenche",
    "state_id": 1716,
    "state_code": "23",
    "country_id": 107,
    "country_code": "IT",
    "latitude": "45.59186000",
    "longitude": "7.21000000",
    "wikiDataId": null
  },
  {
    "id": 61744,
    "name": "Valtournenche",
    "state_id": 1716,
    "state_code": "23",
    "country_id": 107,
    "country_code": "IT",
    "latitude": "45.87607000",
    "longitude": "7.62430000",
    "wikiDataId": null
  },
  {
    "id": 61865,
    "name": "Verrayes",
    "state_id": 1716,
    "state_code": "23",
    "country_id": 107,
    "country_code": "IT",
    "latitude": "45.76326000",
    "longitude": "7.53460000",
    "wikiDataId": null
  },
  {
    "id": 61866,
    "name": "Verres",
    "state_id": 1716,
    "state_code": "23",
    "country_id": 107,
    "country_code": "IT",
    "latitude": "45.66656000",
    "longitude": "7.68911000",
    "wikiDataId": null
  },
  {
    "id": 62045,
    "name": "Villa-Nabian",
    "state_id": 1716,
    "state_code": "23",
    "country_id": 107,
    "country_code": "IT",
    "latitude": "45.68970000",
    "longitude": "7.70470000",
    "wikiDataId": null
  },
  {
    "id": 62074,
    "name": "Villair-Amerique",
    "state_id": 1716,
    "state_code": "23",
    "country_id": 107,
    "country_code": "IT",
    "latitude": "45.74793000",
    "longitude": "7.38982000",
    "wikiDataId": null
  },
  {
    "id": 62147,
    "name": "Ville Sur Sarre",
    "state_id": 1716,
    "state_code": "23",
    "country_id": 107,
    "country_code": "IT",
    "latitude": "45.73339000",
    "longitude": "7.25857000",
    "wikiDataId": null
  },
  {
    "id": 62148,
    "name": "Villefranche",
    "state_id": 1716,
    "state_code": "23",
    "country_id": 107,
    "country_code": "IT",
    "latitude": "45.74064000",
    "longitude": "7.41598000",
    "wikiDataId": null
  },
  {
    "id": 62149,
    "name": "Villeneuve",
    "state_id": 1716,
    "state_code": "23",
    "country_id": 107,
    "country_code": "IT",
    "latitude": "45.70201000",
    "longitude": "7.20682000",
    "wikiDataId": null
  }
]