[
  {
    "id": 2613,
    "name": "Drenthe",
    "country_id": 156,
    "country_code": "NL",
    "state_code": "DR",
    "type": "province",
    "latitude": "52.90679220",
    "longitude": "6.63684230",
    "iso3166_2": "NL-DR",
    "native": "Drenthe",
    "timezone": "Europe/Amsterdam"
  },
  {
    "id": 2619,
    "name": "Flevoland",
    "country_id": 156,
    "country_code": "NL",
    "state_code": "FL",
    "type": "province",
    "latitude": "52.44843750",
    "longitude": "5.42353970",
    "iso3166_2": "NL-FL",
    "native": "Flevoland",
    "timezone": "Europe/Amsterdam"
  },
  {
    "id": 2622,
    "name": "Friesland",
    "country_id": 156,
    "country_code": "NL",
    "state_code": "FR",
    "type": "province",
    "latitude": "53.09236890",
    "longitude": "5.77704300",
    "iso3166_2": "NL-FR",
    "native": "Frieland",
    "timezone": "Europe/Amsterdam"
  },
  {
    "id": 2611,
    "name": "Gelderland",
    "country_id": 156,
    "country_code": "NL",
    "state_code": "GE",
    "type": "province",
    "latitude": "52.10140410",
    "longitude": "5.95157010",
    "iso3166_2": "NL-GE",
    "native": "Gelderland",
    "timezone": "Europe/Amsterdam"
  },
  {
    "id": 2617,
    "name": "Groningen",
    "country_id": 156,
    "country_code": "NL",
    "state_code": "GR",
    "type": "province",
    "latitude": "53.21938350",
    "longitude": "6.56650170",
    "iso3166_2": "NL-GR",
    "native": "Groningen",
    "timezone": "Europe/Amsterdam"
  },
  {
    "id": 2615,
    "name": "Limburg",
    "country_id": 156,
    "country_code": "NL",
    "state_code": "LI",
    "type": "province",
    "latitude": "51.20151960",
    "longitude": "5.90463020",
    "iso3166_2": "NL-LI",
    "native": "Limburg",
    "timezone": "Europe/Amsterdam"
  },
  {
    "id": 2623,
    "name": "North Brabant",
    "country_id": 156,
    "country_code": "NL",
    "state_code": "NB",
    "type": "province",
    "latitude": "51.60177230",
    "longitude": "5.44413910",
    "iso3166_2": "NL-NB",
    "native": "Noord-Brabant",
    "timezone": "Europe/Amsterdam"
  },
  {
    "id": 2612,
    "name": "North Holland",
    "country_id": 156,
    "country_code": "NL",
    "state_code": "NH",
    "type": "province",
    "latitude": "52.72128250",
    "longitude": "4.82066500",
    "iso3166_2": "NL-NH",
    "native": "Noord-Holland",
    "timezone": "Europe/Amsterdam"
  },
  {
    "id": 2618,
    "name": "Overijssel",
    "country_id": 156,
    "country_code": "NL",
    "state_code": "OV",
    "type": "province",
    "latitude": "52.42541430",
    "longitude": "6.46106110",
    "iso3166_2": "NL-OV",
    "native": "Overijssel",
    "timezone": "Europe/Amsterdam"
  },
  {
    "id": 2614,
    "name": "South Holland",
    "country_id": 156,
    "country_code": "NL",
    "state_code": "ZH",
    "type": "province",
    "latitude": "51.99667920",
    "longitude": "4.55973970",
    "iso3166_2": "NL-ZH",
    "native": "Zuid -Holland",
    "timezone": "Europe/Amsterdam"
  },
  {
    "id": 2610,
    "name": "Utrecht",
    "country_id": 156,
    "country_code": "NL",
    "state_code": "UT",
    "type": "province",
    "latitude": "52.09073740",
    "longitude": "5.12142010",
    "iso3166_2": "NL-UT",
    "native": "Utrecht",
    "timezone": "Europe/Amsterdam"
  },
  {
    "id": 2620,
    "name": "Zeeland",
    "country_id": 156,
    "country_code": "NL",
    "state_code": "ZE",
    "type": "province",
    "latitude": "51.41629750",
    "longitude": "3.70280610",
    "iso3166_2": "NL-ZE",
    "native": "Zeeland",
    "timezone": "Europe/Amsterdam"
  }
]