[
  {
    "id": 107131,
    "name": "Almus",
    "state_id": 2199,
    "state_code": "60",
    "country_id": 225,
    "country_code": "TR",
    "latitude": "40.37583000",
    "longitude": "36.90444000",
    "wikiDataId": null
  },
  {
    "id": 107193,
    "name": "Artova",
    "state_id": 2199,
    "state_code": "60",
    "country_id": 225,
    "country_code": "TR",
    "latitude": "40.11578000",
    "longitude": "36.30010000",
    "wikiDataId": null
  },
  {
    "id": 107322,
    "name": "Başçiftlik",
    "state_id": 2199,
    "state_code": "60",
    "country_id": 225,
    "country_code": "TR",
    "latitude": "40.54694000",
    "longitude": "37.16917000",
    "wikiDataId": null
  },
  {
    "id": 107582,
    "name": "Erbaa",
    "state_id": 2199,
    "state_code": "60",
    "country_id": 225,
    "country_code": "TR",
    "latitude": "40.71390000",
    "longitude": "36.59364000",
    "wikiDataId": null
  },
  {
    "id": 108580,
    "name": "Merkez",
    "state_id": 2199,
    "state_code": "60",
    "country_id": 225,
    "country_code": "TR",
    "latitude": "40.31389000",
    "longitude": "36.55444000",
    "wikiDataId": null
  },
  {
    "id": 108248,
    "name": "Niksar",
    "state_id": 2199,
    "state_code": "60",
    "country_id": 225,
    "country_code": "TR",
    "latitude": "40.60509000",
    "longitude": "36.97174000",
    "wikiDataId": null
  },
  {
    "id": 108322,
    "name": "Pazar",
    "state_id": 2199,
    "state_code": "60",
    "country_id": 225,
    "country_code": "TR",
    "latitude": "40.27652000",
    "longitude": "36.28347000",
    "wikiDataId": null
  },
  {
    "id": 108370,
    "name": "Reşadiye",
    "state_id": 2199,
    "state_code": "60",
    "country_id": 225,
    "country_code": "TR",
    "latitude": "40.43284000",
    "longitude": "37.37652000",
    "wikiDataId": null
  },
  {
    "id": 108502,
    "name": "Sulusaray",
    "state_id": 2199,
    "state_code": "60",
    "country_id": 225,
    "country_code": "TR",
    "latitude": "39.99389000",
    "longitude": "36.08404000",
    "wikiDataId": null
  },
  {
    "id": 108602,
    "name": "Turhal",
    "state_id": 2199,
    "state_code": "60",
    "country_id": 225,
    "country_code": "TR",
    "latitude": "40.38750000",
    "longitude": "36.08111000",
    "wikiDataId": null
  },
  {
    "id": 108729,
    "name": "Yeşilyurt",
    "state_id": 2199,
    "state_code": "60",
    "country_id": 225,
    "country_code": "TR",
    "latitude": "39.99916000",
    "longitude": "36.23479000",
    "wikiDataId": null
  },
  {
    "id": 108753,
    "name": "Zile",
    "state_id": 2199,
    "state_code": "60",
    "country_id": 225,
    "country_code": "TR",
    "latitude": "40.30306000",
    "longitude": "35.88639000",
    "wikiDataId": null
  }
]