[
  {
    "id": 20499,
    "name": "Albania",
    "state_id": 2891,
    "state_code": "CAQ",
    "country_id": 48,
    "country_code": "CO",
    "latitude": "1.26325000",
    "longitude": "-75.95366000",
    "wikiDataId": null
  },
  {
    "id": 20584,
    "name": "Belén de Los Andaquies",
    "state_id": 2891,
    "state_code": "CAQ",
    "country_id": 48,
    "country_code": "CO",
    "latitude": "1.41667000",
    "longitude": "-75.91667000",
    "wikiDataId": null
  },
  {
    "id": 20660,
    "name": "Cartagena del Chairá",
    "state_id": 2891,
    "state_code": "CAQ",
    "country_id": 48,
    "country_code": "CO",
    "latitude": "1.33488000",
    "longitude": "-74.84289000",
    "wikiDataId": null
  },
  {
    "id": 20759,
    "name": "Curillo",
    "state_id": 2891,
    "state_code": "CAQ",
    "country_id": 48,
    "country_code": "CO",
    "latitude": "1.03327000",
    "longitude": "-75.91907000",
    "wikiDataId": null
  },
  {
    "id": 20805,
    "name": "El Doncello",
    "state_id": 2891,
    "state_code": "CAQ",
    "country_id": 48,
    "country_code": "CO",
    "latitude": "1.67817000",
    "longitude": "-75.28466000",
    "wikiDataId": null
  },
  {
    "id": 20814,
    "name": "El Paujil",
    "state_id": 2891,
    "state_code": "CAQ",
    "country_id": 48,
    "country_code": "CO",
    "latitude": "1.57085000",
    "longitude": "-75.31403000",
    "wikiDataId": null
  },
  {
    "id": 20849,
    "name": "Florencia",
    "state_id": 2891,
    "state_code": "CAQ",
    "country_id": 48,
    "country_code": "CO",
    "latitude": "1.71619000",
    "longitude": "-75.59624000",
    "wikiDataId": null
  },
  {
    "id": 20994,
    "name": "La Montañita",
    "state_id": 2891,
    "state_code": "CAQ",
    "country_id": 48,
    "country_code": "CO",
    "latitude": "1.46389000",
    "longitude": "-75.30363000",
    "wikiDataId": null
  },
  {
    "id": 21082,
    "name": "Milán",
    "state_id": 2891,
    "state_code": "CAQ",
    "country_id": 48,
    "country_code": "CO",
    "latitude": "1.29034000",
    "longitude": "-75.50757000",
    "wikiDataId": null
  },
  {
    "id": 21105,
    "name": "Morelia",
    "state_id": 2891,
    "state_code": "CAQ",
    "country_id": 48,
    "country_code": "CO",
    "latitude": "1.48747000",
    "longitude": "-75.72581000",
    "wikiDataId": null
  },
  {
    "id": 21251,
    "name": "Puerto Rico",
    "state_id": 2891,
    "state_code": "CAQ",
    "country_id": 48,
    "country_code": "CO",
    "latitude": "1.90999000",
    "longitude": "-75.15931000",
    "wikiDataId": null
  },
  {
    "id": 21369,
    "name": "San José del Fragua",
    "state_id": 2891,
    "state_code": "CAQ",
    "country_id": 48,
    "country_code": "CO",
    "latitude": "1.30780000",
    "longitude": "-76.16554000",
    "wikiDataId": null
  },
  {
    "id": 149254,
    "name": "San Vicente del Caguán",
    "state_id": 2891,
    "state_code": "CAQ",
    "country_id": 48,
    "country_code": "CO",
    "latitude": "2.11527888",
    "longitude": "-74.77777777",
    "wikiDataId": null
  },
  {
    "id": 21471,
    "name": "Solano",
    "state_id": 2891,
    "state_code": "CAQ",
    "country_id": 48,
    "country_code": "CO",
    "latitude": "0.22842000",
    "longitude": "-73.27597000",
    "wikiDataId": null
  },
  {
    "id": 149255,
    "name": "Solita",
    "state_id": 2891,
    "state_code": "CAQ",
    "country_id": 48,
    "country_code": "CO",
    "latitude": "0.87583333",
    "longitude": "-75.61972222",
    "wikiDataId": null
  },
  {
    "id": 21583,
    "name": "Valparaíso",
    "state_id": 2891,
    "state_code": "CAQ",
    "country_id": 48,
    "country_code": "CO",
    "latitude": "1.19403000",
    "longitude": "-75.70746000",
    "wikiDataId": null
  }
]