[
  {
    "id": 150506,
    "name": "Ashkhaneh",
    "state_id": 3942,
    "state_code": "28",
    "country_id": 103,
    "country_code": "IR",
    "latitude": "37.55917080",
    "longitude": "56.90694800",
    "wikiDataId": null
  },
  {
    "id": 150507,
    "name": "Ava",
    "state_id": 3942,
    "state_code": "28",
    "country_id": 103,
    "country_code": "IR",
    "latitude": "37.47722200",
    "longitude": "56.74111100",
    "wikiDataId": null
  },
  {
    "id": 134587,
    "name": "Bojnurd",
    "state_id": 3942,
    "state_code": "28",
    "country_id": 103,
    "country_code": "IR",
    "latitude": "37.47473000",
    "longitude": "57.32903000",
    "wikiDataId": null
  },
  {
    "id": 150494,
    "name": "Chenaran Shahr",
    "state_id": 3942,
    "state_code": "28",
    "country_id": 103,
    "country_code": "IR",
    "latitude": "37.46480280",
    "longitude": "57.43791020",
    "wikiDataId": null
  },
  {
    "id": 150504,
    "name": "Daraq",
    "state_id": 3942,
    "state_code": "28",
    "country_id": 103,
    "country_code": "IR",
    "latitude": "36.97032870",
    "longitude": "56.20023960",
    "wikiDataId": null
  },
  {
    "id": 134630,
    "name": "Esfarayen",
    "state_id": 3942,
    "state_code": "28",
    "country_id": 103,
    "country_code": "IR",
    "latitude": "37.07645000",
    "longitude": "57.51009000",
    "wikiDataId": null
  },
  {
    "id": 150502,
    "name": "Farooj",
    "state_id": 3942,
    "state_code": "28",
    "country_id": 103,
    "country_code": "IR",
    "latitude": "37.18743970",
    "longitude": "57.53594140",
    "wikiDataId": null
  },
  {
    "id": 134873,
    "name": "Faruj",
    "state_id": 3942,
    "state_code": "28",
    "country_id": 103,
    "country_code": "IR",
    "latitude": "37.21667000",
    "longitude": "58.21667000",
    "wikiDataId": null
  },
  {
    "id": 150505,
    "name": "Garmeh",
    "state_id": 3942,
    "state_code": "28",
    "country_id": 103,
    "country_code": "IR",
    "latitude": "36.98811280",
    "longitude": "56.26396410",
    "wikiDataId": null
  },
  {
    "id": 150495,
    "name": "Hesar-e Garmkhan",
    "state_id": 3942,
    "state_code": "28",
    "country_id": 103,
    "country_code": "IR",
    "latitude": "37.51944400",
    "longitude": "57.48250000",
    "wikiDataId": null
  },
  {
    "id": 150503,
    "name": "Ivar",
    "state_id": 3942,
    "state_code": "28",
    "country_id": 103,
    "country_code": "IR",
    "latitude": "36.96991740",
    "longitude": "56.25472080",
    "wikiDataId": null
  },
  {
    "id": 134899,
    "name": "Jajarm",
    "state_id": 3942,
    "state_code": "28",
    "country_id": 103,
    "country_code": "IR",
    "latitude": "37.01667000",
    "longitude": "56.68333000",
    "wikiDataId": null
  },
  {
    "id": 150500,
    "name": "Lujali",
    "state_id": 3942,
    "state_code": "28",
    "country_id": 103,
    "country_code": "IR",
    "latitude": "37.60805600",
    "longitude": "57.85750000",
    "wikiDataId": null
  },
  {
    "id": 134968,
    "name": "Maneh va Samalqan",
    "state_id": 3942,
    "state_code": "28",
    "country_id": 103,
    "country_code": "IR",
    "latitude": "37.70000000",
    "longitude": "56.60000000",
    "wikiDataId": null
  },
  {
    "id": 150508,
    "name": "Pish Ghaleh",
    "state_id": 3942,
    "state_code": "28",
    "country_id": 103,
    "country_code": "IR",
    "latitude": "37.65006930",
    "longitude": "56.98857310",
    "wikiDataId": null
  },
  {
    "id": 150509,
    "name": "Qazi",
    "state_id": 3942,
    "state_code": "28",
    "country_id": 103,
    "country_code": "IR",
    "latitude": "37.84754450",
    "longitude": "57.31184360",
    "wikiDataId": null
  },
  {
    "id": 150499,
    "name": "Qushkhaneh",
    "state_id": 3942,
    "state_code": "28",
    "country_id": 103,
    "country_code": "IR",
    "latitude": "37.74660970",
    "longitude": "57.70606400",
    "wikiDataId": null
  },
  {
    "id": 134750,
    "name": "Raz",
    "state_id": 3942,
    "state_code": "28",
    "country_id": 103,
    "country_code": "IR",
    "latitude": "37.93060000",
    "longitude": "57.11940000",
    "wikiDataId": null
  },
  {
    "id": 150493,
    "name": "Safiabad",
    "state_id": 3942,
    "state_code": "28",
    "country_id": 103,
    "country_code": "IR",
    "latitude": "36.69452330",
    "longitude": "57.92146670",
    "wikiDataId": null
  },
  {
    "id": 150496,
    "name": "Sankhast",
    "state_id": 3942,
    "state_code": "28",
    "country_id": 103,
    "country_code": "IR",
    "latitude": "37.10227080",
    "longitude": "56.85038560",
    "wikiDataId": null
  },
  {
    "id": 135112,
    "name": "Shirvan",
    "state_id": 3942,
    "state_code": "28",
    "country_id": 103,
    "country_code": "IR",
    "latitude": "37.39669000",
    "longitude": "57.92952000",
    "wikiDataId": null
  },
  {
    "id": 150497,
    "name": "Shoqan",
    "state_id": 3942,
    "state_code": "28",
    "country_id": 103,
    "country_code": "IR",
    "latitude": "37.34160420",
    "longitude": "56.87828070",
    "wikiDataId": null
  },
  {
    "id": 150501,
    "name": "Titkanlu",
    "state_id": 3942,
    "state_code": "28",
    "country_id": 103,
    "country_code": "IR",
    "latitude": "37.22889760",
    "longitude": "58.29700970",
    "wikiDataId": null
  },
  {
    "id": 150498,
    "name": "Ziarat",
    "state_id": 3942,
    "state_code": "28",
    "country_id": 103,
    "country_code": "IR",
    "latitude": "36.71608360",
    "longitude": "58.54554170",
    "wikiDataId": null
  }
]