[
  {
    "id": 20490,
    "name": "Achí",
    "state_id": 2893,
    "state_code": "BOL",
    "country_id": 48,
    "country_code": "CO",
    "latitude": "8.56950000",
    "longitude": "-74.55715000",
    "wikiDataId": null
  },
  {
    "id": 20510,
    "name": "Altos del Rosario",
    "state_id": 2893,
    "state_code": "BOL",
    "country_id": 48,
    "country_code": "CO",
    "latitude": "8.79162000",
    "longitude": "-74.16556000",
    "wikiDataId": null
  },
  {
    "id": 20543,
    "name": "Arenal",
    "state_id": 2893,
    "state_code": "BOL",
    "country_id": 48,
    "country_code": "CO",
    "latitude": "8.45928000",
    "longitude": "-73.94331000",
    "wikiDataId": null
  },
  {
    "id": 20549,
    "name": "Arjona",
    "state_id": 2893,
    "state_code": "BOL",
    "country_id": 48,
    "country_code": "CO",
    "latitude": "10.17594000",
    "longitude": "-75.35884000",
    "wikiDataId": null
  },
  {
    "id": 20554,
    "name": "Arroyohondo",
    "state_id": 2893,
    "state_code": "BOL",
    "country_id": 48,
    "country_code": "CO",
    "latitude": "10.25220000",
    "longitude": "-75.01980000",
    "wikiDataId": null
  },
  {
    "id": 20573,
    "name": "Barranco de Loba",
    "state_id": 2893,
    "state_code": "BOL",
    "country_id": 48,
    "country_code": "CO",
    "latitude": "8.94597000",
    "longitude": "-74.10647000",
    "wikiDataId": null
  },
  {
    "id": 20628,
    "name": "Calamar",
    "state_id": 2893,
    "state_code": "BOL",
    "country_id": 48,
    "country_code": "CO",
    "latitude": "10.23377000",
    "longitude": "-74.94240000",
    "wikiDataId": null
  },
  {
    "id": 20645,
    "name": "Cantagallo",
    "state_id": 2893,
    "state_code": "BOL",
    "country_id": 48,
    "country_code": "CO",
    "latitude": "7.37926000",
    "longitude": "-73.91550000",
    "wikiDataId": null
  },
  {
    "id": 20659,
    "name": "Cartagena de Indias",
    "state_id": 2893,
    "state_code": "BOL",
    "country_id": 48,
    "country_code": "CO",
    "latitude": "10.39972000",
    "longitude": "-75.51444000",
    "wikiDataId": null
  },
  {
    "id": 20707,
    "name": "Cicuco",
    "state_id": 2893,
    "state_code": "BOL",
    "country_id": 48,
    "country_code": "CO",
    "latitude": "9.27756000",
    "longitude": "-74.64312000",
    "wikiDataId": null
  },
  {
    "id": 20715,
    "name": "Clemencia",
    "state_id": 2893,
    "state_code": "BOL",
    "country_id": 48,
    "country_code": "CO",
    "latitude": "10.56645000",
    "longitude": "-75.32499000",
    "wikiDataId": null
  },
  {
    "id": 20770,
    "name": "Córdoba",
    "state_id": 2893,
    "state_code": "BOL",
    "country_id": 48,
    "country_code": "CO",
    "latitude": "9.55149000",
    "longitude": "-74.89800000",
    "wikiDataId": null
  },
  {
    "id": 20796,
    "name": "El Carmen de Bolívar",
    "state_id": 2893,
    "state_code": "BOL",
    "country_id": 48,
    "country_code": "CO",
    "latitude": "9.71740000",
    "longitude": "-75.12023000",
    "wikiDataId": null
  },
  {
    "id": 20810,
    "name": "El Guamo",
    "state_id": 2893,
    "state_code": "BOL",
    "country_id": 48,
    "country_code": "CO",
    "latitude": "10.01753000",
    "longitude": "-74.93483000",
    "wikiDataId": null
  },
  {
    "id": 20818,
    "name": "El Peñón",
    "state_id": 2893,
    "state_code": "BOL",
    "country_id": 48,
    "country_code": "CO",
    "latitude": "8.98691000",
    "longitude": "-73.94697000",
    "wikiDataId": null
  },
  {
    "id": 20935,
    "name": "Hatillo de Loba",
    "state_id": 2893,
    "state_code": "BOL",
    "country_id": 48,
    "country_code": "CO",
    "latitude": "8.95635000",
    "longitude": "-74.07819000",
    "wikiDataId": null
  },
  {
    "id": 21048,
    "name": "Magangué",
    "state_id": 2893,
    "state_code": "BOL",
    "country_id": 48,
    "country_code": "CO",
    "latitude": "9.24202000",
    "longitude": "-74.75467000",
    "wikiDataId": null
  },
  {
    "id": 21050,
    "name": "Mahates",
    "state_id": 2893,
    "state_code": "BOL",
    "country_id": 48,
    "country_code": "CO",
    "latitude": "10.23293000",
    "longitude": "-75.18985000",
    "wikiDataId": null
  },
  {
    "id": 21065,
    "name": "Margarita",
    "state_id": 2893,
    "state_code": "BOL",
    "country_id": 48,
    "country_code": "CO",
    "latitude": "9.06325000",
    "longitude": "-74.28134000",
    "wikiDataId": null
  },
  {
    "id": 21072,
    "name": "María la Baja",
    "state_id": 2893,
    "state_code": "BOL",
    "country_id": 48,
    "country_code": "CO",
    "latitude": "9.99228000",
    "longitude": "-75.34364000",
    "wikiDataId": null
  },
  {
    "id": 21093,
    "name": "Mompós",
    "state_id": 2893,
    "state_code": "BOL",
    "country_id": 48,
    "country_code": "CO",
    "latitude": "9.13990000",
    "longitude": "-74.54513000",
    "wikiDataId": null
  },
  {
    "id": 21098,
    "name": "Montecristo",
    "state_id": 2893,
    "state_code": "BOL",
    "country_id": 48,
    "country_code": "CO",
    "latitude": "8.29710000",
    "longitude": "-74.47330000",
    "wikiDataId": null
  },
  {
    "id": 21104,
    "name": "Morales",
    "state_id": 2893,
    "state_code": "BOL",
    "country_id": 48,
    "country_code": "CO",
    "latitude": "8.27520000",
    "longitude": "-73.86884000",
    "wikiDataId": null
  },
  {
    "id": 21138,
    "name": "Norosí",
    "state_id": 2893,
    "state_code": "BOL",
    "country_id": 48,
    "country_code": "CO",
    "latitude": "8.52692000",
    "longitude": "-74.03736000",
    "wikiDataId": null
  },
  {
    "id": 21207,
    "name": "Pinillos",
    "state_id": 2893,
    "state_code": "BOL",
    "country_id": 48,
    "country_code": "CO",
    "latitude": "8.91925000",
    "longitude": "-74.46771000",
    "wikiDataId": null
  },
  {
    "id": 21280,
    "name": "Regidor",
    "state_id": 2893,
    "state_code": "BOL",
    "country_id": 48,
    "country_code": "CO",
    "latitude": "8.72229000",
    "longitude": "-73.84891000",
    "wikiDataId": null
  },
  {
    "id": 21306,
    "name": "Río Viejo",
    "state_id": 2893,
    "state_code": "BOL",
    "country_id": 48,
    "country_code": "CO",
    "latitude": "8.58740000",
    "longitude": "-73.83901000",
    "wikiDataId": null
  },
  {
    "id": 21350,
    "name": "San Cristóbal",
    "state_id": 2893,
    "state_code": "BOL",
    "country_id": 48,
    "country_code": "CO",
    "latitude": "9.87809000",
    "longitude": "-75.25248000",
    "wikiDataId": null
  },
  {
    "id": 21353,
    "name": "San Estanislao",
    "state_id": 2893,
    "state_code": "BOL",
    "country_id": 48,
    "country_code": "CO",
    "latitude": "10.39833000",
    "longitude": "-75.15111000",
    "wikiDataId": null
  },
  {
    "id": 21355,
    "name": "San Fernando",
    "state_id": 2893,
    "state_code": "BOL",
    "country_id": 48,
    "country_code": "CO",
    "latitude": "9.27972000",
    "longitude": "-74.53389000",
    "wikiDataId": null
  },
  {
    "id": 21360,
    "name": "San Jacinto",
    "state_id": 2893,
    "state_code": "BOL",
    "country_id": 48,
    "country_code": "CO",
    "latitude": "9.83906000",
    "longitude": "-75.11043000",
    "wikiDataId": null
  },
  {
    "id": 21361,
    "name": "San Jacinto del Cauca",
    "state_id": 2893,
    "state_code": "BOL",
    "country_id": 48,
    "country_code": "CO",
    "latitude": "8.23729000",
    "longitude": "-74.66782000",
    "wikiDataId": null
  },
  {
    "id": 21372,
    "name": "San Juan Nepomuceno",
    "state_id": 2893,
    "state_code": "BOL",
    "country_id": 48,
    "country_code": "CO",
    "latitude": "9.94976000",
    "longitude": "-75.07426000",
    "wikiDataId": null
  },
  {
    "id": 21386,
    "name": "San Martín de Loba",
    "state_id": 2893,
    "state_code": "BOL",
    "country_id": 48,
    "country_code": "CO",
    "latitude": "8.88214000",
    "longitude": "-74.00353000",
    "wikiDataId": null
  },
  {
    "id": 21393,
    "name": "San Pablo",
    "state_id": 2893,
    "state_code": "BOL",
    "country_id": 48,
    "country_code": "CO",
    "latitude": "10.05154000",
    "longitude": "-75.26775000",
    "wikiDataId": null
  },
  {
    "id": 21416,
    "name": "Santa Catalina",
    "state_id": 2893,
    "state_code": "BOL",
    "country_id": 48,
    "country_code": "CO",
    "latitude": "10.60448000",
    "longitude": "-75.29555000",
    "wikiDataId": null
  },
  {
    "id": 21423,
    "name": "Santa Rosa",
    "state_id": 2893,
    "state_code": "BOL",
    "country_id": 48,
    "country_code": "CO",
    "latitude": "10.47312000",
    "longitude": "-75.36160000",
    "wikiDataId": null
  },
  {
    "id": 21427,
    "name": "Santa Rosa del Sur",
    "state_id": 2893,
    "state_code": "BOL",
    "country_id": 48,
    "country_code": "CO",
    "latitude": "7.96444000",
    "longitude": "-74.05444000",
    "wikiDataId": null
  },
  {
    "id": 21460,
    "name": "Simití",
    "state_id": 2893,
    "state_code": "BOL",
    "country_id": 48,
    "country_code": "CO",
    "latitude": "7.81632000",
    "longitude": "-73.97922000",
    "wikiDataId": null
  },
  {
    "id": 21477,
    "name": "Soplaviento",
    "state_id": 2893,
    "state_code": "BOL",
    "country_id": 48,
    "country_code": "CO",
    "latitude": "10.33176000",
    "longitude": "-75.11853000",
    "wikiDataId": null
  },
  {
    "id": 21505,
    "name": "Talaigua Nuevo",
    "state_id": 2893,
    "state_code": "BOL",
    "country_id": 48,
    "country_code": "CO",
    "latitude": "9.30347000",
    "longitude": "-74.56477000",
    "wikiDataId": null
  },
  {
    "id": 21531,
    "name": "Tiquisio",
    "state_id": 2893,
    "state_code": "BOL",
    "country_id": 48,
    "country_code": "CO",
    "latitude": "8.55666000",
    "longitude": "-74.26355000",
    "wikiDataId": null
  },
  {
    "id": 21555,
    "name": "Turbaco",
    "state_id": 2893,
    "state_code": "BOL",
    "country_id": 48,
    "country_code": "CO",
    "latitude": "10.35707000",
    "longitude": "-75.38044000",
    "wikiDataId": null
  },
  {
    "id": 21556,
    "name": "Turbaná",
    "state_id": 2893,
    "state_code": "BOL",
    "country_id": 48,
    "country_code": "CO",
    "latitude": "10.27169000",
    "longitude": "-75.44222000",
    "wikiDataId": null
  },
  {
    "id": 21609,
    "name": "Villanueva",
    "state_id": 2893,
    "state_code": "BOL",
    "country_id": 48,
    "country_code": "CO",
    "latitude": "10.44759000",
    "longitude": "-75.26574000",
    "wikiDataId": null
  },
  {
    "id": 21629,
    "name": "Zambrano",
    "state_id": 2893,
    "state_code": "BOL",
    "country_id": 48,
    "country_code": "CO",
    "latitude": "9.74823000",
    "longitude": "-74.88487000",
    "wikiDataId": null
  }
]