[
  {
    "id": 149573,
    "name": "Christiansted",
    "state_id": 5074,
    "state_code": "SC",
    "country_id": 242,
    "country_code": "VI",
    "latitude": "17.74403640",
    "longitude": "-64.71060860",
    "wikiDataId": null
  },
  {
    "id": 149574,
    "name": "East End",
    "state_id": 5074,
    "state_code": "SC",
    "country_id": 242,
    "country_code": "VI",
    "latitude": "17.75238820",
    "longitude": "-64.67030100",
    "wikiDataId": null
  },
  {
    "id": 149575,
    "name": "Frederiksted",
    "state_id": 5074,
    "state_code": "SC",
    "country_id": 242,
    "country_code": "VI",
    "latitude": "17.71246910",
    "longitude": "-64.88671920",
    "wikiDataId": null
  },
  {
    "id": 149572,
    "name": "Good Hope",
    "state_id": 5074,
    "state_code": "SC",
    "country_id": 242,
    "country_code": "VI",
    "latitude": "17.72234420",
    "longitude": "-64.71724940",
    "wikiDataId": null
  },
  {
    "id": 149576,
    "name": "Northcentral",
    "state_id": 5074,
    "state_code": "SC",
    "country_id": 242,
    "country_code": "VI",
    "latitude": "17.75011450",
    "longitude": "-64.82384910",
    "wikiDataId": null
  },
  {
    "id": 149577,
    "name": "Northwest",
    "state_id": 5074,
    "state_code": "SC",
    "country_id": 242,
    "country_code": "VI",
    "latitude": "17.73827820",
    "longitude": "-64.89063470",
    "wikiDataId": null
  },
  {
    "id": 149578,
    "name": "Sion Farm",
    "state_id": 5074,
    "state_code": "SC",
    "country_id": 242,
    "country_code": "VI",
    "latitude": "17.75432760",
    "longitude": "-64.77946110",
    "wikiDataId": null
  },
  {
    "id": 149579,
    "name": "Southcentral",
    "state_id": 5074,
    "state_code": "SC",
    "country_id": 242,
    "country_code": "VI",
    "latitude": "17.70649170",
    "longitude": "-64.81448650",
    "wikiDataId": null
  },
  {
    "id": 149580,
    "name": "Southwest",
    "state_id": 5074,
    "state_code": "SC",
    "country_id": 242,
    "country_code": "VI",
    "latitude": "17.69177870",
    "longitude": "-64.93559390",
    "wikiDataId": null
  }
]