[
  {
    "id": 153689,
    "name": "Aires Puros",
    "state_id": 3218,
    "state_code": "MO",
    "country_id": 235,
    "country_code": "UY",
    "latitude": "-34.85200000",
    "longitude": "-56.18300000",
    "wikiDataId": null
  },
  {
    "id": 153690,
    "name": "Arroyo Seco",
    "state_id": 3218,
    "state_code": "MO",
    "country_id": 235,
    "country_code": "UY",
    "latitude": "-34.80400000",
    "longitude": "-56.27700000",
    "wikiDataId": null
  },
  {
    "id": 153691,
    "name": "Atahualpa",
    "state_id": 3218,
    "state_code": "MO",
    "country_id": 235,
    "country_code": "UY",
    "latitude": "-34.80900000",
    "longitude": "-56.23000000",
    "wikiDataId": null
  },
  {
    "id": 153692,
    "name": "Bañados de Carrasco",
    "state_id": 3218,
    "state_code": "MO",
    "country_id": 235,
    "country_code": "UY",
    "latitude": "-34.82100000",
    "longitude": "-56.06700000",
    "wikiDataId": null
  },
  {
    "id": 153693,
    "name": "Barra de Carrasco",
    "state_id": 3218,
    "state_code": "MO",
    "country_id": 235,
    "country_code": "UY",
    "latitude": "-34.88400000",
    "longitude": "-56.04700000",
    "wikiDataId": null
  },
  {
    "id": 153694,
    "name": "Barrio Sur",
    "state_id": 3218,
    "state_code": "MO",
    "country_id": 235,
    "country_code": "UY",
    "latitude": "-34.90800000",
    "longitude": "-56.19400000",
    "wikiDataId": null
  },
  {
    "id": 153695,
    "name": "Bella Italia",
    "state_id": 3218,
    "state_code": "MO",
    "country_id": 235,
    "country_code": "UY",
    "latitude": "-34.85600000",
    "longitude": "-56.15500000",
    "wikiDataId": null
  },
  {
    "id": 149276,
    "name": "Bella Vista",
    "state_id": 3218,
    "state_code": "MO",
    "country_id": 235,
    "country_code": "UY",
    "latitude": "-34.87527778",
    "longitude": "-56.18666667",
    "wikiDataId": null
  },
  {
    "id": 149277,
    "name": "Belvedere",
    "state_id": 3218,
    "state_code": "MO",
    "country_id": 235,
    "country_code": "UY",
    "latitude": "-34.85155556",
    "longitude": "-56.21611111",
    "wikiDataId": null
  },
  {
    "id": 149278,
    "name": "Buceo",
    "state_id": 3218,
    "state_code": "MO",
    "country_id": 235,
    "country_code": "UY",
    "latitude": "-34.90000000",
    "longitude": "-56.13305556",
    "wikiDataId": null
  },
  {
    "id": 153696,
    "name": "Capurro",
    "state_id": 3218,
    "state_code": "MO",
    "country_id": 235,
    "country_code": "UY",
    "latitude": "-34.90500000",
    "longitude": "-56.21700000",
    "wikiDataId": null
  },
  {
    "id": 149280,
    "name": "Carrasco",
    "state_id": 3218,
    "state_code": "MO",
    "country_id": 235,
    "country_code": "UY",
    "latitude": "-34.88333333",
    "longitude": "-56.06666667",
    "wikiDataId": null
  },
  {
    "id": 153697,
    "name": "Carrasco Norte",
    "state_id": 3218,
    "state_code": "MO",
    "country_id": 235,
    "country_code": "UY",
    "latitude": "-34.86800000",
    "longitude": "-56.04300000",
    "wikiDataId": null
  },
  {
    "id": 149281,
    "name": "Casabó",
    "state_id": 3218,
    "state_code": "MO",
    "country_id": 235,
    "country_code": "UY",
    "latitude": "-34.86388889",
    "longitude": "-56.34111111",
    "wikiDataId": null
  },
  {
    "id": 153698,
    "name": "Casavalle",
    "state_id": 3218,
    "state_code": "MO",
    "country_id": 235,
    "country_code": "UY",
    "latitude": "-34.84300000",
    "longitude": "-56.20300000",
    "wikiDataId": null
  },
  {
    "id": 149282,
    "name": "Centro",
    "state_id": 3218,
    "state_code": "MO",
    "country_id": 235,
    "country_code": "UY",
    "latitude": "-34.90361111",
    "longitude": "-56.18833333",
    "wikiDataId": null
  },
  {
    "id": 153699,
    "name": "Cerrito",
    "state_id": 3218,
    "state_code": "MO",
    "country_id": 235,
    "country_code": "UY",
    "latitude": "-34.81500000",
    "longitude": "-56.22500000",
    "wikiDataId": null
  },
  {
    "id": 149307,
    "name": "Cerro",
    "state_id": 3218,
    "state_code": "MO",
    "country_id": 235,
    "country_code": "UY",
    "latitude": "-34.88444444",
    "longitude": "-56.25138889",
    "wikiDataId": null
  },
  {
    "id": 153700,
    "name": "Ciudad Vieja",
    "state_id": 3218,
    "state_code": "MO",
    "country_id": 235,
    "country_code": "UY",
    "latitude": "-34.90800000",
    "longitude": "-56.20400000",
    "wikiDataId": null
  },
  {
    "id": 153701,
    "name": "Colón",
    "state_id": 3218,
    "state_code": "MO",
    "country_id": 235,
    "country_code": "UY",
    "latitude": "-34.86500000",
    "longitude": "-56.18000000",
    "wikiDataId": null
  },
  {
    "id": 149286,
    "name": "Conciliación",
    "state_id": 3218,
    "state_code": "MO",
    "country_id": 235,
    "country_code": "UY",
    "latitude": "-34.82361111",
    "longitude": "-56.23194444",
    "wikiDataId": null
  },
  {
    "id": 149287,
    "name": "Cordón",
    "state_id": 3218,
    "state_code": "MO",
    "country_id": 235,
    "country_code": "UY",
    "latitude": "-34.90000000",
    "longitude": "-56.17858333",
    "wikiDataId": null
  },
  {
    "id": 149288,
    "name": "Flor de Maroñas",
    "state_id": 3218,
    "state_code": "MO",
    "country_id": 235,
    "country_code": "UY",
    "latitude": "-34.85055556",
    "longitude": "-56.12472222",
    "wikiDataId": null
  },
  {
    "id": 153702,
    "name": "Goes",
    "state_id": 3218,
    "state_code": "MO",
    "country_id": 235,
    "country_code": "UY",
    "latitude": "-34.87500000",
    "longitude": "-56.19200000",
    "wikiDataId": null
  },
  {
    "id": 149289,
    "name": "Ituzaingó",
    "state_id": 3218,
    "state_code": "MO",
    "country_id": 235,
    "country_code": "UY",
    "latitude": "-34.84750000",
    "longitude": "-56.14361111",
    "wikiDataId": null
  },
  {
    "id": 153703,
    "name": "Jacinto Vera",
    "state_id": 3218,
    "state_code": "MO",
    "country_id": 235,
    "country_code": "UY",
    "latitude": "-34.88300000",
    "longitude": "-56.16600000",
    "wikiDataId": null
  },
  {
    "id": 153704,
    "name": "Jardines del Hipódromo",
    "state_id": 3218,
    "state_code": "MO",
    "country_id": 235,
    "country_code": "UY",
    "latitude": "-34.88100000",
    "longitude": "-56.15300000",
    "wikiDataId": null
  },
  {
    "id": 153705,
    "name": "La Blanqueada",
    "state_id": 3218,
    "state_code": "MO",
    "country_id": 235,
    "country_code": "UY",
    "latitude": "-34.89700000",
    "longitude": "-56.18500000",
    "wikiDataId": null
  },
  {
    "id": 153706,
    "name": "La Comercial",
    "state_id": 3218,
    "state_code": "MO",
    "country_id": 235,
    "country_code": "UY",
    "latitude": "-34.89400000",
    "longitude": "-56.19700000",
    "wikiDataId": null
  },
  {
    "id": 153707,
    "name": "La Figurita",
    "state_id": 3218,
    "state_code": "MO",
    "country_id": 235,
    "country_code": "UY",
    "latitude": "-34.88600000",
    "longitude": "-56.20300000",
    "wikiDataId": null
  },
  {
    "id": 153708,
    "name": "La Teja",
    "state_id": 3218,
    "state_code": "MO",
    "country_id": 235,
    "country_code": "UY",
    "latitude": "-34.86200000",
    "longitude": "-56.23600000",
    "wikiDataId": null
  },
  {
    "id": 149290,
    "name": "La Unión",
    "state_id": 3218,
    "state_code": "MO",
    "country_id": 235,
    "country_code": "UY",
    "latitude": "-34.87861111",
    "longitude": "-56.13583333",
    "wikiDataId": null
  },
  {
    "id": 153709,
    "name": "Larrañaga",
    "state_id": 3218,
    "state_code": "MO",
    "country_id": 235,
    "country_code": "UY",
    "latitude": "-34.86100000",
    "longitude": "-56.16300000",
    "wikiDataId": null
  },
  {
    "id": 153710,
    "name": "Las Acacias",
    "state_id": 3218,
    "state_code": "MO",
    "country_id": 235,
    "country_code": "UY",
    "latitude": "-34.85500000",
    "longitude": "-56.17000000",
    "wikiDataId": null
  },
  {
    "id": 153711,
    "name": "Lezica",
    "state_id": 3218,
    "state_code": "MO",
    "country_id": 235,
    "country_code": "UY",
    "latitude": "-34.84600000",
    "longitude": "-56.22300000",
    "wikiDataId": null
  },
  {
    "id": 149291,
    "name": "Malvín",
    "state_id": 3218,
    "state_code": "MO",
    "country_id": 235,
    "country_code": "UY",
    "latitude": "-34.89352778",
    "longitude": "-56.09994444",
    "wikiDataId": null
  },
  {
    "id": 153712,
    "name": "Malvín Norte",
    "state_id": 3218,
    "state_code": "MO",
    "country_id": 235,
    "country_code": "UY",
    "latitude": "-34.87800000",
    "longitude": "-56.08300000",
    "wikiDataId": null
  },
  {
    "id": 149292,
    "name": "Manga",
    "state_id": 3218,
    "state_code": "MO",
    "country_id": 235,
    "country_code": "UY",
    "latitude": "-34.80722222",
    "longitude": "-56.13805556",
    "wikiDataId": null
  },
  {
    "id": 153713,
    "name": "Marconi",
    "state_id": 3218,
    "state_code": "MO",
    "country_id": 235,
    "country_code": "UY",
    "latitude": "-34.86200000",
    "longitude": "-56.14700000",
    "wikiDataId": null
  },
  {
    "id": 149293,
    "name": "Maroñas",
    "state_id": 3218,
    "state_code": "MO",
    "country_id": 235,
    "country_code": "UY",
    "latitude": "-34.86338889",
    "longitude": "-56.12963889",
    "wikiDataId": null
  },
  {
    "id": 153714,
    "name": "Melilla",
    "state_id": 3218,
    "state_code": "MO",
    "country_id": 235,
    "country_code": "UY",
    "latitude": "-34.83700000",
    "longitude": "-56.25900000",
    "wikiDataId": null
  },
  {
    "id": 153715,
    "name": "Mercado Modelo",
    "state_id": 3218,
    "state_code": "MO",
    "country_id": 235,
    "country_code": "UY",
    "latitude": "-34.85600000",
    "longitude": "-56.20200000",
    "wikiDataId": null
  },
  {
    "id": 129833,
    "name": "Montevideo",
    "state_id": 3218,
    "state_code": "MO",
    "country_id": 235,
    "country_code": "UY",
    "latitude": "-34.90328000",
    "longitude": "-56.18816000",
    "wikiDataId": null
  },
  {
    "id": 149294,
    "name": "Nuevo París",
    "state_id": 3218,
    "state_code": "MO",
    "country_id": 235,
    "country_code": "UY",
    "latitude": "-34.83333333",
    "longitude": "-56.25000000",
    "wikiDataId": null
  },
  {
    "id": 129838,
    "name": "Pajas Blancas",
    "state_id": 3218,
    "state_code": "MO",
    "country_id": 235,
    "country_code": "UY",
    "latitude": "-34.80167000",
    "longitude": "-56.33417000",
    "wikiDataId": null
  },
  {
    "id": 153716,
    "name": "Palermo",
    "state_id": 3218,
    "state_code": "MO",
    "country_id": 235,
    "country_code": "UY",
    "latitude": "-34.90300000",
    "longitude": "-56.18200000",
    "wikiDataId": null
  },
  {
    "id": 153717,
    "name": "Parque Batlle",
    "state_id": 3218,
    "state_code": "MO",
    "country_id": 235,
    "country_code": "UY",
    "latitude": "-34.90000000",
    "longitude": "-56.18000000",
    "wikiDataId": null
  },
  {
    "id": 153718,
    "name": "Parque Rodó",
    "state_id": 3218,
    "state_code": "MO",
    "country_id": 235,
    "country_code": "UY",
    "latitude": "-34.90800000",
    "longitude": "-56.17100000",
    "wikiDataId": null
  },
  {
    "id": 153719,
    "name": "Paso de la Arena",
    "state_id": 3218,
    "state_code": "MO",
    "country_id": 235,
    "country_code": "UY",
    "latitude": "-34.86100000",
    "longitude": "-56.23900000",
    "wikiDataId": null
  },
  {
    "id": 149295,
    "name": "Paso Molino",
    "state_id": 3218,
    "state_code": "MO",
    "country_id": 235,
    "country_code": "UY",
    "latitude": "-34.85000000",
    "longitude": "-56.21666667",
    "wikiDataId": null
  },
  {
    "id": 149296,
    "name": "Peñarol",
    "state_id": 3218,
    "state_code": "MO",
    "country_id": 235,
    "country_code": "UY",
    "latitude": "-34.82519444",
    "longitude": "-56.19916667",
    "wikiDataId": null
  },
  {
    "id": 153720,
    "name": "Perez Castellanos",
    "state_id": 3218,
    "state_code": "MO",
    "country_id": 235,
    "country_code": "UY",
    "latitude": "-34.84300000",
    "longitude": "-56.21300000",
    "wikiDataId": null
  },
  {
    "id": 149297,
    "name": "Piedras Blancas",
    "state_id": 3218,
    "state_code": "MO",
    "country_id": 235,
    "country_code": "UY",
    "latitude": "-34.82361111",
    "longitude": "-56.14027778",
    "wikiDataId": null
  },
  {
    "id": 149298,
    "name": "Pocitos",
    "state_id": 3218,
    "state_code": "MO",
    "country_id": 235,
    "country_code": "UY",
    "latitude": "-34.90833333",
    "longitude": "-56.15000000",
    "wikiDataId": null
  },
  {
    "id": 153721,
    "name": "Prado",
    "state_id": 3218,
    "state_code": "MO",
    "country_id": 235,
    "country_code": "UY",
    "latitude": "-34.85600000",
    "longitude": "-56.20400000",
    "wikiDataId": null
  },
  {
    "id": 149299,
    "name": "Punta Carretas",
    "state_id": 3218,
    "state_code": "MO",
    "country_id": 235,
    "country_code": "UY",
    "latitude": "-34.92188889",
    "longitude": "-56.15944444",
    "wikiDataId": null
  },
  {
    "id": 153723,
    "name": "Punta de Rieles",
    "state_id": 3218,
    "state_code": "MO",
    "country_id": 235,
    "country_code": "UY",
    "latitude": "-34.84700000",
    "longitude": "-56.25200000",
    "wikiDataId": null
  },
  {
    "id": 153722,
    "name": "Punta Espinillo",
    "state_id": 3218,
    "state_code": "MO",
    "country_id": 235,
    "country_code": "UY",
    "latitude": "-34.83500000",
    "longitude": "-56.28600000",
    "wikiDataId": null
  },
  {
    "id": 149300,
    "name": "Punta Gorda",
    "state_id": 3218,
    "state_code": "MO",
    "country_id": 235,
    "country_code": "UY",
    "latitude": "-34.88647222",
    "longitude": "-56.08983333",
    "wikiDataId": null
  },
  {
    "id": 149301,
    "name": "Reducto",
    "state_id": 3218,
    "state_code": "MO",
    "country_id": 235,
    "country_code": "UY",
    "latitude": "-34.87831944",
    "longitude": "-56.18957778",
    "wikiDataId": null
  },
  {
    "id": 129871,
    "name": "Santiago Vázquez",
    "state_id": 3218,
    "state_code": "MO",
    "country_id": 235,
    "country_code": "UY",
    "latitude": "-34.79028000",
    "longitude": "-56.35000000",
    "wikiDataId": null
  },
  {
    "id": 149302,
    "name": "Sayago",
    "state_id": 3218,
    "state_code": "MO",
    "country_id": 235,
    "country_code": "UY",
    "latitude": "-34.83583333",
    "longitude": "-56.21250000",
    "wikiDataId": null
  },
  {
    "id": 149303,
    "name": "Tres Cruces",
    "state_id": 3218,
    "state_code": "MO",
    "country_id": 235,
    "country_code": "UY",
    "latitude": "-34.89583333",
    "longitude": "-56.16805556",
    "wikiDataId": null
  },
  {
    "id": 153724,
    "name": "Tres Ombues",
    "state_id": 3218,
    "state_code": "MO",
    "country_id": 235,
    "country_code": "UY",
    "latitude": "-34.76600000",
    "longitude": "-56.33000000",
    "wikiDataId": null
  },
  {
    "id": 149304,
    "name": "Villa Española",
    "state_id": 3218,
    "state_code": "MO",
    "country_id": 235,
    "country_code": "UY",
    "latitude": "-34.86388889",
    "longitude": "-56.14472222",
    "wikiDataId": null
  },
  {
    "id": 149305,
    "name": "Villa García",
    "state_id": 3218,
    "state_code": "MO",
    "country_id": 235,
    "country_code": "UY",
    "latitude": "-34.78111000",
    "longitude": "-56.05333000",
    "wikiDataId": null
  },
  {
    "id": 149306,
    "name": "Villa Muñoz",
    "state_id": 3218,
    "state_code": "MO",
    "country_id": 235,
    "country_code": "UY",
    "latitude": "-34.88781389",
    "longitude": "-56.17701389",
    "wikiDataId": null
  }
]