[
  {
    "id": 149146,
    "name": "Badaogu",
    "state_id": 2276,
    "state_code": "TJ",
    "country_id": 45,
    "country_code": "CN",
    "latitude": "39.47333333",
    "longitude": "117.32972222",
    "wikiDataId": null
  },
  {
    "id": 149147,
    "name": "Baijian",
    "state_id": 2276,
    "state_code": "TJ",
    "country_id": 45,
    "country_code": "CN",
    "latitude": "39.99416667",
    "longitude": "117.20861111",
    "wikiDataId": null
  },
  {
    "id": 149148,
    "name": "Bamencheng",
    "state_id": 2276,
    "state_code": "TJ",
    "country_id": 45,
    "country_code": "CN",
    "latitude": "39.57777778",
    "longitude": "117.60527778",
    "wikiDataId": null
  },
  {
    "id": 149149,
    "name": "Bangjun",
    "state_id": 2276,
    "state_code": "TJ",
    "country_id": 45,
    "country_code": "CN",
    "latitude": "39.98839000",
    "longitude": "117.26850000",
    "wikiDataId": null
  },
  {
    "id": 149150,
    "name": "Beicang",
    "state_id": 2276,
    "state_code": "TJ",
    "country_id": 45,
    "country_code": "CN",
    "latitude": "39.23007000",
    "longitude": "117.11892000",
    "wikiDataId": null
  },
  {
    "id": 149151,
    "name": "Beihuaidian",
    "state_id": 2276,
    "state_code": "TJ",
    "country_id": 45,
    "country_code": "CN",
    "latitude": "39.26220000",
    "longitude": "117.57485000",
    "wikiDataId": null
  },
  {
    "id": 149152,
    "name": "Beilizigu",
    "state_id": 2276,
    "state_code": "TJ",
    "country_id": 45,
    "country_code": "CN",
    "latitude": "39.49138889",
    "longitude": "117.46500000",
    "wikiDataId": null
  },
  {
    "id": 149153,
    "name": "Biaokou",
    "state_id": 2276,
    "state_code": "TJ",
    "country_id": 45,
    "country_code": "CN",
    "latitude": "39.32950000",
    "longitude": "117.56914000",
    "wikiDataId": null
  },
  {
    "id": 149154,
    "name": "Binhai New Area",
    "state_id": 2276,
    "state_code": "TJ",
    "country_id": 45,
    "country_code": "CN",
    "latitude": "39.00333333",
    "longitude": "117.71083333",
    "wikiDataId": null
  },
  {
    "id": 149155,
    "name": "Caijiapu",
    "state_id": 2276,
    "state_code": "TJ",
    "country_id": 45,
    "country_code": "CN",
    "latitude": "39.17305556",
    "longitude": "117.81055556",
    "wikiDataId": null
  },
  {
    "id": 149156,
    "name": "Caodian",
    "state_id": 2276,
    "state_code": "TJ",
    "country_id": 45,
    "country_code": "CN",
    "latitude": "39.61194444",
    "longitude": "117.47166667",
    "wikiDataId": null
  },
  {
    "id": 149157,
    "name": "Chabaihu",
    "state_id": 2276,
    "state_code": "TJ",
    "country_id": 45,
    "country_code": "CN",
    "latitude": "39.46555556",
    "longitude": "117.14833333",
    "wikiDataId": null
  },
  {
    "id": 149158,
    "name": "Changtun",
    "state_id": 2276,
    "state_code": "TJ",
    "country_id": 45,
    "country_code": "CN",
    "latitude": "39.44333333",
    "longitude": "117.07055556",
    "wikiDataId": null
  },
  {
    "id": 149159,
    "name": "Chengtougu",
    "state_id": 2276,
    "state_code": "TJ",
    "country_id": 45,
    "country_code": "CN",
    "latitude": "39.14000000",
    "longitude": "117.77888889",
    "wikiDataId": null
  },
  {
    "id": 149160,
    "name": "Chitu",
    "state_id": 2276,
    "state_code": "TJ",
    "country_id": 45,
    "country_code": "CN",
    "latitude": "39.20333333",
    "longitude": "117.40277778",
    "wikiDataId": null
  },
  {
    "id": 149161,
    "name": "Cuijiamatou",
    "state_id": 2276,
    "state_code": "TJ",
    "country_id": 45,
    "country_code": "CN",
    "latitude": "39.07472222",
    "longitude": "117.30055556",
    "wikiDataId": null
  },
  {
    "id": 149162,
    "name": "Dadunqiu",
    "state_id": 2276,
    "state_code": "TJ",
    "country_id": 45,
    "country_code": "CN",
    "latitude": "39.40611111",
    "longitude": "117.03305556",
    "wikiDataId": null
  },
  {
    "id": 149163,
    "name": "Dakoutun",
    "state_id": 2276,
    "state_code": "TJ",
    "country_id": 45,
    "country_code": "CN",
    "latitude": "39.58555556",
    "longitude": "117.23638889",
    "wikiDataId": null
  },
  {
    "id": 149164,
    "name": "Dashentang",
    "state_id": 2276,
    "state_code": "TJ",
    "country_id": 45,
    "country_code": "CN",
    "latitude": "39.21722222",
    "longitude": "117.95250000",
    "wikiDataId": null
  },
  {
    "id": 149165,
    "name": "Dawangtai",
    "state_id": 2276,
    "state_code": "TJ",
    "country_id": 45,
    "country_code": "CN",
    "latitude": "39.27500000",
    "longitude": "117.48500000",
    "wikiDataId": null
  },
  {
    "id": 149166,
    "name": "Daxinzhuang",
    "state_id": 2276,
    "state_code": "TJ",
    "country_id": 45,
    "country_code": "CN",
    "latitude": "39.50361111",
    "longitude": "117.68611111",
    "wikiDataId": null
  },
  {
    "id": 149167,
    "name": "Dazhongzhuang",
    "state_id": 2276,
    "state_code": "TJ",
    "country_id": 45,
    "country_code": "CN",
    "latitude": "39.68083333",
    "longitude": "117.56416667",
    "wikiDataId": null
  },
  {
    "id": 149168,
    "name": "Dongditou",
    "state_id": 2276,
    "state_code": "TJ",
    "country_id": 45,
    "country_code": "CN",
    "latitude": "39.26638889",
    "longitude": "117.37277778",
    "wikiDataId": null
  },
  {
    "id": 149169,
    "name": "Dongshigu",
    "state_id": 2276,
    "state_code": "TJ",
    "country_id": 45,
    "country_code": "CN",
    "latitude": "39.87889000",
    "longitude": "117.33028000",
    "wikiDataId": null
  },
  {
    "id": 149170,
    "name": "Erwangzhuang",
    "state_id": 2276,
    "state_code": "TJ",
    "country_id": 45,
    "country_code": "CN",
    "latitude": "39.39166667",
    "longitude": "117.35388889",
    "wikiDataId": null
  },
  {
    "id": 149171,
    "name": "Fanzhuang",
    "state_id": 2276,
    "state_code": "TJ",
    "country_id": 45,
    "country_code": "CN",
    "latitude": "39.19361111",
    "longitude": "117.33500000",
    "wikiDataId": null
  },
  {
    "id": 149172,
    "name": "Fengtai (Ninghe)",
    "state_id": 2276,
    "state_code": "TJ",
    "country_id": 45,
    "country_code": "CN",
    "latitude": "39.55805556",
    "longitude": "117.74916667",
    "wikiDataId": null
  },
  {
    "id": 149173,
    "name": "Fuzhuang",
    "state_id": 2276,
    "state_code": "TJ",
    "country_id": 45,
    "country_code": "CN",
    "latitude": "39.26611111",
    "longitude": "117.93444444",
    "wikiDataId": null
  },
  {
    "id": 149174,
    "name": "Gaojingzhuang",
    "state_id": 2276,
    "state_code": "TJ",
    "country_id": 45,
    "country_code": "CN",
    "latitude": "39.41611111",
    "longitude": "117.63000000",
    "wikiDataId": null
  },
  {
    "id": 149175,
    "name": "Hanjiashu",
    "state_id": 2276,
    "state_code": "TJ",
    "country_id": 45,
    "country_code": "CN",
    "latitude": "39.18750000",
    "longitude": "117.07305556",
    "wikiDataId": null
  },
  {
    "id": 149176,
    "name": "Hebeitun",
    "state_id": 2276,
    "state_code": "TJ",
    "country_id": 45,
    "country_code": "CN",
    "latitude": "39.57472222",
    "longitude": "117.11333333",
    "wikiDataId": null
  },
  {
    "id": 149177,
    "name": "Hexiwu",
    "state_id": 2276,
    "state_code": "TJ",
    "country_id": 45,
    "country_code": "CN",
    "latitude": "39.62249000",
    "longitude": "116.95398000",
    "wikiDataId": null
  },
  {
    "id": 149178,
    "name": "Huangcaotuo",
    "state_id": 2276,
    "state_code": "TJ",
    "country_id": 45,
    "country_code": "CN",
    "latitude": "39.17944444",
    "longitude": "117.32166667",
    "wikiDataId": null
  },
  {
    "id": 149179,
    "name": "Huantuo",
    "state_id": 2276,
    "state_code": "TJ",
    "country_id": 45,
    "country_code": "CN",
    "latitude": "39.22638889",
    "longitude": "117.32388889",
    "wikiDataId": null
  },
  {
    "id": 149180,
    "name": "Huogezhuang",
    "state_id": 2276,
    "state_code": "TJ",
    "country_id": 45,
    "country_code": "CN",
    "latitude": "39.74388889",
    "longitude": "117.36750000",
    "wikiDataId": null
  },
  {
    "id": 149181,
    "name": "Jiangwakou",
    "state_id": 2276,
    "state_code": "TJ",
    "country_id": 45,
    "country_code": "CN",
    "latitude": "39.52250000",
    "longitude": "117.70250000",
    "wikiDataId": null
  },
  {
    "id": 149183,
    "name": "Lianzhuang",
    "state_id": 2276,
    "state_code": "TJ",
    "country_id": 45,
    "country_code": "CN",
    "latitude": "39.41000000",
    "longitude": "117.75638889",
    "wikiDataId": null
  },
  {
    "id": 149184,
    "name": "Lintingkou",
    "state_id": 2276,
    "state_code": "TJ",
    "country_id": 45,
    "country_code": "CN",
    "latitude": "39.63027778",
    "longitude": "117.50027778",
    "wikiDataId": null
  },
  {
    "id": 149185,
    "name": "Liujiading",
    "state_id": 2276,
    "state_code": "TJ",
    "country_id": 45,
    "country_code": "CN",
    "latitude": "39.96305556",
    "longitude": "117.19111111",
    "wikiDataId": null
  },
  {
    "id": 149186,
    "name": "Liukuaizhuang",
    "state_id": 2276,
    "state_code": "TJ",
    "country_id": 45,
    "country_code": "CN",
    "latitude": "39.24777778",
    "longitude": "117.33944444",
    "wikiDataId": null
  },
  {
    "id": 149187,
    "name": "Liuzikou",
    "state_id": 2276,
    "state_code": "TJ",
    "country_id": 45,
    "country_code": "CN",
    "latitude": "39.87027778",
    "longitude": "117.34666667",
    "wikiDataId": null
  },
  {
    "id": 149188,
    "name": "Luotuofangzi",
    "state_id": 2276,
    "state_code": "TJ",
    "country_id": 45,
    "country_code": "CN",
    "latitude": "39.08361111",
    "longitude": "117.37694444",
    "wikiDataId": null
  },
  {
    "id": 149189,
    "name": "Meichang",
    "state_id": 2276,
    "state_code": "TJ",
    "country_id": 45,
    "country_code": "CN",
    "latitude": "39.36611111",
    "longitude": "117.18055556",
    "wikiDataId": null
  },
  {
    "id": 149190,
    "name": "Mengquan",
    "state_id": 2276,
    "state_code": "TJ",
    "country_id": 45,
    "country_code": "CN",
    "latitude": "39.82527778",
    "longitude": "117.47666667",
    "wikiDataId": null
  },
  {
    "id": 149191,
    "name": "Panzhuang",
    "state_id": 2276,
    "state_code": "TJ",
    "country_id": 45,
    "country_code": "CN",
    "latitude": "39.33943000",
    "longitude": "117.46820000",
    "wikiDataId": null
  },
  {
    "id": 149192,
    "name": "Qingguang",
    "state_id": 2276,
    "state_code": "TJ",
    "country_id": 45,
    "country_code": "CN",
    "latitude": "39.19668000",
    "longitude": "117.05475000",
    "wikiDataId": null
  },
  {
    "id": 149193,
    "name": "Sangzi",
    "state_id": 2276,
    "state_code": "TJ",
    "country_id": 45,
    "country_code": "CN",
    "latitude": "39.90853000",
    "longitude": "117.16535000",
    "wikiDataId": null
  },
  {
    "id": 149194,
    "name": "Shangcang",
    "state_id": 2276,
    "state_code": "TJ",
    "country_id": 45,
    "country_code": "CN",
    "latitude": "39.90518000",
    "longitude": "117.39553000",
    "wikiDataId": null
  },
  {
    "id": 149195,
    "name": "Shimianzhuang",
    "state_id": 2276,
    "state_code": "TJ",
    "country_id": 45,
    "country_code": "CN",
    "latitude": "39.41800000",
    "longitude": "117.15690000",
    "wikiDataId": null
  },
  {
    "id": 149196,
    "name": "Shuangjiang",
    "state_id": 2276,
    "state_code": "TJ",
    "country_id": 45,
    "country_code": "CN",
    "latitude": "39.04190000",
    "longitude": "117.31235000",
    "wikiDataId": null
  },
  {
    "id": 149197,
    "name": "Sigaozhuang",
    "state_id": 2276,
    "state_code": "TJ",
    "country_id": 45,
    "country_code": "CN",
    "latitude": "39.46713000",
    "longitude": "117.25554000",
    "wikiDataId": null
  },
  {
    "id": 149198,
    "name": "Tianjin",
    "state_id": 2276,
    "state_code": "TJ",
    "country_id": 45,
    "country_code": "CN",
    "latitude": "39.14666667",
    "longitude": "117.20555556",
    "wikiDataId": null
  },
  {
    "id": 149199,
    "name": "Touying",
    "state_id": 2276,
    "state_code": "TJ",
    "country_id": 45,
    "country_code": "CN",
    "latitude": "39.96389000",
    "longitude": "117.21833000",
    "wikiDataId": null
  },
  {
    "id": 149200,
    "name": "Wangqinzhuang",
    "state_id": 2276,
    "state_code": "TJ",
    "country_id": 45,
    "country_code": "CN",
    "latitude": "39.22942000",
    "longitude": "117.08968000",
    "wikiDataId": null
  },
  {
    "id": 149201,
    "name": "Weiwangzhuang",
    "state_id": 2276,
    "state_code": "TJ",
    "country_id": 45,
    "country_code": "CN",
    "latitude": "39.02500000",
    "longitude": "117.44083000",
    "wikiDataId": null
  },
  {
    "id": 149202,
    "name": "Xiawuqi",
    "state_id": 2276,
    "state_code": "TJ",
    "country_id": 45,
    "country_code": "CN",
    "latitude": "39.61551000",
    "longitude": "117.05523000",
    "wikiDataId": null
  },
  {
    "id": 149203,
    "name": "Xiditou",
    "state_id": 2276,
    "state_code": "TJ",
    "country_id": 45,
    "country_code": "CN",
    "latitude": "39.25320000",
    "longitude": "117.34709000",
    "wikiDataId": null
  },
  {
    "id": 149204,
    "name": "Xinkaikou",
    "state_id": 2276,
    "state_code": "TJ",
    "country_id": 45,
    "country_code": "CN",
    "latitude": "39.67996000",
    "longitude": "117.18877000",
    "wikiDataId": null
  },
  {
    "id": 149205,
    "name": "Xitazhuang",
    "state_id": 2276,
    "state_code": "TJ",
    "country_id": 45,
    "country_code": "CN",
    "latitude": "39.93306000",
    "longitude": "117.21083000",
    "wikiDataId": null
  },
  {
    "id": 149206,
    "name": "Yangjinzhuang",
    "state_id": 2276,
    "state_code": "TJ",
    "country_id": 45,
    "country_code": "CN",
    "latitude": "39.86645000",
    "longitude": "117.42592000",
    "wikiDataId": null
  },
  {
    "id": 149207,
    "name": "Yangliuqing",
    "state_id": 2276,
    "state_code": "TJ",
    "country_id": 45,
    "country_code": "CN",
    "latitude": "39.12740000",
    "longitude": "117.00885000",
    "wikiDataId": null
  },
  {
    "id": 149208,
    "name": "Yinliu",
    "state_id": 2276,
    "state_code": "TJ",
    "country_id": 45,
    "country_code": "CN",
    "latitude": "39.98349000",
    "longitude": "117.39904000",
    "wikiDataId": null
  },
  {
    "id": 149209,
    "name": "Yixingfu",
    "state_id": 2276,
    "state_code": "TJ",
    "country_id": 45,
    "country_code": "CN",
    "latitude": "39.19917000",
    "longitude": "117.21139000",
    "wikiDataId": null
  },
  {
    "id": 149210,
    "name": "Youguzhuang",
    "state_id": 2276,
    "state_code": "TJ",
    "country_id": 45,
    "country_code": "CN",
    "latitude": "39.90802000",
    "longitude": "117.24576000",
    "wikiDataId": null
  },
  {
    "id": 149211,
    "name": "Yuelongzhuang",
    "state_id": 2276,
    "state_code": "TJ",
    "country_id": 45,
    "country_code": "CN",
    "latitude": "39.56833000",
    "longitude": "117.85417000",
    "wikiDataId": null
  },
  {
    "id": 149212,
    "name": "Yuguzhuang",
    "state_id": 2276,
    "state_code": "TJ",
    "country_id": 45,
    "country_code": "CN",
    "latitude": "39.64290000",
    "longitude": "117.36470000",
    "wikiDataId": null
  },
  {
    "id": 149213,
    "name": "Zaojiacheng",
    "state_id": 2276,
    "state_code": "TJ",
    "country_id": 45,
    "country_code": "CN",
    "latitude": "39.28174000",
    "longitude": "117.42516000",
    "wikiDataId": null
  },
  {
    "id": 149182,
    "name": "Zhangjiawo",
    "state_id": 2276,
    "state_code": "TJ",
    "country_id": 45,
    "country_code": "CN",
    "latitude": "39.05675000",
    "longitude": "117.03624000",
    "wikiDataId": null
  },
  {
    "id": 149214,
    "name": "Zhaoguli",
    "state_id": 2276,
    "state_code": "TJ",
    "country_id": 45,
    "country_code": "CN",
    "latitude": "39.16673000",
    "longitude": "117.24191000",
    "wikiDataId": null
  }
]