[
  {
    "id": 151151,
    "name": "Agolada",
    "state_id": 1167,
    "state_code": "PO",
    "country_id": 207,
    "country_code": "ES",
    "latitude": "42.76170210",
    "longitude": "-8.02061040",
    "wikiDataId": null
  },
  {
    "id": 32425,
    "name": "Arbo",
    "state_id": 1167,
    "state_code": "PO",
    "country_id": 207,
    "country_code": "ES",
    "latitude": "42.11667000",
    "longitude": "-8.31667000",
    "wikiDataId": null
  },
  {
    "id": 32616,
    "name": "Baiona",
    "state_id": 1167,
    "state_code": "PO",
    "country_id": 207,
    "country_code": "ES",
    "latitude": "42.11667000",
    "longitude": "-8.85000000",
    "wikiDataId": null
  },
  {
    "id": 151142,
    "name": "Barro",
    "state_id": 1167,
    "state_code": "PO",
    "country_id": 207,
    "country_code": "ES",
    "latitude": "42.55414510",
    "longitude": "-8.62209590",
    "wikiDataId": null
  },
  {
    "id": 33007,
    "name": "Bueu",
    "state_id": 1167,
    "state_code": "PO",
    "country_id": 207,
    "country_code": "ES",
    "latitude": "42.32458000",
    "longitude": "-8.78497000",
    "wikiDataId": null
  },
  {
    "id": 33137,
    "name": "Caldas de Reis",
    "state_id": 1167,
    "state_code": "PO",
    "country_id": 207,
    "country_code": "ES",
    "latitude": "42.60473000",
    "longitude": "-8.64230000",
    "wikiDataId": null
  },
  {
    "id": 33174,
    "name": "Cambados",
    "state_id": 1167,
    "state_code": "PO",
    "country_id": 207,
    "country_code": "ES",
    "latitude": "42.51222000",
    "longitude": "-8.81310000",
    "wikiDataId": null
  },
  {
    "id": 151143,
    "name": "Campo Lameiro",
    "state_id": 1167,
    "state_code": "PO",
    "country_id": 207,
    "country_code": "ES",
    "latitude": "42.53997850",
    "longitude": "-8.54400750",
    "wikiDataId": null
  },
  {
    "id": 151144,
    "name": "Cangas",
    "state_id": 1167,
    "state_code": "PO",
    "country_id": 207,
    "country_code": "ES",
    "latitude": "42.26458450",
    "longitude": "-8.78092820",
    "wikiDataId": null
  },
  {
    "id": 151145,
    "name": "Cañiza A",
    "state_id": 1167,
    "state_code": "PO",
    "country_id": 207,
    "country_code": "ES",
    "latitude": "42.21288610",
    "longitude": "-8.27297800",
    "wikiDataId": null
  },
  {
    "id": 33515,
    "name": "Catoira",
    "state_id": 1167,
    "state_code": "PO",
    "country_id": 207,
    "country_code": "ES",
    "latitude": "42.66748000",
    "longitude": "-8.72323000",
    "wikiDataId": null
  },
  {
    "id": 151146,
    "name": "Cerdedo",
    "state_id": 1167,
    "state_code": "PO",
    "country_id": 207,
    "country_code": "ES",
    "latitude": "42.53219380",
    "longitude": "-8.38949650",
    "wikiDataId": null
  },
  {
    "id": 151147,
    "name": "Cotobade",
    "state_id": 1167,
    "state_code": "PO",
    "country_id": 207,
    "country_code": "ES",
    "latitude": "42.21893000",
    "longitude": "-8.49312620",
    "wikiDataId": null
  },
  {
    "id": 33828,
    "name": "Covelo",
    "state_id": 1167,
    "state_code": "PO",
    "country_id": 207,
    "country_code": "ES",
    "latitude": "42.23333000",
    "longitude": "-8.35000000",
    "wikiDataId": null
  },
  {
    "id": 151148,
    "name": "Crecente",
    "state_id": 1167,
    "state_code": "PO",
    "country_id": 207,
    "country_code": "ES",
    "latitude": "42.15034970",
    "longitude": "-8.22369040",
    "wikiDataId": null
  },
  {
    "id": 33885,
    "name": "Cuntis",
    "state_id": 1167,
    "state_code": "PO",
    "country_id": 207,
    "country_code": "ES",
    "latitude": "42.63396000",
    "longitude": "-8.56256000",
    "wikiDataId": null
  },
  {
    "id": 33953,
    "name": "Dozón",
    "state_id": 1167,
    "state_code": "PO",
    "country_id": 207,
    "country_code": "ES",
    "latitude": "42.58333000",
    "longitude": "-8.01667000",
    "wikiDataId": null
  },
  {
    "id": 151149,
    "name": "Estrada A",
    "state_id": 1167,
    "state_code": "PO",
    "country_id": 207,
    "country_code": "ES",
    "latitude": "42.68987120",
    "longitude": "-8.49096670",
    "wikiDataId": null
  },
  {
    "id": 151150,
    "name": "Forcarei",
    "state_id": 1167,
    "state_code": "PO",
    "country_id": 207,
    "country_code": "ES",
    "latitude": "42.58791090",
    "longitude": "-8.35197130",
    "wikiDataId": null
  },
  {
    "id": 34226,
    "name": "Fornelos de Montes",
    "state_id": 1167,
    "state_code": "PO",
    "country_id": 207,
    "country_code": "ES",
    "latitude": "42.34126000",
    "longitude": "-8.45291000",
    "wikiDataId": null
  },
  {
    "id": 34483,
    "name": "Gondomar",
    "state_id": 1167,
    "state_code": "PO",
    "country_id": 207,
    "country_code": "ES",
    "latitude": "42.11155000",
    "longitude": "-8.74971000",
    "wikiDataId": null
  },
  {
    "id": 151152,
    "name": "Grove O",
    "state_id": 1167,
    "state_code": "PO",
    "country_id": 207,
    "country_code": "ES",
    "latitude": "42.49599620",
    "longitude": "-8.86514180",
    "wikiDataId": null
  },
  {
    "id": 151153,
    "name": "Guarda A",
    "state_id": 1167,
    "state_code": "PO",
    "country_id": 207,
    "country_code": "ES",
    "latitude": "42.62084010",
    "longitude": "-8.57210160",
    "wikiDataId": null
  },
  {
    "id": 151166,
    "name": "Illa de Arousa A",
    "state_id": 1167,
    "state_code": "PO",
    "country_id": 207,
    "country_code": "ES",
    "latitude": "42.56179750",
    "longitude": "-8.86815270",
    "wikiDataId": null
  },
  {
    "id": 34956,
    "name": "Lalín",
    "state_id": 1167,
    "state_code": "PO",
    "country_id": 207,
    "country_code": "ES",
    "latitude": "42.66085000",
    "longitude": "-8.11285000",
    "wikiDataId": null
  },
  {
    "id": 151154,
    "name": "Lama A",
    "state_id": 1167,
    "state_code": "PO",
    "country_id": 207,
    "country_code": "ES",
    "latitude": "42.42114980",
    "longitude": "-8.37457170",
    "wikiDataId": null
  },
  {
    "id": 35314,
    "name": "Marín",
    "state_id": 1167,
    "state_code": "PO",
    "country_id": 207,
    "country_code": "ES",
    "latitude": "42.39145000",
    "longitude": "-8.70136000",
    "wikiDataId": null
  },
  {
    "id": 35364,
    "name": "Meaño",
    "state_id": 1167,
    "state_code": "PO",
    "country_id": 207,
    "country_code": "ES",
    "latitude": "42.44661000",
    "longitude": "-8.78122000",
    "wikiDataId": null
  },
  {
    "id": 35382,
    "name": "Meis",
    "state_id": 1167,
    "state_code": "PO",
    "country_id": 207,
    "country_code": "ES",
    "latitude": "42.50000000",
    "longitude": "-8.75000000",
    "wikiDataId": null
  },
  {
    "id": 35459,
    "name": "Moaña",
    "state_id": 1167,
    "state_code": "PO",
    "country_id": 207,
    "country_code": "ES",
    "latitude": "42.27807000",
    "longitude": "-8.73921000",
    "wikiDataId": null
  },
  {
    "id": 35504,
    "name": "Mondariz",
    "state_id": 1167,
    "state_code": "PO",
    "country_id": 207,
    "country_code": "ES",
    "latitude": "42.23110000",
    "longitude": "-8.45839000",
    "wikiDataId": null
  },
  {
    "id": 35505,
    "name": "Mondariz-Balneario",
    "state_id": 1167,
    "state_code": "PO",
    "country_id": 207,
    "country_code": "ES",
    "latitude": "42.22686000",
    "longitude": "-8.46728000",
    "wikiDataId": null
  },
  {
    "id": 35621,
    "name": "Moraña",
    "state_id": 1167,
    "state_code": "PO",
    "country_id": 207,
    "country_code": "ES",
    "latitude": "42.55000000",
    "longitude": "-8.58333000",
    "wikiDataId": null
  },
  {
    "id": 35637,
    "name": "Mos",
    "state_id": 1167,
    "state_code": "PO",
    "country_id": 207,
    "country_code": "ES",
    "latitude": "43.15667000",
    "longitude": "-7.55047000",
    "wikiDataId": null
  },
  {
    "id": 151155,
    "name": "Neves As",
    "state_id": 1167,
    "state_code": "PO",
    "country_id": 207,
    "country_code": "ES",
    "latitude": "42.11520440",
    "longitude": "-8.40745730",
    "wikiDataId": null
  },
  {
    "id": 35808,
    "name": "Nigrán",
    "state_id": 1167,
    "state_code": "PO",
    "country_id": 207,
    "country_code": "ES",
    "latitude": "42.14153000",
    "longitude": "-8.80656000",
    "wikiDataId": null
  },
  {
    "id": 35848,
    "name": "O Grove",
    "state_id": 1167,
    "state_code": "PO",
    "country_id": 207,
    "country_code": "ES",
    "latitude": "42.49444000",
    "longitude": "-8.86502000",
    "wikiDataId": null
  },
  {
    "id": 35851,
    "name": "O Rosal",
    "state_id": 1167,
    "state_code": "PO",
    "country_id": 207,
    "country_code": "ES",
    "latitude": "41.93536000",
    "longitude": "-8.83677000",
    "wikiDataId": null
  },
  {
    "id": 35864,
    "name": "Oia",
    "state_id": 1167,
    "state_code": "PO",
    "country_id": 207,
    "country_code": "ES",
    "latitude": "42.00000000",
    "longitude": "-8.86667000",
    "wikiDataId": null
  },
  {
    "id": 151156,
    "name": "Pazos de Borbén",
    "state_id": 1167,
    "state_code": "PO",
    "country_id": 207,
    "country_code": "ES",
    "latitude": "42.28189410",
    "longitude": "-8.53914400",
    "wikiDataId": null
  },
  {
    "id": 36256,
    "name": "Poio",
    "state_id": 1167,
    "state_code": "PO",
    "country_id": 207,
    "country_code": "ES",
    "latitude": "42.44775000",
    "longitude": "-8.68594000",
    "wikiDataId": null
  },
  {
    "id": 151158,
    "name": "Ponte Caldelas",
    "state_id": 1167,
    "state_code": "PO",
    "country_id": 207,
    "country_code": "ES",
    "latitude": "42.39031790",
    "longitude": "-8.50277000",
    "wikiDataId": null
  },
  {
    "id": 36272,
    "name": "Ponteareas",
    "state_id": 1167,
    "state_code": "PO",
    "country_id": 207,
    "country_code": "ES",
    "latitude": "42.17476000",
    "longitude": "-8.50398000",
    "wikiDataId": null
  },
  {
    "id": 151159,
    "name": "Pontecesures",
    "state_id": 1167,
    "state_code": "PO",
    "country_id": 207,
    "country_code": "ES",
    "latitude": "42.71784840",
    "longitude": "-8.65170720",
    "wikiDataId": null
  },
  {
    "id": 36273,
    "name": "Pontevedra",
    "state_id": 1167,
    "state_code": "PO",
    "country_id": 207,
    "country_code": "ES",
    "latitude": "42.43100000",
    "longitude": "-8.64435000",
    "wikiDataId": null
  },
  {
    "id": 151157,
    "name": "Porriño O",
    "state_id": 1167,
    "state_code": "PO",
    "country_id": 207,
    "country_code": "ES",
    "latitude": "42.16116100",
    "longitude": "-8.61923160",
    "wikiDataId": null
  },
  {
    "id": 36286,
    "name": "Portas",
    "state_id": 1167,
    "state_code": "PO",
    "country_id": 207,
    "country_code": "ES",
    "latitude": "42.58531000",
    "longitude": "-8.65573000",
    "wikiDataId": null
  },
  {
    "id": 36561,
    "name": "Redondela",
    "state_id": 1167,
    "state_code": "PO",
    "country_id": 207,
    "country_code": "ES",
    "latitude": "42.28337000",
    "longitude": "-8.60960000",
    "wikiDataId": null
  },
  {
    "id": 36609,
    "name": "Ribadumia",
    "state_id": 1167,
    "state_code": "PO",
    "country_id": 207,
    "country_code": "ES",
    "latitude": "42.51667000",
    "longitude": "-8.75000000",
    "wikiDataId": null
  },
  {
    "id": 36663,
    "name": "Rodeiro",
    "state_id": 1167,
    "state_code": "PO",
    "country_id": 207,
    "country_code": "ES",
    "latitude": "42.65193000",
    "longitude": "-7.95519000",
    "wikiDataId": null
  },
  {
    "id": 151160,
    "name": "Rosal O",
    "state_id": 1167,
    "state_code": "PO",
    "country_id": 207,
    "country_code": "ES",
    "latitude": "41.93724620",
    "longitude": "-8.83637300",
    "wikiDataId": null
  },
  {
    "id": 151161,
    "name": "Salceda de Caselas",
    "state_id": 1167,
    "state_code": "PO",
    "country_id": 207,
    "country_code": "ES",
    "latitude": "42.09993330",
    "longitude": "-8.56005200",
    "wikiDataId": null
  },
  {
    "id": 151162,
    "name": "Salvaterra de Miño",
    "state_id": 1167,
    "state_code": "PO",
    "country_id": 207,
    "country_code": "ES",
    "latitude": "42.08338360",
    "longitude": "-8.50027770",
    "wikiDataId": null
  },
  {
    "id": 37157,
    "name": "Sanxenxo",
    "state_id": 1167,
    "state_code": "PO",
    "country_id": 207,
    "country_code": "ES",
    "latitude": "42.39996000",
    "longitude": "-8.80698000",
    "wikiDataId": null
  },
  {
    "id": 37256,
    "name": "Silleda",
    "state_id": 1167,
    "state_code": "PO",
    "country_id": 207,
    "country_code": "ES",
    "latitude": "42.69605000",
    "longitude": "-8.24653000",
    "wikiDataId": null
  },
  {
    "id": 151163,
    "name": "Soutomaior",
    "state_id": 1167,
    "state_code": "PO",
    "country_id": 207,
    "country_code": "ES",
    "latitude": "42.33363590",
    "longitude": "-8.56660770",
    "wikiDataId": null
  },
  {
    "id": 37451,
    "name": "Tomiño",
    "state_id": 1167,
    "state_code": "PO",
    "country_id": 207,
    "country_code": "ES",
    "latitude": "41.98772000",
    "longitude": "-8.75502000",
    "wikiDataId": null
  },
  {
    "id": 37651,
    "name": "Tui",
    "state_id": 1167,
    "state_code": "PO",
    "country_id": 207,
    "country_code": "ES",
    "latitude": "42.04713000",
    "longitude": "-8.64435000",
    "wikiDataId": null
  },
  {
    "id": 37828,
    "name": "Valga",
    "state_id": 1167,
    "state_code": "PO",
    "country_id": 207,
    "country_code": "ES",
    "latitude": "42.69792000",
    "longitude": "-8.63959000",
    "wikiDataId": null
  },
  {
    "id": 37970,
    "name": "Vigo",
    "state_id": 1167,
    "state_code": "PO",
    "country_id": 207,
    "country_code": "ES",
    "latitude": "42.23282000",
    "longitude": "-8.72264000",
    "wikiDataId": null
  },
  {
    "id": 151165,
    "name": "Vila de Cruces",
    "state_id": 1167,
    "state_code": "PO",
    "country_id": 207,
    "country_code": "ES",
    "latitude": "42.79368830",
    "longitude": "-8.16939910",
    "wikiDataId": null
  },
  {
    "id": 151164,
    "name": "Vilaboa",
    "state_id": 1167,
    "state_code": "PO",
    "country_id": 207,
    "country_code": "ES",
    "latitude": "42.34893690",
    "longitude": "-8.64374970",
    "wikiDataId": null
  },
  {
    "id": 37985,
    "name": "Vilagarcía de Arousa",
    "state_id": 1167,
    "state_code": "PO",
    "country_id": 207,
    "country_code": "ES",
    "latitude": "42.59631000",
    "longitude": "-8.76426000",
    "wikiDataId": null
  },
  {
    "id": 37994,
    "name": "Vilanova de Arousa",
    "state_id": 1167,
    "state_code": "PO",
    "country_id": 207,
    "country_code": "ES",
    "latitude": "42.56400000",
    "longitude": "-8.82797000",
    "wikiDataId": null
  },
  {
    "id": 38005,
    "name": "Vilaxoán",
    "state_id": 1167,
    "state_code": "PO",
    "country_id": 207,
    "country_code": "ES",
    "latitude": "42.58353000",
    "longitude": "-8.79353000",
    "wikiDataId": null
  }
]