[
  {
    "id": 90003,
    "name": "Atid",
    "state_id": 4749,
    "state_code": "HR",
    "country_id": 181,
    "country_code": "RO",
    "latitude": "46.45000000",
    "longitude": "25.05000000",
    "wikiDataId": null
  },
  {
    "id": 90010,
    "name": "Avrămeşti",
    "state_id": 4749,
    "state_code": "HR",
    "country_id": 181,
    "country_code": "RO",
    "latitude": "46.33333000",
    "longitude": "25.01667000",
    "wikiDataId": null
  },
  {
    "id": 90493,
    "name": "Băile Tuşnad",
    "state_id": 4749,
    "state_code": "HR",
    "country_id": 181,
    "country_code": "RO",
    "latitude": "46.15000000",
    "longitude": "25.85000000",
    "wikiDataId": null
  },
  {
    "id": 90503,
    "name": "Bălan",
    "state_id": 4749,
    "state_code": "HR",
    "country_id": 181,
    "country_code": "RO",
    "latitude": "46.65050000",
    "longitude": "25.80834000",
    "wikiDataId": null
  },
  {
    "id": 90054,
    "name": "Bancu",
    "state_id": 4749,
    "state_code": "HR",
    "country_id": 181,
    "country_code": "RO",
    "latitude": "46.30291000",
    "longitude": "25.94422000",
    "wikiDataId": null
  },
  {
    "id": 90134,
    "name": "Bilbor",
    "state_id": 4749,
    "state_code": "HR",
    "country_id": 181,
    "country_code": "RO",
    "latitude": "47.05000000",
    "longitude": "25.51667000",
    "wikiDataId": null
  },
  {
    "id": 90234,
    "name": "Borsec",
    "state_id": 4749,
    "state_code": "HR",
    "country_id": 181,
    "country_code": "RO",
    "latitude": "46.95000000",
    "longitude": "25.56667000",
    "wikiDataId": null
  },
  {
    "id": 90323,
    "name": "Brădeşti",
    "state_id": 4749,
    "state_code": "HR",
    "country_id": 181,
    "country_code": "RO",
    "latitude": "46.35000000",
    "longitude": "25.35000000",
    "wikiDataId": null
  },
  {
    "id": 93863,
    "name": "Căpâlniţa",
    "state_id": 4749,
    "state_code": "HR",
    "country_id": 181,
    "country_code": "RO",
    "latitude": "46.36667000",
    "longitude": "25.51667000",
    "wikiDataId": null
  },
  {
    "id": 93820,
    "name": "Cârţa",
    "state_id": 4749,
    "state_code": "HR",
    "country_id": 181,
    "country_code": "RO",
    "latitude": "46.53333000",
    "longitude": "25.75000000",
    "wikiDataId": null
  },
  {
    "id": 90694,
    "name": "Ciceu",
    "state_id": 4749,
    "state_code": "HR",
    "country_id": 181,
    "country_code": "RO",
    "latitude": "46.41328000",
    "longitude": "25.78204000",
    "wikiDataId": null
  },
  {
    "id": 90739,
    "name": "Ciucani",
    "state_id": 4749,
    "state_code": "HR",
    "country_id": 181,
    "country_code": "RO",
    "latitude": "46.25701000",
    "longitude": "25.94744000",
    "wikiDataId": null
  },
  {
    "id": 90742,
    "name": "Ciucsângeorgiu",
    "state_id": 4749,
    "state_code": "HR",
    "country_id": 181,
    "country_code": "RO",
    "latitude": "46.31667000",
    "longitude": "25.95000000",
    "wikiDataId": null
  },
  {
    "id": 90749,
    "name": "Ciumani",
    "state_id": 4749,
    "state_code": "HR",
    "country_id": 181,
    "country_code": "RO",
    "latitude": "46.68333000",
    "longitude": "25.51667000",
    "wikiDataId": null
  },
  {
    "id": 90901,
    "name": "Comuna Atid",
    "state_id": 4749,
    "state_code": "HR",
    "country_id": 181,
    "country_code": "RO",
    "latitude": "46.45844000",
    "longitude": "25.04357000",
    "wikiDataId": null
  },
  {
    "id": 90907,
    "name": "Comuna Avrămeşti",
    "state_id": 4749,
    "state_code": "HR",
    "country_id": 181,
    "country_code": "RO",
    "latitude": "46.36400000",
    "longitude": "25.03223000",
    "wikiDataId": null
  },
  {
    "id": 90987,
    "name": "Comuna Bilbor",
    "state_id": 4749,
    "state_code": "HR",
    "country_id": 181,
    "country_code": "RO",
    "latitude": "47.05615000",
    "longitude": "25.49989000",
    "wikiDataId": null
  },
  {
    "id": 91113,
    "name": "Comuna Brădeşti",
    "state_id": 4749,
    "state_code": "HR",
    "country_id": 181,
    "country_code": "RO",
    "latitude": "46.35788000",
    "longitude": "25.35195000",
    "wikiDataId": null
  },
  {
    "id": 91585,
    "name": "Comuna Căpâlniţa",
    "state_id": 4749,
    "state_code": "HR",
    "country_id": 181,
    "country_code": "RO",
    "latitude": "46.36047000",
    "longitude": "25.51515000",
    "wikiDataId": null
  },
  {
    "id": 91555,
    "name": "Comuna Cârţa",
    "state_id": 4749,
    "state_code": "HR",
    "country_id": 181,
    "country_code": "RO",
    "latitude": "46.54068000",
    "longitude": "25.76275000",
    "wikiDataId": null
  },
  {
    "id": 91330,
    "name": "Comuna Ciceu",
    "state_id": 4749,
    "state_code": "HR",
    "country_id": 181,
    "country_code": "RO",
    "latitude": "46.41271000",
    "longitude": "25.76585000",
    "wikiDataId": null
  },
  {
    "id": 91364,
    "name": "Comuna Ciucsângeorgiu",
    "state_id": 4749,
    "state_code": "HR",
    "country_id": 181,
    "country_code": "RO",
    "latitude": "46.33942000",
    "longitude": "25.99860000",
    "wikiDataId": null
  },
  {
    "id": 91369,
    "name": "Comuna Ciumani",
    "state_id": 4749,
    "state_code": "HR",
    "country_id": 181,
    "country_code": "RO",
    "latitude": "46.67821000",
    "longitude": "25.51825000",
    "wikiDataId": null
  },
  {
    "id": 91430,
    "name": "Comuna Corbu",
    "state_id": 4749,
    "state_code": "HR",
    "country_id": 181,
    "country_code": "RO",
    "latitude": "46.99559000",
    "longitude": "25.65696000",
    "wikiDataId": null
  },
  {
    "id": 91448,
    "name": "Comuna Corund",
    "state_id": 4749,
    "state_code": "HR",
    "country_id": 181,
    "country_code": "RO",
    "latitude": "46.48060000",
    "longitude": "25.20070000",
    "wikiDataId": null
  },
  {
    "id": 91469,
    "name": "Comuna Cozmeni",
    "state_id": 4749,
    "state_code": "HR",
    "country_id": 181,
    "country_code": "RO",
    "latitude": "46.20934000",
    "longitude": "25.94274000",
    "wikiDataId": null
  },
  {
    "id": 91740,
    "name": "Comuna Dăneşti",
    "state_id": 4749,
    "state_code": "HR",
    "country_id": 181,
    "country_code": "RO",
    "latitude": "46.51712000",
    "longitude": "25.74989000",
    "wikiDataId": null
  },
  {
    "id": 91728,
    "name": "Comuna Dârjiu",
    "state_id": 4749,
    "state_code": "HR",
    "country_id": 181,
    "country_code": "RO",
    "latitude": "46.20378000",
    "longitude": "25.17462000",
    "wikiDataId": null
  },
  {
    "id": 91607,
    "name": "Comuna Dealu",
    "state_id": 4749,
    "state_code": "HR",
    "country_id": 181,
    "country_code": "RO",
    "latitude": "46.37070000",
    "longitude": "25.30599000",
    "wikiDataId": null
  },
  {
    "id": 91630,
    "name": "Comuna Ditrău",
    "state_id": 4749,
    "state_code": "HR",
    "country_id": 181,
    "country_code": "RO",
    "latitude": "46.84564000",
    "longitude": "25.52740000",
    "wikiDataId": null
  },
  {
    "id": 91757,
    "name": "Comuna Feliceni",
    "state_id": 4749,
    "state_code": "HR",
    "country_id": 181,
    "country_code": "RO",
    "latitude": "46.27909000",
    "longitude": "25.27430000",
    "wikiDataId": null
  },
  {
    "id": 91784,
    "name": "Comuna Frumoasa",
    "state_id": 4749,
    "state_code": "HR",
    "country_id": 181,
    "country_code": "RO",
    "latitude": "46.44683000",
    "longitude": "25.86759000",
    "wikiDataId": null
  },
  {
    "id": 91983,
    "name": "Comuna Gălăuţaş",
    "state_id": 4749,
    "state_code": "HR",
    "country_id": 181,
    "country_code": "RO",
    "latitude": "46.90028000",
    "longitude": "25.39118000",
    "wikiDataId": null
  },
  {
    "id": 92130,
    "name": "Comuna Joseni",
    "state_id": 4749,
    "state_code": "HR",
    "country_id": 181,
    "country_code": "RO",
    "latitude": "46.69525000",
    "longitude": "25.46114000",
    "wikiDataId": null
  },
  {
    "id": 92225,
    "name": "Comuna Lăzarea",
    "state_id": 4749,
    "state_code": "HR",
    "country_id": 181,
    "country_code": "RO",
    "latitude": "46.76626000",
    "longitude": "25.53875000",
    "wikiDataId": null
  },
  {
    "id": 92148,
    "name": "Comuna Leliceni",
    "state_id": 4749,
    "state_code": "HR",
    "country_id": 181,
    "country_code": "RO",
    "latitude": "46.34900000",
    "longitude": "25.84911000",
    "wikiDataId": null
  },
  {
    "id": 92192,
    "name": "Comuna Lueta",
    "state_id": 4749,
    "state_code": "HR",
    "country_id": 181,
    "country_code": "RO",
    "latitude": "46.28724000",
    "longitude": "25.53719000",
    "wikiDataId": null
  },
  {
    "id": 92206,
    "name": "Comuna Lunca de Jos",
    "state_id": 4749,
    "state_code": "HR",
    "country_id": 181,
    "country_code": "RO",
    "latitude": "46.59868000",
    "longitude": "25.96582000",
    "wikiDataId": null
  },
  {
    "id": 92207,
    "name": "Comuna Lunca de Sus",
    "state_id": 4749,
    "state_code": "HR",
    "country_id": 181,
    "country_code": "RO",
    "latitude": "46.51853000",
    "longitude": "25.95575000",
    "wikiDataId": null
  },
  {
    "id": 92215,
    "name": "Comuna Lupeni",
    "state_id": 4749,
    "state_code": "HR",
    "country_id": 181,
    "country_code": "RO",
    "latitude": "46.39565000",
    "longitude": "25.21905000",
    "wikiDataId": null
  },
  {
    "id": 92414,
    "name": "Comuna Mărtiniş",
    "state_id": 4749,
    "state_code": "HR",
    "country_id": 181,
    "country_code": "RO",
    "latitude": "46.22996000",
    "longitude": "25.38756000",
    "wikiDataId": null
  },
  {
    "id": 92259,
    "name": "Comuna Mereşti",
    "state_id": 4749,
    "state_code": "HR",
    "country_id": 181,
    "country_code": "RO",
    "latitude": "46.23458000",
    "longitude": "25.46099000",
    "wikiDataId": null
  },
  {
    "id": 92282,
    "name": "Comuna Mihăileni",
    "state_id": 4749,
    "state_code": "HR",
    "country_id": 181,
    "country_code": "RO",
    "latitude": "46.48874000",
    "longitude": "25.83027000",
    "wikiDataId": null
  },
  {
    "id": 92355,
    "name": "Comuna Mugeni",
    "state_id": 4749,
    "state_code": "HR",
    "country_id": 181,
    "country_code": "RO",
    "latitude": "46.26544000",
    "longitude": "25.19498000",
    "wikiDataId": null
  },
  {
    "id": 92476,
    "name": "Comuna Ocland",
    "state_id": 4749,
    "state_code": "HR",
    "country_id": 181,
    "country_code": "RO",
    "latitude": "46.16242000",
    "longitude": "25.42557000",
    "wikiDataId": null
  },
  {
    "id": 92712,
    "name": "Comuna Pãuleni-Ciuc",
    "state_id": 4749,
    "state_code": "HR",
    "country_id": 181,
    "country_code": "RO",
    "latitude": "46.40073000",
    "longitude": "25.84076000",
    "wikiDataId": null
  },
  {
    "id": 92605,
    "name": "Comuna Plãieşii De Jos",
    "state_id": 4749,
    "state_code": "HR",
    "country_id": 181,
    "country_code": "RO",
    "latitude": "46.21626000",
    "longitude": "26.09436000",
    "wikiDataId": null
  },
  {
    "id": 92662,
    "name": "Comuna Porumbeni",
    "state_id": 4749,
    "state_code": "HR",
    "country_id": 181,
    "country_code": "RO",
    "latitude": "46.27415000",
    "longitude": "25.12006000",
    "wikiDataId": null
  },
  {
    "id": 92668,
    "name": "Comuna Praid",
    "state_id": 4749,
    "state_code": "HR",
    "country_id": 181,
    "country_code": "RO",
    "latitude": "46.54844000",
    "longitude": "25.14717000",
    "wikiDataId": null
  },
  {
    "id": 92740,
    "name": "Comuna Racu",
    "state_id": 4749,
    "state_code": "HR",
    "country_id": 181,
    "country_code": "RO",
    "latitude": "46.45397000",
    "longitude": "25.77098000",
    "wikiDataId": null
  },
  {
    "id": 92764,
    "name": "Comuna Remetea",
    "state_id": 4749,
    "state_code": "HR",
    "country_id": 181,
    "country_code": "RO",
    "latitude": "46.81908000",
    "longitude": "25.42286000",
    "wikiDataId": null
  },
  {
    "id": 93080,
    "name": "Comuna Săcel",
    "state_id": 4749,
    "state_code": "HR",
    "country_id": 181,
    "country_code": "RO",
    "latitude": "46.32872000",
    "longitude": "24.91795000",
    "wikiDataId": null
  },
  {
    "id": 93051,
    "name": "Comuna Sâncrăieni",
    "state_id": 4749,
    "state_code": "HR",
    "country_id": 181,
    "country_code": "RO",
    "latitude": "46.30575000",
    "longitude": "25.84590000",
    "wikiDataId": null
  },
  {
    "id": 93052,
    "name": "Comuna Sândominic",
    "state_id": 4749,
    "state_code": "HR",
    "country_id": 181,
    "country_code": "RO",
    "latitude": "46.57933000",
    "longitude": "25.79305000",
    "wikiDataId": null
  },
  {
    "id": 93055,
    "name": "Comuna Sânmartin",
    "state_id": 4749,
    "state_code": "HR",
    "country_id": 181,
    "country_code": "RO",
    "latitude": "46.26368000",
    "longitude": "25.95348000",
    "wikiDataId": null
  },
  {
    "id": 93065,
    "name": "Comuna Sânsimion",
    "state_id": 4749,
    "state_code": "HR",
    "country_id": 181,
    "country_code": "RO",
    "latitude": "46.25015000",
    "longitude": "25.89196000",
    "wikiDataId": null
  },
  {
    "id": 93068,
    "name": "Comuna Sântimbru",
    "state_id": 4749,
    "state_code": "HR",
    "country_id": 181,
    "country_code": "RO",
    "latitude": "46.27664000",
    "longitude": "25.81054000",
    "wikiDataId": null
  },
  {
    "id": 93107,
    "name": "Comuna Sărmaş",
    "state_id": 4749,
    "state_code": "HR",
    "country_id": 181,
    "country_code": "RO",
    "latitude": "46.88680000",
    "longitude": "25.44289000",
    "wikiDataId": null
  },
  {
    "id": 92915,
    "name": "Comuna Secuieni",
    "state_id": 4749,
    "state_code": "HR",
    "country_id": 181,
    "country_code": "RO",
    "latitude": "46.27623000",
    "longitude": "24.96946000",
    "wikiDataId": null
  },
  {
    "id": 92927,
    "name": "Comuna Siculeni",
    "state_id": 4749,
    "state_code": "HR",
    "country_id": 181,
    "country_code": "RO",
    "latitude": "46.43537000",
    "longitude": "25.75409000",
    "wikiDataId": null
  },
  {
    "id": 92937,
    "name": "Comuna Simoneşti",
    "state_id": 4749,
    "state_code": "HR",
    "country_id": 181,
    "country_code": "RO",
    "latitude": "46.35466000",
    "longitude": "25.11325000",
    "wikiDataId": null
  },
  {
    "id": 93024,
    "name": "Comuna Subcetate",
    "state_id": 4749,
    "state_code": "HR",
    "country_id": 181,
    "country_code": "RO",
    "latitude": "46.85645000",
    "longitude": "25.40652000",
    "wikiDataId": null
  },
  {
    "id": 93040,
    "name": "Comuna Suseni",
    "state_id": 4749,
    "state_code": "HR",
    "country_id": 181,
    "country_code": "RO",
    "latitude": "46.64350000",
    "longitude": "25.56479000",
    "wikiDataId": null
  },
  {
    "id": 93204,
    "name": "Comuna Tulgheş",
    "state_id": 4749,
    "state_code": "HR",
    "country_id": 181,
    "country_code": "RO",
    "latitude": "46.92544000",
    "longitude": "25.75328000",
    "wikiDataId": null
  },
  {
    "id": 93221,
    "name": "Comuna Tuşnad",
    "state_id": 4749,
    "state_code": "HR",
    "country_id": 181,
    "country_code": "RO",
    "latitude": "46.20745000",
    "longitude": "25.90305000",
    "wikiDataId": null
  },
  {
    "id": 93257,
    "name": "Comuna Ulieş",
    "state_id": 4749,
    "state_code": "HR",
    "country_id": 181,
    "country_code": "RO",
    "latitude": "46.21153000",
    "longitude": "25.27048000",
    "wikiDataId": null
  },
  {
    "id": 93467,
    "name": "Comuna Vărşag",
    "state_id": 4749,
    "state_code": "HR",
    "country_id": 181,
    "country_code": "RO",
    "latitude": "46.53155000",
    "longitude": "25.33900000",
    "wikiDataId": null
  },
  {
    "id": 93408,
    "name": "Comuna Voşlãbeni",
    "state_id": 4749,
    "state_code": "HR",
    "country_id": 181,
    "country_code": "RO",
    "latitude": "46.63582000",
    "longitude": "25.65282000",
    "wikiDataId": null
  },
  {
    "id": 93475,
    "name": "Comuna Zetea",
    "state_id": 4749,
    "state_code": "HR",
    "country_id": 181,
    "country_code": "RO",
    "latitude": "46.46047000",
    "longitude": "25.42823000",
    "wikiDataId": null
  },
  {
    "id": 93619,
    "name": "Corbu",
    "state_id": 4749,
    "state_code": "HR",
    "country_id": 181,
    "country_code": "RO",
    "latitude": "46.98333000",
    "longitude": "25.70000000",
    "wikiDataId": null
  },
  {
    "id": 93651,
    "name": "Corund",
    "state_id": 4749,
    "state_code": "HR",
    "country_id": 181,
    "country_code": "RO",
    "latitude": "46.46667000",
    "longitude": "25.18333000",
    "wikiDataId": null
  },
  {
    "id": 93685,
    "name": "Cozmeni",
    "state_id": 4749,
    "state_code": "HR",
    "country_id": 181,
    "country_code": "RO",
    "latitude": "46.22678000",
    "longitude": "25.94209000",
    "wikiDataId": null
  },
  {
    "id": 93727,
    "name": "Cristuru Secuiesc",
    "state_id": 4749,
    "state_code": "HR",
    "country_id": 181,
    "country_code": "RO",
    "latitude": "46.28333000",
    "longitude": "25.03333000",
    "wikiDataId": null
  },
  {
    "id": 94128,
    "name": "Dăneşti",
    "state_id": 4749,
    "state_code": "HR",
    "country_id": 181,
    "country_code": "RO",
    "latitude": "46.51667000",
    "longitude": "25.75000000",
    "wikiDataId": null
  },
  {
    "id": 94109,
    "name": "Dârjiu",
    "state_id": 4749,
    "state_code": "HR",
    "country_id": 181,
    "country_code": "RO",
    "latitude": "46.20000000",
    "longitude": "25.20000000",
    "wikiDataId": null
  },
  {
    "id": 93900,
    "name": "Dealu",
    "state_id": 4749,
    "state_code": "HR",
    "country_id": 181,
    "country_code": "RO",
    "latitude": "46.40000000",
    "longitude": "25.30000000",
    "wikiDataId": null
  },
  {
    "id": 93941,
    "name": "Ditrău",
    "state_id": 4749,
    "state_code": "HR",
    "country_id": 181,
    "country_code": "RO",
    "latitude": "46.81667000",
    "longitude": "25.51667000",
    "wikiDataId": null
  },
  {
    "id": 94140,
    "name": "Eliseni",
    "state_id": 4749,
    "state_code": "HR",
    "country_id": 181,
    "country_code": "RO",
    "latitude": "46.29235000",
    "longitude": "24.93724000",
    "wikiDataId": null
  },
  {
    "id": 94155,
    "name": "Feliceni",
    "state_id": 4749,
    "state_code": "HR",
    "country_id": 181,
    "country_code": "RO",
    "latitude": "46.26667000",
    "longitude": "25.26667000",
    "wikiDataId": null
  },
  {
    "id": 94172,
    "name": "Filiaș",
    "state_id": 4749,
    "state_code": "HR",
    "country_id": 181,
    "country_code": "RO",
    "latitude": "46.27075000",
    "longitude": "25.02120000",
    "wikiDataId": null
  },
  {
    "id": 94206,
    "name": "Frumoasa",
    "state_id": 4749,
    "state_code": "HR",
    "country_id": 181,
    "country_code": "RO",
    "latitude": "46.45000000",
    "longitude": "25.85000000",
    "wikiDataId": null
  },
  {
    "id": 94506,
    "name": "Gălăuţaş",
    "state_id": 4749,
    "state_code": "HR",
    "country_id": 181,
    "country_code": "RO",
    "latitude": "46.91667000",
    "longitude": "25.43333000",
    "wikiDataId": null
  },
  {
    "id": 94303,
    "name": "Gheorgheni",
    "state_id": 4749,
    "state_code": "HR",
    "country_id": 181,
    "country_code": "RO",
    "latitude": "46.72292000",
    "longitude": "25.60055000",
    "wikiDataId": null
  },
  {
    "id": 94545,
    "name": "Hodoșa",
    "state_id": 4749,
    "state_code": "HR",
    "country_id": 181,
    "country_code": "RO",
    "latitude": "46.86558000",
    "longitude": "25.44620000",
    "wikiDataId": null
  },
  {
    "id": 94663,
    "name": "Imper",
    "state_id": 4749,
    "state_code": "HR",
    "country_id": 181,
    "country_code": "RO",
    "latitude": "46.21667000",
    "longitude": "26.10000000",
    "wikiDataId": null
  },
  {
    "id": 94669,
    "name": "Ineu",
    "state_id": 4749,
    "state_code": "HR",
    "country_id": 181,
    "country_code": "RO",
    "latitude": "46.54530000",
    "longitude": "25.76357000",
    "wikiDataId": null
  },
  {
    "id": 94748,
    "name": "Joseni",
    "state_id": 4749,
    "state_code": "HR",
    "country_id": 181,
    "country_code": "RO",
    "latitude": "46.70000000",
    "longitude": "25.50000000",
    "wikiDataId": null
  },
  {
    "id": 94900,
    "name": "Lăzarea",
    "state_id": 4749,
    "state_code": "HR",
    "country_id": 181,
    "country_code": "RO",
    "latitude": "46.75000000",
    "longitude": "25.53333000",
    "wikiDataId": null
  },
  {
    "id": 94775,
    "name": "Leliceni",
    "state_id": 4749,
    "state_code": "HR",
    "country_id": 181,
    "country_code": "RO",
    "latitude": "46.34713000",
    "longitude": "25.84782000",
    "wikiDataId": null
  },
  {
    "id": 94844,
    "name": "Lueta",
    "state_id": 4749,
    "state_code": "HR",
    "country_id": 181,
    "country_code": "RO",
    "latitude": "46.26667000",
    "longitude": "25.48333000",
    "wikiDataId": null
  },
  {
    "id": 94871,
    "name": "Lunca de Jos",
    "state_id": 4749,
    "state_code": "HR",
    "country_id": 181,
    "country_code": "RO",
    "latitude": "46.56667000",
    "longitude": "25.98333000",
    "wikiDataId": null
  },
  {
    "id": 94872,
    "name": "Lunca de Sus",
    "state_id": 4749,
    "state_code": "HR",
    "country_id": 181,
    "country_code": "RO",
    "latitude": "46.53333000",
    "longitude": "25.96667000",
    "wikiDataId": null
  },
  {
    "id": 94885,
    "name": "Lupeni",
    "state_id": 4749,
    "state_code": "HR",
    "country_id": 181,
    "country_code": "RO",
    "latitude": "46.38333000",
    "longitude": "25.21667000",
    "wikiDataId": null
  },
  {
    "id": 95235,
    "name": "Mădăraș",
    "state_id": 4749,
    "state_code": "HR",
    "country_id": 181,
    "country_code": "RO",
    "latitude": "46.43953540",
    "longitude": "25.58133810",
    "wikiDataId": null
  },
  {
    "id": 95280,
    "name": "Mărtiniş",
    "state_id": 4749,
    "state_code": "HR",
    "country_id": 181,
    "country_code": "RO",
    "latitude": "46.23333000",
    "longitude": "25.38333000",
    "wikiDataId": null
  },
  {
    "id": 94955,
    "name": "Mereşti",
    "state_id": 4749,
    "state_code": "HR",
    "country_id": 181,
    "country_code": "RO",
    "latitude": "46.23333000",
    "longitude": "25.45000000",
    "wikiDataId": null
  },
  {
    "id": 94973,
    "name": "Miercurea-Ciuc",
    "state_id": 4749,
    "state_code": "HR",
    "country_id": 181,
    "country_code": "RO",
    "latitude": "46.35000000",
    "longitude": "25.80000000",
    "wikiDataId": null
  },
  {
    "id": 94992,
    "name": "Mihăileni",
    "state_id": 4749,
    "state_code": "HR",
    "country_id": 181,
    "country_code": "RO",
    "latitude": "46.46667000",
    "longitude": "25.81667000",
    "wikiDataId": null
  },
  {
    "id": 95028,
    "name": "Misentea",
    "state_id": 4749,
    "state_code": "HR",
    "country_id": 181,
    "country_code": "RO",
    "latitude": "46.32714000",
    "longitude": "25.89506000",
    "wikiDataId": null
  },
  {
    "id": 95099,
    "name": "Mugeni",
    "state_id": 4749,
    "state_code": "HR",
    "country_id": 181,
    "country_code": "RO",
    "latitude": "46.25000000",
    "longitude": "25.21667000",
    "wikiDataId": null
  },
  {
    "id": 95145,
    "name": "Municipiul Gheorgheni",
    "state_id": 4749,
    "state_code": "HR",
    "country_id": 181,
    "country_code": "RO",
    "latitude": "46.72268000",
    "longitude": "25.59917000",
    "wikiDataId": null
  },
  {
    "id": 95156,
    "name": "Municipiul Miercurea Ciuc",
    "state_id": 4749,
    "state_code": "HR",
    "country_id": 181,
    "country_code": "RO",
    "latitude": "46.36091000",
    "longitude": "25.79985000",
    "wikiDataId": null
  },
  {
    "id": 95160,
    "name": "Municipiul Odorheiu Secuiesc",
    "state_id": 4749,
    "state_code": "HR",
    "country_id": 181,
    "country_code": "RO",
    "latitude": "46.30646000",
    "longitude": "25.29551000",
    "wikiDataId": null
  },
  {
    "id": 95104,
    "name": "Municipiul Topliţa",
    "state_id": 4749,
    "state_code": "HR",
    "country_id": 181,
    "country_code": "RO",
    "latitude": "46.93701000",
    "longitude": "25.36052000",
    "wikiDataId": null
  },
  {
    "id": 95340,
    "name": "Nicolești",
    "state_id": 4749,
    "state_code": "HR",
    "country_id": 181,
    "country_code": "RO",
    "latitude": "46.43918000",
    "longitude": "25.84446000",
    "wikiDataId": null
  },
  {
    "id": 95393,
    "name": "Ocland",
    "state_id": 4749,
    "state_code": "HR",
    "country_id": 181,
    "country_code": "RO",
    "latitude": "46.16667000",
    "longitude": "25.41667000",
    "wikiDataId": null
  },
  {
    "id": 95397,
    "name": "Ocna de Jos",
    "state_id": 4749,
    "state_code": "HR",
    "country_id": 181,
    "country_code": "RO",
    "latitude": "46.52635000",
    "longitude": "25.12945000",
    "wikiDataId": null
  },
  {
    "id": 95398,
    "name": "Ocna de Sus",
    "state_id": 4749,
    "state_code": "HR",
    "country_id": 181,
    "country_code": "RO",
    "latitude": "46.52729000",
    "longitude": "25.15131000",
    "wikiDataId": null
  },
  {
    "id": 95410,
    "name": "Odorheiu Secuiesc",
    "state_id": 4749,
    "state_code": "HR",
    "country_id": 181,
    "country_code": "RO",
    "latitude": "46.30000000",
    "longitude": "25.30000000",
    "wikiDataId": null
  },
  {
    "id": 95485,
    "name": "Oraş Bãile Tuşnad",
    "state_id": 4749,
    "state_code": "HR",
    "country_id": 181,
    "country_code": "RO",
    "latitude": "46.14707000",
    "longitude": "25.86013000",
    "wikiDataId": null
  },
  {
    "id": 95486,
    "name": "Oraş Bãlan",
    "state_id": 4749,
    "state_code": "HR",
    "country_id": 181,
    "country_code": "RO",
    "latitude": "46.65740000",
    "longitude": "25.80554000",
    "wikiDataId": null
  },
  {
    "id": 95467,
    "name": "Oraş Borsec",
    "state_id": 4749,
    "state_code": "HR",
    "country_id": 181,
    "country_code": "RO",
    "latitude": "46.96551000",
    "longitude": "25.56173000",
    "wikiDataId": null
  },
  {
    "id": 95500,
    "name": "Oraş Cristuru Secuiesc",
    "state_id": 4749,
    "state_code": "HR",
    "country_id": 181,
    "country_code": "RO",
    "latitude": "46.28390000",
    "longitude": "25.04583000",
    "wikiDataId": null
  },
  {
    "id": 95620,
    "name": "Oraş Vlãhiţa",
    "state_id": 4749,
    "state_code": "HR",
    "country_id": 181,
    "country_code": "RO",
    "latitude": "46.37412000",
    "longitude": "25.57625000",
    "wikiDataId": null
  },
  {
    "id": 96028,
    "name": "Păuleni-Ciuc",
    "state_id": 4749,
    "state_code": "HR",
    "country_id": 181,
    "country_code": "RO",
    "latitude": "46.40000000",
    "longitude": "25.83333000",
    "wikiDataId": null
  },
  {
    "id": 95923,
    "name": "Porumbenii Mari",
    "state_id": 4749,
    "state_code": "HR",
    "country_id": 181,
    "country_code": "RO",
    "latitude": "46.27549000",
    "longitude": "25.13620000",
    "wikiDataId": null
  },
  {
    "id": 95938,
    "name": "Praid",
    "state_id": 4749,
    "state_code": "HR",
    "country_id": 181,
    "country_code": "RO",
    "latitude": "46.55000000",
    "longitude": "25.13333000",
    "wikiDataId": null
  },
  {
    "id": 96049,
    "name": "Racu",
    "state_id": 4749,
    "state_code": "HR",
    "country_id": 181,
    "country_code": "RO",
    "latitude": "46.45178000",
    "longitude": "25.76060000",
    "wikiDataId": null
  },
  {
    "id": 96081,
    "name": "Remetea",
    "state_id": 4749,
    "state_code": "HR",
    "country_id": 181,
    "country_code": "RO",
    "latitude": "46.78333000",
    "longitude": "25.45000000",
    "wikiDataId": null
  },
  {
    "id": 105991,
    "name": "Săcel",
    "state_id": 4749,
    "state_code": "HR",
    "country_id": 181,
    "country_code": "RO",
    "latitude": "46.30000000",
    "longitude": "24.93333000",
    "wikiDataId": null
  },
  {
    "id": 96524,
    "name": "Sâncrai",
    "state_id": 4749,
    "state_code": "HR",
    "country_id": 181,
    "country_code": "RO",
    "latitude": "46.36667000",
    "longitude": "25.31667000",
    "wikiDataId": null
  },
  {
    "id": 96527,
    "name": "Sâncrăieni",
    "state_id": 4749,
    "state_code": "HR",
    "country_id": 181,
    "country_code": "RO",
    "latitude": "46.31439000",
    "longitude": "25.83941000",
    "wikiDataId": null
  },
  {
    "id": 96528,
    "name": "Sândominic",
    "state_id": 4749,
    "state_code": "HR",
    "country_id": 181,
    "country_code": "RO",
    "latitude": "46.58400000",
    "longitude": "25.78028000",
    "wikiDataId": null
  },
  {
    "id": 96533,
    "name": "Sânmartin",
    "state_id": 4749,
    "state_code": "HR",
    "country_id": 181,
    "country_code": "RO",
    "latitude": "46.26667000",
    "longitude": "25.93333000",
    "wikiDataId": null
  },
  {
    "id": 96546,
    "name": "Sânsimion",
    "state_id": 4749,
    "state_code": "HR",
    "country_id": 181,
    "country_code": "RO",
    "latitude": "46.25000000",
    "longitude": "25.88333000",
    "wikiDataId": null
  },
  {
    "id": 105978,
    "name": "Sântimbru",
    "state_id": 4749,
    "state_code": "HR",
    "country_id": 181,
    "country_code": "RO",
    "latitude": "46.28126000",
    "longitude": "25.85439000",
    "wikiDataId": null
  },
  {
    "id": 106032,
    "name": "Sărmaş",
    "state_id": 4749,
    "state_code": "HR",
    "country_id": 181,
    "country_code": "RO",
    "latitude": "46.88333000",
    "longitude": "25.46667000",
    "wikiDataId": null
  },
  {
    "id": 96255,
    "name": "Satu Mare",
    "state_id": 4749,
    "state_code": "HR",
    "country_id": 181,
    "country_code": "RO",
    "latitude": "46.34139630",
    "longitude": "25.38384720",
    "wikiDataId": null
  },
  {
    "id": 96335,
    "name": "Siculeni",
    "state_id": 4749,
    "state_code": "HR",
    "country_id": 181,
    "country_code": "RO",
    "latitude": "46.41667000",
    "longitude": "25.75000000",
    "wikiDataId": null
  },
  {
    "id": 96349,
    "name": "Simoneşti",
    "state_id": 4749,
    "state_code": "HR",
    "country_id": 181,
    "country_code": "RO",
    "latitude": "46.33333000",
    "longitude": "25.10000000",
    "wikiDataId": null
  },
  {
    "id": 96486,
    "name": "Subcetate",
    "state_id": 4749,
    "state_code": "HR",
    "country_id": 181,
    "country_code": "RO",
    "latitude": "46.85000000",
    "longitude": "25.45000000",
    "wikiDataId": null
  },
  {
    "id": 96510,
    "name": "Suseni",
    "state_id": 4749,
    "state_code": "HR",
    "country_id": 181,
    "country_code": "RO",
    "latitude": "46.66667000",
    "longitude": "25.55000000",
    "wikiDataId": null
  },
  {
    "id": 96625,
    "name": "Tăureni",
    "state_id": 4749,
    "state_code": "HR",
    "country_id": 181,
    "country_code": "RO",
    "latitude": "46.26667000",
    "longitude": "25.25000000",
    "wikiDataId": null
  },
  {
    "id": 106123,
    "name": "Tomești",
    "state_id": 4749,
    "state_code": "HR",
    "country_id": 181,
    "country_code": "RO",
    "latitude": "46.55735310",
    "longitude": "25.78439730",
    "wikiDataId": null
  },
  {
    "id": 106174,
    "name": "Tulgheş",
    "state_id": 4749,
    "state_code": "HR",
    "country_id": 181,
    "country_code": "RO",
    "latitude": "46.95000000",
    "longitude": "25.76667000",
    "wikiDataId": null
  },
  {
    "id": 96574,
    "name": "Tuşnad",
    "state_id": 4749,
    "state_code": "HR",
    "country_id": 181,
    "country_code": "RO",
    "latitude": "46.20000000",
    "longitude": "25.90000000",
    "wikiDataId": null
  },
  {
    "id": 96575,
    "name": "Tușnadu Nou",
    "state_id": 4749,
    "state_code": "HR",
    "country_id": 181,
    "country_code": "RO",
    "latitude": "46.19364000",
    "longitude": "25.88757000",
    "wikiDataId": null
  },
  {
    "id": 96707,
    "name": "Vale",
    "state_id": 4749,
    "state_code": "HR",
    "country_id": 181,
    "country_code": "RO",
    "latitude": "46.94910000",
    "longitude": "25.37869000",
    "wikiDataId": null
  },
  {
    "id": 96748,
    "name": "Valea Rece",
    "state_id": 4749,
    "state_code": "HR",
    "country_id": 181,
    "country_code": "RO",
    "latitude": "46.62082000",
    "longitude": "25.95827000",
    "wikiDataId": null
  },
  {
    "id": 96757,
    "name": "Valea Strâmbă",
    "state_id": 4749,
    "state_code": "HR",
    "country_id": 181,
    "country_code": "RO",
    "latitude": "46.69429000",
    "longitude": "25.59956000",
    "wikiDataId": null
  },
  {
    "id": 96976,
    "name": "Vărşag",
    "state_id": 4749,
    "state_code": "HR",
    "country_id": 181,
    "country_code": "RO",
    "latitude": "46.51667000",
    "longitude": "25.35000000",
    "wikiDataId": null
  },
  {
    "id": 96870,
    "name": "Vlăhiţa",
    "state_id": 4749,
    "state_code": "HR",
    "country_id": 181,
    "country_code": "RO",
    "latitude": "46.35000000",
    "longitude": "25.51667000",
    "wikiDataId": null
  },
  {
    "id": 96895,
    "name": "Voșlăbeni",
    "state_id": 4749,
    "state_code": "HR",
    "country_id": 181,
    "country_code": "RO",
    "latitude": "46.65000000",
    "longitude": "25.63333000",
    "wikiDataId": null
  },
  {
    "id": 96988,
    "name": "Zencani",
    "state_id": 4749,
    "state_code": "HR",
    "country_id": 181,
    "country_code": "RO",
    "latitude": "46.92700000",
    "longitude": "25.33411000",
    "wikiDataId": null
  },
  {
    "id": 96990,
    "name": "Zetea",
    "state_id": 4749,
    "state_code": "HR",
    "country_id": 181,
    "country_code": "RO",
    "latitude": "46.38333000",
    "longitude": "25.36667000",
    "wikiDataId": null
  }
]