[
  {
    "id": 154019,
    "name": "Aqraba",
    "state_id": 5126,
    "state_code": "NBS",
    "country_id": 169,
    "country_code": "PS",
    "latitude": "32.12762020",
    "longitude": "35.32213530",
    "wikiDataId": null
  },
  {
    "id": 154020,
    "name": "Asira ash-Shamaliya",
    "state_id": 5126,
    "state_code": "NBS",
    "country_id": 169,
    "country_code": "PS",
    "latitude": "32.25186910",
    "longitude": "35.24757130",
    "wikiDataId": null
  },
  {
    "id": 154026,
    "name": "Beit Furik",
    "state_id": 5126,
    "state_code": "NBS",
    "country_id": 169,
    "country_code": "PS",
    "latitude": "32.17549020",
    "longitude": "35.31588430",
    "wikiDataId": null
  },
  {
    "id": 154021,
    "name": "Beita",
    "state_id": 5126,
    "state_code": "NBS",
    "country_id": 169,
    "country_code": "PS",
    "latitude": "32.14137420",
    "longitude": "35.26579930",
    "wikiDataId": null
  },
  {
    "id": 154022,
    "name": "Huwara",
    "state_id": 5126,
    "state_code": "NBS",
    "country_id": 169,
    "country_code": "PS",
    "latitude": "32.15134720",
    "longitude": "35.23619930",
    "wikiDataId": null
  },
  {
    "id": 154023,
    "name": "Jammain",
    "state_id": 5126,
    "state_code": "NBS",
    "country_id": 169,
    "country_code": "PS",
    "latitude": "32.13211420",
    "longitude": "35.18274230",
    "wikiDataId": null
  },
  {
    "id": 154018,
    "name": "Nablus",
    "state_id": 5126,
    "state_code": "NBS",
    "country_id": 169,
    "country_code": "PS",
    "latitude": "32.22437550",
    "longitude": "35.20647930",
    "wikiDataId": null
  },
  {
    "id": 154024,
    "name": "Qabalan",
    "state_id": 5126,
    "state_code": "NBS",
    "country_id": 169,
    "country_code": "PS",
    "latitude": "32.10185420",
    "longitude": "35.26712930",
    "wikiDataId": null
  },
  {
    "id": 154025,
    "name": "Sebastia",
    "state_id": 5126,
    "state_code": "NBS",
    "country_id": 169,
    "country_code": "PS",
    "latitude": "32.27827510",
    "longitude": "35.17803330",
    "wikiDataId": null
  }
]