[
  {
    "id": 107062,
    "name": "Adalar",
    "state_id": 2170,
    "state_code": "34",
    "country_id": 225,
    "country_code": "TR",
    "latitude": "40.86913000",
    "longitude": "29.12064000",
    "wikiDataId": null
  },
  {
    "id": 107188,
    "name": "Arnavutköy",
    "state_id": 2170,
    "state_code": "34",
    "country_id": 225,
    "country_code": "TR",
    "latitude": "41.19674000",
    "longitude": "28.73405000",
    "wikiDataId": null
  },
  {
    "id": 107207,
    "name": "Ataşehir",
    "state_id": 2170,
    "state_code": "34",
    "country_id": 225,
    "country_code": "TR",
    "latitude": "40.99104000",
    "longitude": "29.13471000",
    "wikiDataId": null
  },
  {
    "id": 107213,
    "name": "Avcılar",
    "state_id": 2170,
    "state_code": "34",
    "country_id": 225,
    "country_code": "TR",
    "latitude": "41.02355000",
    "longitude": "28.71860000",
    "wikiDataId": null
  },
  {
    "id": 107308,
    "name": "Bağcılar",
    "state_id": 2170,
    "state_code": "34",
    "country_id": 225,
    "country_code": "TR",
    "latitude": "41.04275000",
    "longitude": "28.83625000",
    "wikiDataId": null
  },
  {
    "id": 107261,
    "name": "Bahçelievler",
    "state_id": 2170,
    "state_code": "34",
    "country_id": 225,
    "country_code": "TR",
    "latitude": "41.00652000",
    "longitude": "28.84099000",
    "wikiDataId": null
  },
  {
    "id": 107267,
    "name": "Bakırköy",
    "state_id": 2170,
    "state_code": "34",
    "country_id": 225,
    "country_code": "TR",
    "latitude": "40.98388000",
    "longitude": "28.83541000",
    "wikiDataId": null
  },
  {
    "id": 107312,
    "name": "Başakşehir",
    "state_id": 2170,
    "state_code": "34",
    "country_id": 225,
    "country_code": "TR",
    "latitude": "41.09203000",
    "longitude": "28.80203000",
    "wikiDataId": null
  },
  {
    "id": 107302,
    "name": "Bayrampaşa",
    "state_id": 2170,
    "state_code": "34",
    "country_id": 225,
    "country_code": "TR",
    "latitude": "41.04691000",
    "longitude": "28.90278000",
    "wikiDataId": null
  },
  {
    "id": 107349,
    "name": "Beşiktaş",
    "state_id": 2170,
    "state_code": "34",
    "country_id": 225,
    "country_code": "TR",
    "latitude": "41.07122000",
    "longitude": "29.02321000",
    "wikiDataId": null
  },
  {
    "id": 107337,
    "name": "Beykoz",
    "state_id": 2170,
    "state_code": "34",
    "country_id": 225,
    "country_code": "TR",
    "latitude": "41.13774000",
    "longitude": "29.16932000",
    "wikiDataId": null
  },
  {
    "id": 107338,
    "name": "Beylikdüzü",
    "state_id": 2170,
    "state_code": "34",
    "country_id": 225,
    "country_code": "TR",
    "latitude": "41.00322000",
    "longitude": "28.64067000",
    "wikiDataId": null
  },
  {
    "id": 107341,
    "name": "Beyoğlu",
    "state_id": 2170,
    "state_code": "34",
    "country_id": 225,
    "country_code": "TR",
    "latitude": "41.03786000",
    "longitude": "28.96767000",
    "wikiDataId": null
  },
  {
    "id": 107422,
    "name": "Büyükçekmece",
    "state_id": 2170,
    "state_code": "34",
    "country_id": 225,
    "country_code": "TR",
    "latitude": "41.04521000",
    "longitude": "28.59573000",
    "wikiDataId": null
  },
  {
    "id": 108788,
    "name": "Çatalca",
    "state_id": 2170,
    "state_code": "34",
    "country_id": 225,
    "country_code": "TR",
    "latitude": "41.29651000",
    "longitude": "28.45419000",
    "wikiDataId": null
  },
  {
    "id": 108812,
    "name": "Çekmeköy",
    "state_id": 2170,
    "state_code": "34",
    "country_id": 225,
    "country_code": "TR",
    "latitude": "41.03819000",
    "longitude": "29.20029000",
    "wikiDataId": null
  },
  {
    "id": 107604,
    "name": "Esenler",
    "state_id": 2170,
    "state_code": "34",
    "country_id": 225,
    "country_code": "TR",
    "latitude": "41.07925000",
    "longitude": "28.85235000",
    "wikiDataId": null
  },
  {
    "id": 107605,
    "name": "Esenyurt",
    "state_id": 2170,
    "state_code": "34",
    "country_id": 225,
    "country_code": "TR",
    "latitude": "41.04000000",
    "longitude": "28.66161000",
    "wikiDataId": null
  },
  {
    "id": 107622,
    "name": "Eyüpsultan",
    "state_id": 2170,
    "state_code": "34",
    "country_id": 225,
    "country_code": "TR",
    "latitude": "41.19904000",
    "longitude": "28.88667000",
    "wikiDataId": null
  },
  {
    "id": 107632,
    "name": "Fatih",
    "state_id": 2170,
    "state_code": "34",
    "country_id": 225,
    "country_code": "TR",
    "latitude": "41.01746000",
    "longitude": "28.94053000",
    "wikiDataId": null
  },
  {
    "id": 107647,
    "name": "Gaziosmanpaşa",
    "state_id": 2170,
    "state_code": "34",
    "country_id": 225,
    "country_code": "TR",
    "latitude": "41.07857000",
    "longitude": "28.89679000",
    "wikiDataId": null
  },
  {
    "id": 107746,
    "name": "Güngören",
    "state_id": 2170,
    "state_code": "34",
    "country_id": 225,
    "country_code": "TR",
    "latitude": "41.01787000",
    "longitude": "28.87882000",
    "wikiDataId": null
  },
  {
    "id": 153786,
    "name": "Istanbul",
    "state_id": 2170,
    "state_code": "34",
    "country_id": 225,
    "country_code": "TR",
    "latitude": "41.00537020",
    "longitude": "28.68251620",
    "wikiDataId": null
  },
  {
    "id": 107863,
    "name": "Kadıköy",
    "state_id": 2170,
    "state_code": "34",
    "country_id": 225,
    "country_code": "TR",
    "latitude": "40.98229000",
    "longitude": "29.09032000",
    "wikiDataId": null
  },
  {
    "id": 108071,
    "name": "Kâğıthane",
    "state_id": 2170,
    "state_code": "34",
    "country_id": 225,
    "country_code": "TR",
    "latitude": "41.08319000",
    "longitude": "28.97826000",
    "wikiDataId": null
  },
  {
    "id": 107933,
    "name": "Kartal",
    "state_id": 2170,
    "state_code": "34",
    "country_id": 225,
    "country_code": "TR",
    "latitude": "40.91197000",
    "longitude": "29.21190000",
    "wikiDataId": null
  },
  {
    "id": 108095,
    "name": "Küçükçekmece",
    "state_id": 2170,
    "state_code": "34",
    "country_id": 225,
    "country_code": "TR",
    "latitude": "41.06947000",
    "longitude": "28.76983000",
    "wikiDataId": null
  },
  {
    "id": 108146,
    "name": "Maltepe",
    "state_id": 2170,
    "state_code": "34",
    "country_id": 225,
    "country_code": "TR",
    "latitude": "40.95890000",
    "longitude": "29.17866000",
    "wikiDataId": null
  },
  {
    "id": 108336,
    "name": "Pendik",
    "state_id": 2170,
    "state_code": "34",
    "country_id": 225,
    "country_code": "TR",
    "latitude": "40.94577000",
    "longitude": "29.33019000",
    "wikiDataId": null
  },
  {
    "id": 108382,
    "name": "Sancaktepe",
    "state_id": 2170,
    "state_code": "34",
    "country_id": 225,
    "country_code": "TR",
    "latitude": "40.98949000",
    "longitude": "29.24320000",
    "wikiDataId": null
  },
  {
    "id": 108411,
    "name": "Sarıyer",
    "state_id": 2170,
    "state_code": "34",
    "country_id": 225,
    "country_code": "TR",
    "latitude": "41.21482000",
    "longitude": "29.05678000",
    "wikiDataId": null
  },
  {
    "id": 108958,
    "name": "Şile",
    "state_id": 2170,
    "state_code": "34",
    "country_id": 225,
    "country_code": "TR",
    "latitude": "41.12902000",
    "longitude": "29.61845000",
    "wikiDataId": null
  },
  {
    "id": 108460,
    "name": "Silivri",
    "state_id": 2170,
    "state_code": "34",
    "country_id": 225,
    "country_code": "TR",
    "latitude": "41.18116000",
    "longitude": "28.19890000",
    "wikiDataId": null
  },
  {
    "id": 108963,
    "name": "Şişli",
    "state_id": 2170,
    "state_code": "34",
    "country_id": 225,
    "country_code": "TR",
    "latitude": "41.12514000",
    "longitude": "29.00013000",
    "wikiDataId": null
  },
  {
    "id": 108492,
    "name": "Sultanbeyli",
    "state_id": 2170,
    "state_code": "34",
    "country_id": 225,
    "country_code": "TR",
    "latitude": "40.95264000",
    "longitude": "29.26797000",
    "wikiDataId": null
  },
  {
    "id": 108495,
    "name": "Sultangazi",
    "state_id": 2170,
    "state_code": "34",
    "country_id": 225,
    "country_code": "TR",
    "latitude": "41.21792000",
    "longitude": "28.71740000",
    "wikiDataId": null
  },
  {
    "id": 108609,
    "name": "Tuzla",
    "state_id": 2170,
    "state_code": "34",
    "country_id": 225,
    "country_code": "TR",
    "latitude": "40.86368000",
    "longitude": "29.31942000",
    "wikiDataId": null
  },
  {
    "id": 108631,
    "name": "Ümraniye",
    "state_id": 2170,
    "state_code": "34",
    "country_id": 225,
    "country_code": "TR",
    "latitude": "41.01643000",
    "longitude": "29.12476000",
    "wikiDataId": null
  },
  {
    "id": 108874,
    "name": "Üsküdar",
    "state_id": 2170,
    "state_code": "34",
    "country_id": 225,
    "country_code": "TR",
    "latitude": "41.02274000",
    "longitude": "29.01366000",
    "wikiDataId": null
  },
  {
    "id": 108750,
    "name": "Zeytinburnu",
    "state_id": 2170,
    "state_code": "34",
    "country_id": 225,
    "country_code": "TR",
    "latitude": "41.00824000",
    "longitude": "28.90952000",
    "wikiDataId": null
  }
]