[
  {
    "id": 38733,
    "name": "Alavieska",
    "state_id": 1505,
    "state_code": "14",
    "country_id": 74,
    "country_code": "FI",
    "latitude": "64.16667000",
    "longitude": "24.30000000",
    "wikiDataId": null
  },
  {
    "id": 38754,
    "name": "Haapajärvi",
    "state_id": 1505,
    "state_code": "14",
    "country_id": 74,
    "country_code": "FI",
    "latitude": "63.75000000",
    "longitude": "25.33333000",
    "wikiDataId": null
  },
  {
    "id": 38755,
    "name": "Haapavesi",
    "state_id": 1505,
    "state_code": "14",
    "country_id": 74,
    "country_code": "FI",
    "latitude": "64.13333000",
    "longitude": "25.36667000",
    "wikiDataId": null
  },
  {
    "id": 38756,
    "name": "Hailuoto",
    "state_id": 1505,
    "state_code": "14",
    "country_id": 74,
    "country_code": "FI",
    "latitude": "65.00900000",
    "longitude": "24.71385000",
    "wikiDataId": null
  },
  {
    "id": 38765,
    "name": "Haukipudas",
    "state_id": 1505,
    "state_code": "14",
    "country_id": 74,
    "country_code": "FI",
    "latitude": "65.17654000",
    "longitude": "25.35233000",
    "wikiDataId": null
  },
  {
    "id": 38772,
    "name": "Himanka",
    "state_id": 1505,
    "state_code": "14",
    "country_id": 74,
    "country_code": "FI",
    "latitude": "64.06218000",
    "longitude": "23.65447000",
    "wikiDataId": null
  },
  {
    "id": 38782,
    "name": "Ii",
    "state_id": 1505,
    "state_code": "14",
    "country_id": 74,
    "country_code": "FI",
    "latitude": "65.31735000",
    "longitude": "25.37310000",
    "wikiDataId": null
  },
  {
    "id": 38817,
    "name": "Kalajoki",
    "state_id": 1505,
    "state_code": "14",
    "country_id": 74,
    "country_code": "FI",
    "latitude": "64.25000000",
    "longitude": "23.95000000",
    "wikiDataId": null
  },
  {
    "id": 38890,
    "name": "Kärsämäki",
    "state_id": 1505,
    "state_code": "14",
    "country_id": 74,
    "country_code": "FI",
    "latitude": "63.96667000",
    "longitude": "25.76667000",
    "wikiDataId": null
  },
  {
    "id": 38844,
    "name": "Kempele",
    "state_id": 1505,
    "state_code": "14",
    "country_id": 74,
    "country_code": "FI",
    "latitude": "64.91314000",
    "longitude": "25.50339000",
    "wikiDataId": null
  },
  {
    "id": 38847,
    "name": "Kestilä",
    "state_id": 1505,
    "state_code": "14",
    "country_id": 74,
    "country_code": "FI",
    "latitude": "64.35002000",
    "longitude": "26.27921000",
    "wikiDataId": null
  },
  {
    "id": 38852,
    "name": "Kiiminki",
    "state_id": 1505,
    "state_code": "14",
    "country_id": 74,
    "country_code": "FI",
    "latitude": "65.13139000",
    "longitude": "25.79744000",
    "wikiDataId": null
  },
  {
    "id": 38879,
    "name": "Kuivaniemi",
    "state_id": 1505,
    "state_code": "14",
    "country_id": 74,
    "country_code": "FI",
    "latitude": "65.57847000",
    "longitude": "25.18814000",
    "wikiDataId": null
  },
  {
    "id": 38885,
    "name": "Kuusamo",
    "state_id": 1505,
    "state_code": "14",
    "country_id": 74,
    "country_code": "FI",
    "latitude": "65.96667000",
    "longitude": "29.18333000",
    "wikiDataId": null
  },
  {
    "id": 38915,
    "name": "Liminka",
    "state_id": 1505,
    "state_code": "14",
    "country_id": 74,
    "country_code": "FI",
    "latitude": "64.80985000",
    "longitude": "25.41545000",
    "wikiDataId": null
  },
  {
    "id": 38922,
    "name": "Lumijoki",
    "state_id": 1505,
    "state_code": "14",
    "country_id": 74,
    "country_code": "FI",
    "latitude": "64.83744000",
    "longitude": "25.18607000",
    "wikiDataId": null
  },
  {
    "id": 38932,
    "name": "Merijärvi",
    "state_id": 1505,
    "state_code": "14",
    "country_id": 74,
    "country_code": "FI",
    "latitude": "64.30000000",
    "longitude": "24.45000000",
    "wikiDataId": null
  },
  {
    "id": 38938,
    "name": "Muhos",
    "state_id": 1505,
    "state_code": "14",
    "country_id": 74,
    "country_code": "FI",
    "latitude": "64.80798000",
    "longitude": "25.99314000",
    "wikiDataId": null
  },
  {
    "id": 38953,
    "name": "Nivala",
    "state_id": 1505,
    "state_code": "14",
    "country_id": 74,
    "country_code": "FI",
    "latitude": "63.91667000",
    "longitude": "24.96667000",
    "wikiDataId": null
  },
  {
    "id": 38965,
    "name": "Oulainen",
    "state_id": 1505,
    "state_code": "14",
    "country_id": 74,
    "country_code": "FI",
    "latitude": "64.26667000",
    "longitude": "24.80000000",
    "wikiDataId": null
  },
  {
    "id": 38966,
    "name": "Oulu",
    "state_id": 1505,
    "state_code": "14",
    "country_id": 74,
    "country_code": "FI",
    "latitude": "65.01236000",
    "longitude": "25.46816000",
    "wikiDataId": null
  },
  {
    "id": 38967,
    "name": "Oulunsalo",
    "state_id": 1505,
    "state_code": "14",
    "country_id": 74,
    "country_code": "FI",
    "latitude": "64.93456000",
    "longitude": "25.41121000",
    "wikiDataId": null
  },
  {
    "id": 38987,
    "name": "Piippola",
    "state_id": 1505,
    "state_code": "14",
    "country_id": 74,
    "country_code": "FI",
    "latitude": "64.16667000",
    "longitude": "25.96667000",
    "wikiDataId": null
  },
  {
    "id": 38995,
    "name": "Pudasjärvi",
    "state_id": 1505,
    "state_code": "14",
    "country_id": 74,
    "country_code": "FI",
    "latitude": "65.38333000",
    "longitude": "26.91667000",
    "wikiDataId": null
  },
  {
    "id": 38997,
    "name": "Pulkkila",
    "state_id": 1505,
    "state_code": "14",
    "country_id": 74,
    "country_code": "FI",
    "latitude": "64.26667000",
    "longitude": "25.86667000",
    "wikiDataId": null
  },
  {
    "id": 39003,
    "name": "Pyhäjärvi",
    "state_id": 1505,
    "state_code": "14",
    "country_id": 74,
    "country_code": "FI",
    "latitude": "63.66667000",
    "longitude": "25.90000000",
    "wikiDataId": null
  },
  {
    "id": 39002,
    "name": "Pyhäjoki",
    "state_id": 1505,
    "state_code": "14",
    "country_id": 74,
    "country_code": "FI",
    "latitude": "64.46667000",
    "longitude": "24.23333000",
    "wikiDataId": null
  },
  {
    "id": 39005,
    "name": "Pyhäntä",
    "state_id": 1505,
    "state_code": "14",
    "country_id": 74,
    "country_code": "FI",
    "latitude": "64.10000000",
    "longitude": "26.31667000",
    "wikiDataId": null
  },
  {
    "id": 39010,
    "name": "Raahe",
    "state_id": 1505,
    "state_code": "14",
    "country_id": 74,
    "country_code": "FI",
    "latitude": "64.68333000",
    "longitude": "24.48333000",
    "wikiDataId": null
  },
  {
    "id": 39014,
    "name": "Rantsila",
    "state_id": 1505,
    "state_code": "14",
    "country_id": 74,
    "country_code": "FI",
    "latitude": "64.50613000",
    "longitude": "25.66449000",
    "wikiDataId": null
  },
  {
    "id": 39020,
    "name": "Reisjärvi",
    "state_id": 1505,
    "state_code": "14",
    "country_id": 74,
    "country_code": "FI",
    "latitude": "63.61667000",
    "longitude": "24.90000000",
    "wikiDataId": null
  },
  {
    "id": 39031,
    "name": "Ruukki",
    "state_id": 1505,
    "state_code": "14",
    "country_id": 74,
    "country_code": "FI",
    "latitude": "64.66667000",
    "longitude": "25.10000000",
    "wikiDataId": null
  },
  {
    "id": 39046,
    "name": "Sievi",
    "state_id": 1505,
    "state_code": "14",
    "country_id": 74,
    "country_code": "FI",
    "latitude": "63.90000000",
    "longitude": "24.50000000",
    "wikiDataId": null
  },
  {
    "id": 39048,
    "name": "Siikajoki",
    "state_id": 1505,
    "state_code": "14",
    "country_id": 74,
    "country_code": "FI",
    "latitude": "64.81455000",
    "longitude": "24.75924000",
    "wikiDataId": null
  },
  {
    "id": 39068,
    "name": "Taivalkoski",
    "state_id": 1505,
    "state_code": "14",
    "country_id": 74,
    "country_code": "FI",
    "latitude": "65.56667000",
    "longitude": "28.25000000",
    "wikiDataId": null
  },
  {
    "id": 39086,
    "name": "Tyrnävä",
    "state_id": 1505,
    "state_code": "14",
    "country_id": 74,
    "country_code": "FI",
    "latitude": "64.76469000",
    "longitude": "25.65230000",
    "wikiDataId": null
  },
  {
    "id": 39090,
    "name": "Utajärvi",
    "state_id": 1505,
    "state_code": "14",
    "country_id": 74,
    "country_code": "FI",
    "latitude": "64.75000000",
    "longitude": "26.38333000",
    "wikiDataId": null
  },
  {
    "id": 39108,
    "name": "Vihanti",
    "state_id": 1505,
    "state_code": "14",
    "country_id": 74,
    "country_code": "FI",
    "latitude": "64.48472000",
    "longitude": "24.99157000",
    "wikiDataId": null
  },
  {
    "id": 39121,
    "name": "Yli-Ii",
    "state_id": 1505,
    "state_code": "14",
    "country_id": 74,
    "country_code": "FI",
    "latitude": "65.37181000",
    "longitude": "25.84580000",
    "wikiDataId": null
  },
  {
    "id": 39123,
    "name": "Ylikiiminki",
    "state_id": 1505,
    "state_code": "14",
    "country_id": 74,
    "country_code": "FI",
    "latitude": "65.08333000",
    "longitude": "26.25000000",
    "wikiDataId": null
  },
  {
    "id": 39126,
    "name": "Ylivieska",
    "state_id": 1505,
    "state_code": "14",
    "country_id": 74,
    "country_code": "FI",
    "latitude": "64.08333000",
    "longitude": "24.55000000",
    "wikiDataId": null
  }
]