[
  {
    "id": 144334,
    "name": "Amas",
    "state_id": 1270,
    "state_code": "BUK",
    "country_id": 174,
    "country_code": "PH",
    "latitude": "7.05694444",
    "longitude": "124.98388889",
    "wikiDataId": null
  },
  {
    "id": 144335,
    "name": "Bagontapay",
    "state_id": 1270,
    "state_code": "BUK",
    "country_id": 174,
    "country_code": "PH",
    "latitude": "6.85888889",
    "longitude": "124.90888889",
    "wikiDataId": null
  },
  {
    "id": 144336,
    "name": "Baguer",
    "state_id": 1270,
    "state_code": "BUK",
    "country_id": 174,
    "country_code": "PH",
    "latitude": "7.25611111",
    "longitude": "124.50416667",
    "wikiDataId": null
  },
  {
    "id": 144338,
    "name": "Baliton",
    "state_id": 1270,
    "state_code": "BUK",
    "country_id": 174,
    "country_code": "PH",
    "latitude": "5.74361111",
    "longitude": "125.23638889",
    "wikiDataId": null
  },
  {
    "id": 144339,
    "name": "Balogo",
    "state_id": 1270,
    "state_code": "BUK",
    "country_id": 174,
    "country_code": "PH",
    "latitude": "7.28222222",
    "longitude": "124.46388889",
    "wikiDataId": null
  },
  {
    "id": 144340,
    "name": "Banawa",
    "state_id": 1270,
    "state_code": "BUK",
    "country_id": 174,
    "country_code": "PH",
    "latitude": "7.15361111",
    "longitude": "124.86666667",
    "wikiDataId": null
  },
  {
    "id": 144344,
    "name": "Bantogon",
    "state_id": 1270,
    "state_code": "BUK",
    "country_id": 174,
    "country_code": "PH",
    "latitude": "6.53333333",
    "longitude": "124.03333333",
    "wikiDataId": null
  },
  {
    "id": 144345,
    "name": "Barongis",
    "state_id": 1270,
    "state_code": "BUK",
    "country_id": 174,
    "country_code": "PH",
    "latitude": "7.26111111",
    "longitude": "124.56416667",
    "wikiDataId": null
  },
  {
    "id": 144346,
    "name": "Basak",
    "state_id": 1270,
    "state_code": "BUK",
    "country_id": 174,
    "country_code": "PH",
    "latitude": "6.72722222",
    "longitude": "124.15111111",
    "wikiDataId": null
  },
  {
    "id": 144347,
    "name": "Batasan",
    "state_id": 1270,
    "state_code": "BUK",
    "country_id": 174,
    "country_code": "PH",
    "latitude": "7.03333333",
    "longitude": "125.05000000",
    "wikiDataId": null
  },
  {
    "id": 144348,
    "name": "Batutitik",
    "state_id": 1270,
    "state_code": "BUK",
    "country_id": 174,
    "country_code": "PH",
    "latitude": "6.22333333",
    "longitude": "125.25194444",
    "wikiDataId": null
  },
  {
    "id": 144349,
    "name": "Bau",
    "state_id": 1270,
    "state_code": "BUK",
    "country_id": 174,
    "country_code": "PH",
    "latitude": "7.40527778",
    "longitude": "124.64972222",
    "wikiDataId": null
  },
  {
    "id": 144350,
    "name": "Bayasong",
    "state_id": 1270,
    "state_code": "BUK",
    "country_id": 174,
    "country_code": "PH",
    "latitude": "6.64888889",
    "longitude": "124.87305556",
    "wikiDataId": null
  },
  {
    "id": 144351,
    "name": "Bialong",
    "state_id": 1270,
    "state_code": "BUK",
    "country_id": 174,
    "country_code": "PH",
    "latitude": "6.98055556",
    "longitude": "124.88888889",
    "wikiDataId": null
  },
  {
    "id": 144354,
    "name": "Buadtasan",
    "state_id": 1270,
    "state_code": "BUK",
    "country_id": 174,
    "country_code": "PH",
    "latitude": "6.00500000",
    "longitude": "124.61277778",
    "wikiDataId": null
  },
  {
    "id": 144355,
    "name": "Bual",
    "state_id": 1270,
    "state_code": "BUK",
    "country_id": 174,
    "country_code": "PH",
    "latitude": "6.79583333",
    "longitude": "124.91083333",
    "wikiDataId": null
  },
  {
    "id": 144357,
    "name": "Buayan",
    "state_id": 1270,
    "state_code": "BUK",
    "country_id": 174,
    "country_code": "PH",
    "latitude": "6.11638889",
    "longitude": "125.23472222",
    "wikiDataId": null
  },
  {
    "id": 144360,
    "name": "Bulatukan",
    "state_id": 1270,
    "state_code": "BUK",
    "country_id": 174,
    "country_code": "PH",
    "latitude": "6.90250000",
    "longitude": "125.16083333",
    "wikiDataId": null
  },
  {
    "id": 144361,
    "name": "Burias",
    "state_id": 1270,
    "state_code": "BUK",
    "country_id": 174,
    "country_code": "PH",
    "latitude": "5.71777778",
    "longitude": "125.25361111",
    "wikiDataId": null
  },
  {
    "id": 144365,
    "name": "Cebuano",
    "state_id": 1270,
    "state_code": "BUK",
    "country_id": 174,
    "country_code": "PH",
    "latitude": "6.38805556",
    "longitude": "124.96833333",
    "wikiDataId": null
  },
  {
    "id": 144366,
    "name": "City of Kidapawan",
    "state_id": 1270,
    "state_code": "BUK",
    "country_id": 174,
    "country_code": "PH",
    "latitude": "7.03333000",
    "longitude": "125.08333000",
    "wikiDataId": null
  },
  {
    "id": 144367,
    "name": "City of Koronadal",
    "state_id": 1270,
    "state_code": "BUK",
    "country_id": 174,
    "country_code": "PH",
    "latitude": "6.49162000",
    "longitude": "124.88840000",
    "wikiDataId": null
  },
  {
    "id": 144368,
    "name": "City of Tacurong",
    "state_id": 1270,
    "state_code": "BUK",
    "country_id": 174,
    "country_code": "PH",
    "latitude": "6.69133000",
    "longitude": "124.67300000",
    "wikiDataId": null
  },
  {
    "id": 144369,
    "name": "Colongolo",
    "state_id": 1270,
    "state_code": "BUK",
    "country_id": 174,
    "country_code": "PH",
    "latitude": "6.33861111",
    "longitude": "124.72166667",
    "wikiDataId": null
  },
  {
    "id": 143935,
    "name": "Daliao",
    "state_id": 1270,
    "state_code": "BUK",
    "country_id": 174,
    "country_code": "PH",
    "latitude": "5.86111111",
    "longitude": "124.95333333",
    "wikiDataId": null
  },
  {
    "id": 143936,
    "name": "Damawato",
    "state_id": 1270,
    "state_code": "BUK",
    "country_id": 174,
    "country_code": "PH",
    "latitude": "6.70000000",
    "longitude": "124.78333333",
    "wikiDataId": null
  },
  {
    "id": 143939,
    "name": "Dualing",
    "state_id": 1270,
    "state_code": "BUK",
    "country_id": 174,
    "country_code": "PH",
    "latitude": "7.15166667",
    "longitude": "124.56833333",
    "wikiDataId": null
  },
  {
    "id": 143941,
    "name": "Dunguan",
    "state_id": 1270,
    "state_code": "BUK",
    "country_id": 174,
    "country_code": "PH",
    "latitude": "6.94972222",
    "longitude": "124.86083333",
    "wikiDataId": null
  },
  {
    "id": 143946,
    "name": "Glad",
    "state_id": 1270,
    "state_code": "BUK",
    "country_id": 174,
    "country_code": "PH",
    "latitude": "7.14833333",
    "longitude": "124.51805556",
    "wikiDataId": null
  },
  {
    "id": 143947,
    "name": "Glamang",
    "state_id": 1270,
    "state_code": "BUK",
    "country_id": 174,
    "country_code": "PH",
    "latitude": "6.16250000",
    "longitude": "125.08388889",
    "wikiDataId": null
  },
  {
    "id": 143949,
    "name": "Glan Peidu",
    "state_id": 1270,
    "state_code": "BUK",
    "country_id": 174,
    "country_code": "PH",
    "latitude": "5.85500000",
    "longitude": "125.21861111",
    "wikiDataId": null
  },
  {
    "id": 143950,
    "name": "Gocoton",
    "state_id": 1270,
    "state_code": "BUK",
    "country_id": 174,
    "country_code": "PH",
    "latitude": "7.15611111",
    "longitude": "124.69111111",
    "wikiDataId": null
  },
  {
    "id": 143952,
    "name": "Ilaya",
    "state_id": 1270,
    "state_code": "BUK",
    "country_id": 174,
    "country_code": "PH",
    "latitude": "5.81527778",
    "longitude": "125.22666667",
    "wikiDataId": null
  },
  {
    "id": 143955,
    "name": "Kabalen",
    "state_id": 1270,
    "state_code": "BUK",
    "country_id": 174,
    "country_code": "PH",
    "latitude": "6.31944444",
    "longitude": "125.01055556",
    "wikiDataId": null
  },
  {
    "id": 143956,
    "name": "Kablalan",
    "state_id": 1270,
    "state_code": "BUK",
    "country_id": 174,
    "country_code": "PH",
    "latitude": "5.77972222",
    "longitude": "125.19777778",
    "wikiDataId": null
  },
  {
    "id": 143957,
    "name": "Kalaisan",
    "state_id": 1270,
    "state_code": "BUK",
    "country_id": 174,
    "country_code": "PH",
    "latitude": "7.01027778",
    "longitude": "125.04500000",
    "wikiDataId": null
  },
  {
    "id": 143958,
    "name": "Kalamangog",
    "state_id": 1270,
    "state_code": "BUK",
    "country_id": 174,
    "country_code": "PH",
    "latitude": "6.72555556",
    "longitude": "124.06888889",
    "wikiDataId": null
  },
  {
    "id": 143960,
    "name": "Kamanga",
    "state_id": 1270,
    "state_code": "BUK",
    "country_id": 174,
    "country_code": "PH",
    "latitude": "5.85777778",
    "longitude": "125.05611111",
    "wikiDataId": null
  },
  {
    "id": 143961,
    "name": "Kapatan",
    "state_id": 1270,
    "state_code": "BUK",
    "country_id": 174,
    "country_code": "PH",
    "latitude": "5.90055556",
    "longitude": "125.23750000",
    "wikiDataId": null
  },
  {
    "id": 143964,
    "name": "Katubao",
    "state_id": 1270,
    "state_code": "BUK",
    "country_id": 174,
    "country_code": "PH",
    "latitude": "5.88916667",
    "longitude": "124.82944444",
    "wikiDataId": null
  },
  {
    "id": 143968,
    "name": "Kisante",
    "state_id": 1270,
    "state_code": "BUK",
    "country_id": 174,
    "country_code": "PH",
    "latitude": "6.92305556",
    "longitude": "125.15500000",
    "wikiDataId": null
  },
  {
    "id": 143969,
    "name": "Kiupo",
    "state_id": 1270,
    "state_code": "BUK",
    "country_id": 174,
    "country_code": "PH",
    "latitude": "5.84166667",
    "longitude": "125.31916667",
    "wikiDataId": null
  },
  {
    "id": 143970,
    "name": "Klinan",
    "state_id": 1270,
    "state_code": "BUK",
    "country_id": 174,
    "country_code": "PH",
    "latitude": "6.18694444",
    "longitude": "125.13694444",
    "wikiDataId": null
  },
  {
    "id": 143971,
    "name": "Kling",
    "state_id": 1270,
    "state_code": "BUK",
    "country_id": 174,
    "country_code": "PH",
    "latitude": "5.93805556",
    "longitude": "124.72472222",
    "wikiDataId": null
  },
  {
    "id": 143974,
    "name": "Kulaman",
    "state_id": 1270,
    "state_code": "BUK",
    "country_id": 174,
    "country_code": "PH",
    "latitude": "8.23950230",
    "longitude": "125.26484320",
    "wikiDataId": null
  },
  {
    "id": 143975,
    "name": "Labu-o",
    "state_id": 1270,
    "state_code": "BUK",
    "country_id": 174,
    "country_code": "PH",
    "latitude": "7.11416667",
    "longitude": "125.04527778",
    "wikiDataId": null
  },
  {
    "id": 143980,
    "name": "Lambontong",
    "state_id": 1270,
    "state_code": "BUK",
    "country_id": 174,
    "country_code": "PH",
    "latitude": "6.30833333",
    "longitude": "124.81055556",
    "wikiDataId": null
  },
  {
    "id": 143981,
    "name": "Lamian",
    "state_id": 1270,
    "state_code": "BUK",
    "country_id": 174,
    "country_code": "PH",
    "latitude": "6.30916667",
    "longitude": "124.84638889",
    "wikiDataId": null
  },
  {
    "id": 143983,
    "name": "Lampitak",
    "state_id": 1270,
    "state_code": "BUK",
    "country_id": 174,
    "country_code": "PH",
    "latitude": "6.43222222",
    "longitude": "125.05250000",
    "wikiDataId": null
  },
  {
    "id": 143988,
    "name": "Liberty",
    "state_id": 1270,
    "state_code": "BUK",
    "country_id": 174,
    "country_code": "PH",
    "latitude": "8.16189290",
    "longitude": "125.12713710",
    "wikiDataId": null
  },
  {
    "id": 143991,
    "name": "Liliongan",
    "state_id": 1270,
    "state_code": "BUK",
    "country_id": 174,
    "country_code": "PH",
    "latitude": "7.36277778",
    "longitude": "124.79277778",
    "wikiDataId": null
  },
  {
    "id": 143992,
    "name": "Limbalod",
    "state_id": 1270,
    "state_code": "BUK",
    "country_id": 174,
    "country_code": "PH",
    "latitude": "7.13277778",
    "longitude": "124.79888889",
    "wikiDataId": null
  },
  {
    "id": 143993,
    "name": "Limulan",
    "state_id": 1270,
    "state_code": "BUK",
    "country_id": 174,
    "country_code": "PH",
    "latitude": "6.58527778",
    "longitude": "124.06194444",
    "wikiDataId": null
  },
  {
    "id": 143995,
    "name": "Linao",
    "state_id": 1270,
    "state_code": "BUK",
    "country_id": 174,
    "country_code": "PH",
    "latitude": "7.16777778",
    "longitude": "124.96750000",
    "wikiDataId": null
  },
  {
    "id": 143997,
    "name": "Lumatil",
    "state_id": 1270,
    "state_code": "BUK",
    "country_id": 174,
    "country_code": "PH",
    "latitude": "5.87472222",
    "longitude": "124.88833333",
    "wikiDataId": null
  },
  {
    "id": 143998,
    "name": "Lumazal",
    "state_id": 1270,
    "state_code": "BUK",
    "country_id": 174,
    "country_code": "PH",
    "latitude": "5.88527778",
    "longitude": "124.84944444",
    "wikiDataId": null
  },
  {
    "id": 143999,
    "name": "Lumuyon",
    "state_id": 1270,
    "state_code": "BUK",
    "country_id": 174,
    "country_code": "PH",
    "latitude": "5.91583333",
    "longitude": "124.78694444",
    "wikiDataId": null
  },
  {
    "id": 144000,
    "name": "Lun Peque単o",
    "state_id": 1270,
    "state_code": "BUK",
    "country_id": 174,
    "country_code": "PH",
    "latitude": "6.03777778",
    "longitude": "125.28388889",
    "wikiDataId": null
  },
  {
    "id": 144001,
    "name": "Lunen",
    "state_id": 1270,
    "state_code": "BUK",
    "country_id": 174,
    "country_code": "PH",
    "latitude": "6.35916667",
    "longitude": "124.90472222",
    "wikiDataId": null
  },
  {
    "id": 144003,
    "name": "M'lang",
    "state_id": 1270,
    "state_code": "BUK",
    "country_id": 174,
    "country_code": "PH",
    "latitude": "6.95000000",
    "longitude": "124.88333333",
    "wikiDataId": null
  },
  {
    "id": 144005,
    "name": "Maan",
    "state_id": 1270,
    "state_code": "BUK",
    "country_id": 174,
    "country_code": "PH",
    "latitude": "5.93388889",
    "longitude": "124.73555556",
    "wikiDataId": null
  },
  {
    "id": 144007,
    "name": "Mabay",
    "state_id": 1270,
    "state_code": "BUK",
    "country_id": 174,
    "country_code": "PH",
    "latitude": "6.05777778",
    "longitude": "124.46666667",
    "wikiDataId": null
  },
  {
    "id": 144010,
    "name": "Maguling",
    "state_id": 1270,
    "state_code": "BUK",
    "country_id": 174,
    "country_code": "PH",
    "latitude": "6.09500000",
    "longitude": "124.40333333",
    "wikiDataId": null
  },
  {
    "id": 144015,
    "name": "Malamote",
    "state_id": 1270,
    "state_code": "BUK",
    "country_id": 174,
    "country_code": "PH",
    "latitude": "7.07388889",
    "longitude": "124.94000000",
    "wikiDataId": null
  },
  {
    "id": 144017,
    "name": "Malapag",
    "state_id": 1270,
    "state_code": "BUK",
    "country_id": 174,
    "country_code": "PH",
    "latitude": "7.13333333",
    "longitude": "124.81666667",
    "wikiDataId": null
  },
  {
    "id": 144019,
    "name": "Malasila",
    "state_id": 1270,
    "state_code": "BUK",
    "country_id": 174,
    "country_code": "PH",
    "latitude": "6.94388889",
    "longitude": "125.12944444",
    "wikiDataId": null
  },
  {
    "id": 144020,
    "name": "Malbang",
    "state_id": 1270,
    "state_code": "BUK",
    "country_id": 174,
    "country_code": "PH",
    "latitude": "5.85555556",
    "longitude": "125.04527778",
    "wikiDataId": null
  },
  {
    "id": 144021,
    "name": "Malingao",
    "state_id": 1270,
    "state_code": "BUK",
    "country_id": 174,
    "country_code": "PH",
    "latitude": "7.16083333",
    "longitude": "124.47500000",
    "wikiDataId": null
  },
  {
    "id": 144022,
    "name": "Malisbeng",
    "state_id": 1270,
    "state_code": "BUK",
    "country_id": 174,
    "country_code": "PH",
    "latitude": "6.12000000",
    "longitude": "124.35472222",
    "wikiDataId": null
  },
  {
    "id": 144023,
    "name": "Malitubog",
    "state_id": 1270,
    "state_code": "BUK",
    "country_id": 174,
    "country_code": "PH",
    "latitude": "7.31555556",
    "longitude": "124.63805556",
    "wikiDataId": null
  },
  {
    "id": 144027,
    "name": "Manaulanan",
    "state_id": 1270,
    "state_code": "BUK",
    "country_id": 174,
    "country_code": "PH",
    "latitude": "7.04805556",
    "longitude": "124.61944444",
    "wikiDataId": null
  },
  {
    "id": 144028,
    "name": "Manga",
    "state_id": 1270,
    "state_code": "BUK",
    "country_id": 174,
    "country_code": "PH",
    "latitude": "6.29083333",
    "longitude": "125.30833333",
    "wikiDataId": null
  },
  {
    "id": 144029,
    "name": "Manuangan",
    "state_id": 1270,
    "state_code": "BUK",
    "country_id": 174,
    "country_code": "PH",
    "latitude": "7.27694444",
    "longitude": "124.40444444",
    "wikiDataId": null
  },
  {
    "id": 144030,
    "name": "Manuel Roxas",
    "state_id": 1270,
    "state_code": "BUK",
    "country_id": 174,
    "country_code": "PH",
    "latitude": "7.90526540",
    "longitude": "125.09229240",
    "wikiDataId": null
  },
  {
    "id": 144031,
    "name": "Marbel",
    "state_id": 1270,
    "state_code": "BUK",
    "country_id": 174,
    "country_code": "PH",
    "latitude": "7.11583333",
    "longitude": "124.91250000",
    "wikiDataId": null
  },
  {
    "id": 144032,
    "name": "Mariano Marcos",
    "state_id": 1270,
    "state_code": "BUK",
    "country_id": 174,
    "country_code": "PH",
    "latitude": "6.73333000",
    "longitude": "124.65000000",
    "wikiDataId": null
  },
  {
    "id": 144036,
    "name": "Minapan",
    "state_id": 1270,
    "state_code": "BUK",
    "country_id": 174,
    "country_code": "PH",
    "latitude": "6.81500000",
    "longitude": "124.85861111",
    "wikiDataId": null
  },
  {
    "id": 144037,
    "name": "Mindupok",
    "state_id": 1270,
    "state_code": "BUK",
    "country_id": 174,
    "country_code": "PH",
    "latitude": "6.09055556",
    "longitude": "124.42333333",
    "wikiDataId": null
  },
  {
    "id": 144038,
    "name": "Nalus",
    "state_id": 1270,
    "state_code": "BUK",
    "country_id": 174,
    "country_code": "PH",
    "latitude": "6.01222222",
    "longitude": "124.58527778",
    "wikiDataId": null
  },
  {
    "id": 144039,
    "name": "New Cebu",
    "state_id": 1270,
    "state_code": "BUK",
    "country_id": 174,
    "country_code": "PH",
    "latitude": "7.09527778",
    "longitude": "125.03361111",
    "wikiDataId": null
  },
  {
    "id": 144040,
    "name": "New Iloilo",
    "state_id": 1270,
    "state_code": "BUK",
    "country_id": 174,
    "country_code": "PH",
    "latitude": "7.71181830",
    "longitude": "124.82108790",
    "wikiDataId": null
  },
  {
    "id": 144043,
    "name": "Noling",
    "state_id": 1270,
    "state_code": "BUK",
    "country_id": 174,
    "country_code": "PH",
    "latitude": "6.65972222",
    "longitude": "124.09972222",
    "wikiDataId": null
  },
  {
    "id": 144046,
    "name": "Osias",
    "state_id": 1270,
    "state_code": "BUK",
    "country_id": 174,
    "country_code": "PH",
    "latitude": "7.60000000",
    "longitude": "124.81666667",
    "wikiDataId": null
  },
  {
    "id": 144047,
    "name": "Paatan",
    "state_id": 1270,
    "state_code": "BUK",
    "country_id": 174,
    "country_code": "PH",
    "latitude": "7.11972222",
    "longitude": "124.92388889",
    "wikiDataId": null
  },
  {
    "id": 144049,
    "name": "Pagangan",
    "state_id": 1270,
    "state_code": "BUK",
    "country_id": 174,
    "country_code": "PH",
    "latitude": "7.11444444",
    "longitude": "124.59527778",
    "wikiDataId": null
  },
  {
    "id": 144052,
    "name": "Palkan",
    "state_id": 1270,
    "state_code": "BUK",
    "country_id": 174,
    "country_code": "PH",
    "latitude": "6.29638889",
    "longitude": "125.03166667",
    "wikiDataId": null
  },
  {
    "id": 144055,
    "name": "Pangyan",
    "state_id": 1270,
    "state_code": "BUK",
    "country_id": 174,
    "country_code": "PH",
    "latitude": "5.70083333",
    "longitude": "125.28111111",
    "wikiDataId": null
  },
  {
    "id": 144057,
    "name": "Patindeguen",
    "state_id": 1270,
    "state_code": "BUK",
    "country_id": 174,
    "country_code": "PH",
    "latitude": "7.21972222",
    "longitude": "124.49833333",
    "wikiDataId": null
  },
  {
    "id": 144058,
    "name": "Pedtad",
    "state_id": 1270,
    "state_code": "BUK",
    "country_id": 174,
    "country_code": "PH",
    "latitude": "7.16055556",
    "longitude": "124.81444444",
    "wikiDataId": null
  },
  {
    "id": 144062,
    "name": "Pimbalayan",
    "state_id": 1270,
    "state_code": "BUK",
    "country_id": 174,
    "country_code": "PH",
    "latitude": "6.86916667",
    "longitude": "124.67250000",
    "wikiDataId": null
  },
  {
    "id": 144063,
    "name": "Polo",
    "state_id": 1270,
    "state_code": "BUK",
    "country_id": 174,
    "country_code": "PH",
    "latitude": "6.26472222",
    "longitude": "125.11250000",
    "wikiDataId": null
  },
  {
    "id": 144068,
    "name": "Puloypuloy",
    "state_id": 1270,
    "state_code": "BUK",
    "country_id": 174,
    "country_code": "PH",
    "latitude": "6.63527778",
    "longitude": "124.09611111",
    "wikiDataId": null
  },
  {
    "id": 144069,
    "name": "Punolu",
    "state_id": 1270,
    "state_code": "BUK",
    "country_id": 174,
    "country_code": "PH",
    "latitude": "7.05000000",
    "longitude": "124.58333333",
    "wikiDataId": null
  },
  {
    "id": 144070,
    "name": "Puricay",
    "state_id": 1270,
    "state_code": "BUK",
    "country_id": 174,
    "country_code": "PH",
    "latitude": "6.68611111",
    "longitude": "124.06944444",
    "wikiDataId": null
  },
  {
    "id": 144071,
    "name": "Ragandang",
    "state_id": 1270,
    "state_code": "BUK",
    "country_id": 174,
    "country_code": "PH",
    "latitude": "6.66388889",
    "longitude": "124.12055556",
    "wikiDataId": null
  },
  {
    "id": 144072,
    "name": "Rotunda",
    "state_id": 1270,
    "state_code": "BUK",
    "country_id": 174,
    "country_code": "PH",
    "latitude": "7.98350530",
    "longitude": "125.00771560",
    "wikiDataId": null
  },
  {
    "id": 144074,
    "name": "Saguing",
    "state_id": 1270,
    "state_code": "BUK",
    "country_id": 174,
    "country_code": "PH",
    "latitude": "6.98027778",
    "longitude": "125.07805556",
    "wikiDataId": null
  },
  {
    "id": 144075,
    "name": "Salimbao",
    "state_id": 1270,
    "state_code": "BUK",
    "country_id": 174,
    "country_code": "PH",
    "latitude": "7.22250000",
    "longitude": "124.25333333",
    "wikiDataId": null
  },
  {
    "id": 144076,
    "name": "Salunayan",
    "state_id": 1270,
    "state_code": "BUK",
    "country_id": 174,
    "country_code": "PH",
    "latitude": "7.15444444",
    "longitude": "124.49750000",
    "wikiDataId": null
  },
  {
    "id": 144077,
    "name": "Sampao",
    "state_id": 1270,
    "state_code": "BUK",
    "country_id": 174,
    "country_code": "PH",
    "latitude": "6.87666667",
    "longitude": "124.59555556",
    "wikiDataId": null
  },
  {
    "id": 144078,
    "name": "San Miguel",
    "state_id": 1270,
    "state_code": "BUK",
    "country_id": 174,
    "country_code": "PH",
    "latitude": "6.49245000",
    "longitude": "124.69643000",
    "wikiDataId": null
  },
  {
    "id": 144079,
    "name": "San Vicente",
    "state_id": 1270,
    "state_code": "BUK",
    "country_id": 174,
    "country_code": "PH",
    "latitude": "6.45375000",
    "longitude": "124.78005000",
    "wikiDataId": null
  },
  {
    "id": 144083,
    "name": "Sa単gay",
    "state_id": 1270,
    "state_code": "BUK",
    "country_id": 174,
    "country_code": "PH",
    "latitude": "6.44500000",
    "longitude": "124.04444444",
    "wikiDataId": null
  },
  {
    "id": 144080,
    "name": "Santo Ni単o",
    "state_id": 1270,
    "state_code": "BUK",
    "country_id": 174,
    "country_code": "PH",
    "latitude": "6.45733000",
    "longitude": "124.66819000",
    "wikiDataId": null
  },
  {
    "id": 144082,
    "name": "Sapu Padidu",
    "state_id": 1270,
    "state_code": "BUK",
    "country_id": 174,
    "country_code": "PH",
    "latitude": "5.91722222",
    "longitude": "125.26694444",
    "wikiDataId": null
  },
  {
    "id": 144084,
    "name": "Sebu",
    "state_id": 1270,
    "state_code": "BUK",
    "country_id": 174,
    "country_code": "PH",
    "latitude": "6.22482000",
    "longitude": "124.71042000",
    "wikiDataId": null
  },
  {
    "id": 144085,
    "name": "Silway 7",
    "state_id": 1270,
    "state_code": "BUK",
    "country_id": 174,
    "country_code": "PH",
    "latitude": "6.17722222",
    "longitude": "125.12055556",
    "wikiDataId": null
  },
  {
    "id": 144086,
    "name": "Sinolon",
    "state_id": 1270,
    "state_code": "BUK",
    "country_id": 174,
    "country_code": "PH",
    "latitude": "6.24388889",
    "longitude": "124.81444444",
    "wikiDataId": null
  },
  {
    "id": 144087,
    "name": "Sulit",
    "state_id": 1270,
    "state_code": "BUK",
    "country_id": 174,
    "country_code": "PH",
    "latitude": "6.23611111",
    "longitude": "125.02055556",
    "wikiDataId": null
  },
  {
    "id": 144089,
    "name": "Suyan",
    "state_id": 1270,
    "state_code": "BUK",
    "country_id": 174,
    "country_code": "PH",
    "latitude": "6.06027778",
    "longitude": "125.38527778",
    "wikiDataId": null
  },
  {
    "id": 144090,
    "name": "T'boli",
    "state_id": 1270,
    "state_code": "BUK",
    "country_id": 174,
    "country_code": "PH",
    "latitude": "6.15000000",
    "longitude": "124.78333000",
    "wikiDataId": null
  },
  {
    "id": 144092,
    "name": "Taguisa",
    "state_id": 1270,
    "state_code": "BUK",
    "country_id": 174,
    "country_code": "PH",
    "latitude": "6.69833333",
    "longitude": "124.03583333",
    "wikiDataId": null
  },
  {
    "id": 144093,
    "name": "Taluya",
    "state_id": 1270,
    "state_code": "BUK",
    "country_id": 174,
    "country_code": "PH",
    "latitude": "5.81166667",
    "longitude": "125.17277778",
    "wikiDataId": null
  },
  {
    "id": 144095,
    "name": "Tambilil",
    "state_id": 1270,
    "state_code": "BUK",
    "country_id": 174,
    "country_code": "PH",
    "latitude": "5.96222222",
    "longitude": "124.66972222",
    "wikiDataId": null
  },
  {
    "id": 144099,
    "name": "Ta単go",
    "state_id": 1270,
    "state_code": "BUK",
    "country_id": 174,
    "country_code": "PH",
    "latitude": "5.88083333",
    "longitude": "125.22194444",
    "wikiDataId": null
  },
  {
    "id": 144101,
    "name": "Teresita",
    "state_id": 1270,
    "state_code": "BUK",
    "country_id": 174,
    "country_code": "PH",
    "latitude": "8.26147000",
    "longitude": "124.27934000",
    "wikiDataId": null
  },
  {
    "id": 144102,
    "name": "Tinoto",
    "state_id": 1270,
    "state_code": "BUK",
    "country_id": 174,
    "country_code": "PH",
    "latitude": "5.88666667",
    "longitude": "125.07055556",
    "wikiDataId": null
  },
  {
    "id": 144103,
    "name": "Tomado",
    "state_id": 1270,
    "state_code": "BUK",
    "country_id": 174,
    "country_code": "PH",
    "latitude": "7.19250000",
    "longitude": "124.60805556",
    "wikiDataId": null
  },
  {
    "id": 144104,
    "name": "Tran",
    "state_id": 1270,
    "state_code": "BUK",
    "country_id": 174,
    "country_code": "PH",
    "latitude": "6.72027778",
    "longitude": "124.05500000",
    "wikiDataId": null
  },
  {
    "id": 144108,
    "name": "Tuyan",
    "state_id": 1270,
    "state_code": "BUK",
    "country_id": 174,
    "country_code": "PH",
    "latitude": "6.00000000",
    "longitude": "125.28333333",
    "wikiDataId": null
  },
  {
    "id": 144109,
    "name": "Upper Klinan",
    "state_id": 1270,
    "state_code": "BUK",
    "country_id": 174,
    "country_code": "PH",
    "latitude": "6.22722222",
    "longitude": "125.12083333",
    "wikiDataId": null
  },
  {
    "id": 144110,
    "name": "Upper San Mateo",
    "state_id": 1270,
    "state_code": "BUK",
    "country_id": 174,
    "country_code": "PH",
    "latitude": "7.17305556",
    "longitude": "124.58222222",
    "wikiDataId": null
  }
]