[
  {
    "id": 670,
    "name": "Armstrong",
    "state_id": 3641,
    "state_code": "S",
    "country_id": 11,
    "country_code": "AR",
    "latitude": "-32.78215000",
    "longitude": "-61.60222000",
    "wikiDataId": null
  },
  {
    "id": 673,
    "name": "Arroyo Seco",
    "state_id": 3641,
    "state_code": "S",
    "country_id": 11,
    "country_code": "AR",
    "latitude": "-33.15489000",
    "longitude": "-60.50863000",
    "wikiDataId": null
  },
  {
    "id": 675,
    "name": "Arrufó",
    "state_id": 3641,
    "state_code": "S",
    "country_id": 11,
    "country_code": "AR",
    "latitude": "-30.23281000",
    "longitude": "-61.72862000",
    "wikiDataId": null
  },
  {
    "id": 676,
    "name": "Avellaneda",
    "state_id": 3641,
    "state_code": "S",
    "country_id": 11,
    "country_code": "AR",
    "latitude": "-29.11761000",
    "longitude": "-59.65834000",
    "wikiDataId": null
  },
  {
    "id": 689,
    "name": "Bella Italia",
    "state_id": 3641,
    "state_code": "S",
    "country_id": 11,
    "country_code": "AR",
    "latitude": "-31.28182000",
    "longitude": "-61.41092000",
    "wikiDataId": null
  },
  {
    "id": 710,
    "name": "Calchaquí",
    "state_id": 3641,
    "state_code": "S",
    "country_id": 11,
    "country_code": "AR",
    "latitude": "-29.88767000",
    "longitude": "-60.28697000",
    "wikiDataId": null
  },
  {
    "id": 743,
    "name": "Cañada de Gómez",
    "state_id": 3641,
    "state_code": "S",
    "country_id": 11,
    "country_code": "AR",
    "latitude": "-32.81636000",
    "longitude": "-61.39493000",
    "wikiDataId": null
  },
  {
    "id": 729,
    "name": "Capitán Bermúdez",
    "state_id": 3641,
    "state_code": "S",
    "country_id": 11,
    "country_code": "AR",
    "latitude": "-32.82262000",
    "longitude": "-60.71852000",
    "wikiDataId": null
  },
  {
    "id": 732,
    "name": "Carcarañá",
    "state_id": 3641,
    "state_code": "S",
    "country_id": 11,
    "country_code": "AR",
    "latitude": "-32.85679000",
    "longitude": "-61.15331000",
    "wikiDataId": null
  },
  {
    "id": 736,
    "name": "Casilda",
    "state_id": 3641,
    "state_code": "S",
    "country_id": 11,
    "country_code": "AR",
    "latitude": "-33.04417000",
    "longitude": "-61.16806000",
    "wikiDataId": null
  },
  {
    "id": 747,
    "name": "Ceres",
    "state_id": 3641,
    "state_code": "S",
    "country_id": 11,
    "country_code": "AR",
    "latitude": "-29.88100000",
    "longitude": "-61.94504000",
    "wikiDataId": null
  },
  {
    "id": 758,
    "name": "Chañar Ladeado",
    "state_id": 3641,
    "state_code": "S",
    "country_id": 11,
    "country_code": "AR",
    "latitude": "-33.32524000",
    "longitude": "-62.03831000",
    "wikiDataId": null
  },
  {
    "id": 796,
    "name": "Coronda",
    "state_id": 3641,
    "state_code": "S",
    "country_id": 11,
    "country_code": "AR",
    "latitude": "-31.97263000",
    "longitude": "-60.91983000",
    "wikiDataId": null
  },
  {
    "id": 835,
    "name": "Departamento de Belgrano",
    "state_id": 3641,
    "state_code": "S",
    "country_id": 11,
    "country_code": "AR",
    "latitude": "-32.50000000",
    "longitude": "-61.75000000",
    "wikiDataId": null
  },
  {
    "id": 853,
    "name": "Departamento de Caseros",
    "state_id": 3641,
    "state_code": "S",
    "country_id": 11,
    "country_code": "AR",
    "latitude": "-33.25000000",
    "longitude": "-61.66667000",
    "wikiDataId": null
  },
  {
    "id": 854,
    "name": "Departamento de Castellanos",
    "state_id": 3641,
    "state_code": "S",
    "country_id": 11,
    "country_code": "AR",
    "latitude": "-31.16667000",
    "longitude": "-61.66667000",
    "wikiDataId": null
  },
  {
    "id": 869,
    "name": "Departamento de Constitución",
    "state_id": 3641,
    "state_code": "S",
    "country_id": 11,
    "country_code": "AR",
    "latitude": "-33.50000000",
    "longitude": "-60.91667000",
    "wikiDataId": null
  },
  {
    "id": 916,
    "name": "Departamento de La Capital",
    "state_id": 3641,
    "state_code": "S",
    "country_id": 11,
    "country_code": "AR",
    "latitude": "-31.50000000",
    "longitude": "-60.66667000",
    "wikiDataId": null
  },
  {
    "id": 951,
    "name": "Departamento de Nueve de Julio",
    "state_id": 3641,
    "state_code": "S",
    "country_id": 11,
    "country_code": "AR",
    "latitude": "-28.83333000",
    "longitude": "-61.33333000",
    "wikiDataId": null
  },
  {
    "id": 985,
    "name": "Departamento de San Cristóbal",
    "state_id": 3641,
    "state_code": "S",
    "country_id": 11,
    "country_code": "AR",
    "latitude": "-30.33333000",
    "longitude": "-61.33333000",
    "wikiDataId": null
  },
  {
    "id": 988,
    "name": "Departamento de San Javier",
    "state_id": 3641,
    "state_code": "S",
    "country_id": 11,
    "country_code": "AR",
    "latitude": "-30.33333000",
    "longitude": "-59.91667000",
    "wikiDataId": null
  },
  {
    "id": 992,
    "name": "Departamento de San Justo",
    "state_id": 3641,
    "state_code": "S",
    "country_id": 11,
    "country_code": "AR",
    "latitude": "-30.66667000",
    "longitude": "-60.50000000",
    "wikiDataId": null
  },
  {
    "id": 993,
    "name": "Departamento de San Lorenzo",
    "state_id": 3641,
    "state_code": "S",
    "country_id": 11,
    "country_code": "AR",
    "latitude": "-33.00000000",
    "longitude": "-61.00000000",
    "wikiDataId": null
  },
  {
    "id": 1000,
    "name": "Departamento de San Martín",
    "state_id": 3641,
    "state_code": "S",
    "country_id": 11,
    "country_code": "AR",
    "latitude": "-32.00000000",
    "longitude": "-61.83333000",
    "wikiDataId": null
  },
  {
    "id": 1033,
    "name": "Departamento de Vera",
    "state_id": 3641,
    "state_code": "S",
    "country_id": 11,
    "country_code": "AR",
    "latitude": "-29.00000000",
    "longitude": "-60.50000000",
    "wikiDataId": null
  },
  {
    "id": 1062,
    "name": "El Trébol",
    "state_id": 3641,
    "state_code": "S",
    "country_id": 11,
    "country_code": "AR",
    "latitude": "-32.20080000",
    "longitude": "-61.70140000",
    "wikiDataId": null
  },
  {
    "id": 1069,
    "name": "Esperanza",
    "state_id": 3641,
    "state_code": "S",
    "country_id": 11,
    "country_code": "AR",
    "latitude": "-31.44880000",
    "longitude": "-60.93173000",
    "wikiDataId": null
  },
  {
    "id": 1079,
    "name": "Firmat",
    "state_id": 3641,
    "state_code": "S",
    "country_id": 11,
    "country_code": "AR",
    "latitude": "-33.45937000",
    "longitude": "-61.48320000",
    "wikiDataId": null
  },
  {
    "id": 1084,
    "name": "Fray Luis A. Beltrán",
    "state_id": 3641,
    "state_code": "S",
    "country_id": 11,
    "country_code": "AR",
    "latitude": "-32.79122000",
    "longitude": "-60.72819000",
    "wikiDataId": null
  },
  {
    "id": 1086,
    "name": "Funes",
    "state_id": 3641,
    "state_code": "S",
    "country_id": 11,
    "country_code": "AR",
    "latitude": "-32.91568000",
    "longitude": "-60.80995000",
    "wikiDataId": null
  },
  {
    "id": 1131,
    "name": "Gálvez",
    "state_id": 3641,
    "state_code": "S",
    "country_id": 11,
    "country_code": "AR",
    "latitude": "-32.02927000",
    "longitude": "-61.22103000",
    "wikiDataId": null
  },
  {
    "id": 1093,
    "name": "Gato Colorado",
    "state_id": 3641,
    "state_code": "S",
    "country_id": 11,
    "country_code": "AR",
    "latitude": "-28.02219000",
    "longitude": "-61.18663000",
    "wikiDataId": null
  },
  {
    "id": 1117,
    "name": "Gobernador Gálvez",
    "state_id": 3641,
    "state_code": "S",
    "country_id": 11,
    "country_code": "AR",
    "latitude": "-33.03016000",
    "longitude": "-60.64045000",
    "wikiDataId": null
  },
  {
    "id": 1124,
    "name": "Granadero Baigorria",
    "state_id": 3641,
    "state_code": "S",
    "country_id": 11,
    "country_code": "AR",
    "latitude": "-32.85683000",
    "longitude": "-60.71754000",
    "wikiDataId": null
  },
  {
    "id": 1133,
    "name": "Helvecia",
    "state_id": 3641,
    "state_code": "S",
    "country_id": 11,
    "country_code": "AR",
    "latitude": "-31.09834000",
    "longitude": "-60.08830000",
    "wikiDataId": null
  },
  {
    "id": 1140,
    "name": "Hersilia",
    "state_id": 3641,
    "state_code": "S",
    "country_id": 11,
    "country_code": "AR",
    "latitude": "-30.00447000",
    "longitude": "-61.84080000",
    "wikiDataId": null
  },
  {
    "id": 1158,
    "name": "Iriondo Department",
    "state_id": 3641,
    "state_code": "S",
    "country_id": 11,
    "country_code": "AR",
    "latitude": "-32.63333000",
    "longitude": "-61.33333000",
    "wikiDataId": null
  },
  {
    "id": 1210,
    "name": "Laguna Paiva",
    "state_id": 3641,
    "state_code": "S",
    "country_id": 11,
    "country_code": "AR",
    "latitude": "-31.30391000",
    "longitude": "-60.65894000",
    "wikiDataId": null
  },
  {
    "id": 1227,
    "name": "Las Parejas",
    "state_id": 3641,
    "state_code": "S",
    "country_id": 11,
    "country_code": "AR",
    "latitude": "-32.68478000",
    "longitude": "-61.51637000",
    "wikiDataId": null
  },
  {
    "id": 1230,
    "name": "Las Rosas",
    "state_id": 3641,
    "state_code": "S",
    "country_id": 11,
    "country_code": "AR",
    "latitude": "-32.47661000",
    "longitude": "-61.58041000",
    "wikiDataId": null
  },
  {
    "id": 1231,
    "name": "Las Toscas",
    "state_id": 3641,
    "state_code": "S",
    "country_id": 11,
    "country_code": "AR",
    "latitude": "-28.35290000",
    "longitude": "-59.25795000",
    "wikiDataId": null
  },
  {
    "id": 1252,
    "name": "Los Laureles",
    "state_id": 3641,
    "state_code": "S",
    "country_id": 11,
    "country_code": "AR",
    "latitude": "-29.36847000",
    "longitude": "-59.73634000",
    "wikiDataId": null
  },
  {
    "id": 1265,
    "name": "Malabrigo",
    "state_id": 3641,
    "state_code": "S",
    "country_id": 11,
    "country_code": "AR",
    "latitude": "-29.34636000",
    "longitude": "-59.96957000",
    "wikiDataId": null
  },
  {
    "id": 1276,
    "name": "Melincué",
    "state_id": 3641,
    "state_code": "S",
    "country_id": 11,
    "country_code": "AR",
    "latitude": "-33.65847000",
    "longitude": "-61.45459000",
    "wikiDataId": null
  },
  {
    "id": 1366,
    "name": "Pérez",
    "state_id": 3641,
    "state_code": "S",
    "country_id": 11,
    "country_code": "AR",
    "latitude": "-32.99835000",
    "longitude": "-60.76791000",
    "wikiDataId": null
  },
  {
    "id": 1372,
    "name": "Rafaela",
    "state_id": 3641,
    "state_code": "S",
    "country_id": 11,
    "country_code": "AR",
    "latitude": "-31.25033000",
    "longitude": "-61.48670000",
    "wikiDataId": null
  },
  {
    "id": 1376,
    "name": "Reconquista",
    "state_id": 3641,
    "state_code": "S",
    "country_id": 11,
    "country_code": "AR",
    "latitude": "-29.15000000",
    "longitude": "-59.65000000",
    "wikiDataId": null
  },
  {
    "id": 1377,
    "name": "Recreo",
    "state_id": 3641,
    "state_code": "S",
    "country_id": 11,
    "country_code": "AR",
    "latitude": "-31.49076000",
    "longitude": "-60.73299000",
    "wikiDataId": null
  },
  {
    "id": 1383,
    "name": "Roldán",
    "state_id": 3641,
    "state_code": "S",
    "country_id": 11,
    "country_code": "AR",
    "latitude": "-32.89846000",
    "longitude": "-60.90681000",
    "wikiDataId": null
  },
  {
    "id": 1384,
    "name": "Rosario",
    "state_id": 3641,
    "state_code": "S",
    "country_id": 11,
    "country_code": "AR",
    "latitude": "-32.94682000",
    "longitude": "-60.63932000",
    "wikiDataId": null
  },
  {
    "id": 1386,
    "name": "Rufino",
    "state_id": 3641,
    "state_code": "S",
    "country_id": 11,
    "country_code": "AR",
    "latitude": "-34.26827000",
    "longitude": "-62.71262000",
    "wikiDataId": null
  },
  {
    "id": 1417,
    "name": "San Carlos Centro",
    "state_id": 3641,
    "state_code": "S",
    "country_id": 11,
    "country_code": "AR",
    "latitude": "-31.72864000",
    "longitude": "-61.09192000",
    "wikiDataId": null
  },
  {
    "id": 1420,
    "name": "San Cristóbal",
    "state_id": 3641,
    "state_code": "S",
    "country_id": 11,
    "country_code": "AR",
    "latitude": "-30.31053000",
    "longitude": "-61.23724000",
    "wikiDataId": null
  },
  {
    "id": 1427,
    "name": "San Javier",
    "state_id": 3641,
    "state_code": "S",
    "country_id": 11,
    "country_code": "AR",
    "latitude": "-30.57781000",
    "longitude": "-59.93170000",
    "wikiDataId": null
  },
  {
    "id": 1428,
    "name": "San Jorge",
    "state_id": 3641,
    "state_code": "S",
    "country_id": 11,
    "country_code": "AR",
    "latitude": "-31.89618000",
    "longitude": "-61.85984000",
    "wikiDataId": null
  },
  {
    "id": 1436,
    "name": "San Justo",
    "state_id": 3641,
    "state_code": "S",
    "country_id": 11,
    "country_code": "AR",
    "latitude": "-30.78913000",
    "longitude": "-60.59189000",
    "wikiDataId": null
  },
  {
    "id": 1458,
    "name": "Santa Fe",
    "state_id": 3641,
    "state_code": "S",
    "country_id": 11,
    "country_code": "AR",
    "latitude": "-31.64881000",
    "longitude": "-60.70868000",
    "wikiDataId": null
  },
  {
    "id": 1475,
    "name": "Santo Tomé",
    "state_id": 3641,
    "state_code": "S",
    "country_id": 11,
    "country_code": "AR",
    "latitude": "-31.66274000",
    "longitude": "-60.76530000",
    "wikiDataId": null
  },
  {
    "id": 1478,
    "name": "Sastre",
    "state_id": 3641,
    "state_code": "S",
    "country_id": 11,
    "country_code": "AR",
    "latitude": "-31.76762000",
    "longitude": "-61.82887000",
    "wikiDataId": null
  },
  {
    "id": 1490,
    "name": "Sunchales",
    "state_id": 3641,
    "state_code": "S",
    "country_id": 11,
    "country_code": "AR",
    "latitude": "-30.94404000",
    "longitude": "-61.56148000",
    "wikiDataId": null
  },
  {
    "id": 1494,
    "name": "Tacuarendí",
    "state_id": 3641,
    "state_code": "S",
    "country_id": 11,
    "country_code": "AR",
    "latitude": "-28.41265000",
    "longitude": "-59.26000000",
    "wikiDataId": null
  },
  {
    "id": 1509,
    "name": "Tostado",
    "state_id": 3641,
    "state_code": "S",
    "country_id": 11,
    "country_code": "AR",
    "latitude": "-29.23202000",
    "longitude": "-61.76917000",
    "wikiDataId": null
  },
  {
    "id": 1510,
    "name": "Totoras",
    "state_id": 3641,
    "state_code": "S",
    "country_id": 11,
    "country_code": "AR",
    "latitude": "-32.58440000",
    "longitude": "-61.16852000",
    "wikiDataId": null
  },
  {
    "id": 1529,
    "name": "Venado Tuerto",
    "state_id": 3641,
    "state_code": "S",
    "country_id": 11,
    "country_code": "AR",
    "latitude": "-33.74556000",
    "longitude": "-61.96885000",
    "wikiDataId": null
  },
  {
    "id": 1530,
    "name": "Vera",
    "state_id": 3641,
    "state_code": "S",
    "country_id": 11,
    "country_code": "AR",
    "latitude": "-29.45930000",
    "longitude": "-60.21261000",
    "wikiDataId": null
  },
  {
    "id": 1545,
    "name": "Villa Cañás",
    "state_id": 3641,
    "state_code": "S",
    "country_id": 11,
    "country_code": "AR",
    "latitude": "-34.00565000",
    "longitude": "-61.60757000",
    "wikiDataId": null
  },
  {
    "id": 1547,
    "name": "Villa Constitución",
    "state_id": 3641,
    "state_code": "S",
    "country_id": 11,
    "country_code": "AR",
    "latitude": "-33.22778000",
    "longitude": "-60.32970000",
    "wikiDataId": null
  },
  {
    "id": 1566,
    "name": "Villa Mugueta",
    "state_id": 3641,
    "state_code": "S",
    "country_id": 11,
    "country_code": "AR",
    "latitude": "-33.31129000",
    "longitude": "-61.05515000",
    "wikiDataId": null
  },
  {
    "id": 1568,
    "name": "Villa Ocampo",
    "state_id": 3641,
    "state_code": "S",
    "country_id": 11,
    "country_code": "AR",
    "latitude": "-28.48752000",
    "longitude": "-59.35515000",
    "wikiDataId": null
  },
  {
    "id": 1577,
    "name": "Villa Trinidad",
    "state_id": 3641,
    "state_code": "S",
    "country_id": 11,
    "country_code": "AR",
    "latitude": "-30.21329000",
    "longitude": "-61.87597000",
    "wikiDataId": null
  }
]