[
  {
    "id": 1014,
    "name": "Agder",
    "country_id": 165,
    "country_code": "NO",
    "state_code": "42",
    "type": "county",
    "latitude": "58.71944230",
    "longitude": "8.03496350",
    "iso3166_2": "NO-42",
    "native": "Agder",
    "timezone": "Europe/Oslo"
  },
  {
    "id": 5448,
    "name": "Akershus",
    "country_id": 165,
    "country_code": "NO",
    "state_code": "32",
    "type": "county",
    "latitude": "60.03122150",
    "longitude": "11.31746190",
    "iso3166_2": "NO-32",
    "native": "Akershus",
    "timezone": "Europe/Oslo"
  },
  {
    "id": 5449,
    "name": "Buskerud",
    "country_id": 165,
    "country_code": "NO",
    "state_code": "33",
    "type": "county",
    "latitude": "60.24978760",
    "longitude": "8.96278680",
    "iso3166_2": "NO-33",
    "native": "Buskerud",
    "timezone": "Europe/Oslo"
  },
  {
    "id": 1015,
    "name": "Finnmark",
    "country_id": 165,
    "country_code": "NO",
    "state_code": "56",
    "type": "county",
    "latitude": "69.96977350",
    "longitude": "24.76857880",
    "iso3166_2": "NO-56",
    "native": "Finnmark",
    "timezone": "Europe/Oslo"
  },
  {
    "id": 1009,
    "name": "Innlandet",
    "country_id": 165,
    "country_code": "NO",
    "state_code": "34",
    "type": "county",
    "latitude": "63.10478260",
    "longitude": "7.73517930",
    "iso3166_2": "NO-34",
    "native": "Innlandet",
    "timezone": "Europe/Oslo"
  },
  {
    "id": 1026,
    "name": "Jan Mayen",
    "country_id": 165,
    "country_code": "NO",
    "state_code": "22",
    "type": "arctic region",
    "latitude": "70.99314710",
    "longitude": "-8.35206590",
    "iso3166_2": "NO-22",
    "native": "Jan Mayen",
    "timezone": "Europe/Oslo"
  },
  {
    "id": 1020,
    "name": "Møre og Romsdal",
    "country_id": 165,
    "country_code": "NO",
    "state_code": "15",
    "type": "county",
    "latitude": "62.84527770",
    "longitude": "7.51819410",
    "iso3166_2": "NO-15",
    "native": "Møre og Romsdal",
    "timezone": "Europe/Oslo"
  },
  {
    "id": 1025,
    "name": "Nordland",
    "country_id": 165,
    "country_code": "NO",
    "state_code": "18",
    "type": "county",
    "latitude": "67.27564050",
    "longitude": "13.86236060",
    "iso3166_2": "NO-18",
    "native": "Nordland",
    "timezone": "Europe/Oslo"
  },
  {
    "id": 1007,
    "name": "Oslo",
    "country_id": 165,
    "country_code": "NO",
    "state_code": "03",
    "type": "county",
    "latitude": "59.91386880",
    "longitude": "10.75224540",
    "iso3166_2": "NO-03",
    "native": "Oslo",
    "timezone": "Europe/Oslo"
  },
  {
    "id": 5450,
    "name": "Østfold",
    "country_id": 165,
    "country_code": "NO",
    "state_code": "31",
    "type": "county",
    "latitude": "59.26693020",
    "longitude": "11.20857190",
    "iso3166_2": "NO-31",
    "native": "Østfold",
    "timezone": "Europe/Oslo"
  },
  {
    "id": 1021,
    "name": "Rogaland",
    "country_id": 165,
    "country_code": "NO",
    "state_code": "11",
    "type": "county",
    "latitude": "58.93631370",
    "longitude": "5.80587860",
    "iso3166_2": "NO-11",
    "native": "Rogaland",
    "timezone": "Europe/Oslo"
  },
  {
    "id": 1013,
    "name": "Svalbard",
    "country_id": 165,
    "country_code": "NO",
    "state_code": "21",
    "type": "arctic region",
    "latitude": "78.71985190",
    "longitude": "20.34933280",
    "iso3166_2": "NO-21",
    "native": "Svalbard",
    "timezone": "Europe/Oslo"
  },
  {
    "id": 1024,
    "name": "Telemark",
    "country_id": 165,
    "country_code": "NO",
    "state_code": "40",
    "type": "county",
    "latitude": "59.39626760",
    "longitude": "8.66266000",
    "iso3166_2": "NO-40",
    "native": "Telemark",
    "timezone": "Europe/Oslo"
  },
  {
    "id": 5451,
    "name": "Troms",
    "country_id": 165,
    "country_code": "NO",
    "state_code": "55",
    "type": "county",
    "latitude": "69.53110710",
    "longitude": "19.52968390",
    "iso3166_2": "NO-55",
    "native": "Troms",
    "timezone": "Europe/Oslo"
  },
  {
    "id": 1006,
    "name": "Trøndelag",
    "country_id": 165,
    "country_code": "NO",
    "state_code": "50",
    "type": "county",
    "latitude": "63.87759240",
    "longitude": "10.19505050",
    "iso3166_2": "NO-50",
    "native": "Trøndelag",
    "timezone": "Europe/Oslo"
  },
  {
    "id": 5452,
    "name": "Vestfold",
    "country_id": 165,
    "country_code": "NO",
    "state_code": "39",
    "type": "county",
    "latitude": "59.19548570",
    "longitude": "10.26626160",
    "iso3166_2": "NO-39",
    "native": "Vestfold",
    "timezone": "Europe/Oslo"
  },
  {
    "id": 1018,
    "name": "Vestland",
    "country_id": 165,
    "country_code": "NO",
    "state_code": "46",
    "type": "county",
    "latitude": "60.92910110",
    "longitude": "6.10788690",
    "iso3166_2": "NO-46",
    "native": "Vestland",
    "timezone": "Europe/Oslo"
  }
]