[
  {
    "id": 104704,
    "name": "Dakar",
    "state_id": 473,
    "state_code": "DK",
    "country_id": 195,
    "country_code": "SN",
    "latitude": "14.69370000",
    "longitude": "-17.44406000",
    "wikiDataId": null
  },
  {
    "id": 104705,
    "name": "Dakar Department",
    "state_id": 473,
    "state_code": "DK",
    "country_id": 195,
    "country_code": "SN",
    "latitude": "14.71403000",
    "longitude": "-17.45534000",
    "wikiDataId": null
  },
  {
    "id": 104716,
    "name": "Guédiawaye Department",
    "state_id": 473,
    "state_code": "DK",
    "country_id": 195,
    "country_code": "SN",
    "latitude": "14.77610000",
    "longitude": "-17.39560000",
    "wikiDataId": null
  },
  {
    "id": 104737,
    "name": "Mermoz Boabab",
    "state_id": 473,
    "state_code": "DK",
    "country_id": 195,
    "country_code": "SN",
    "latitude": "14.70649000",
    "longitude": "-17.47581000",
    "wikiDataId": null
  },
  {
    "id": 104744,
    "name": "N’diareme limamoulaye",
    "state_id": 473,
    "state_code": "DK",
    "country_id": 195,
    "country_code": "SN",
    "latitude": "14.78148000",
    "longitude": "-17.38410000",
    "wikiDataId": null
  },
  {
    "id": 104748,
    "name": "Pikine",
    "state_id": 473,
    "state_code": "DK",
    "country_id": 195,
    "country_code": "SN",
    "latitude": "14.76457000",
    "longitude": "-17.39071000",
    "wikiDataId": null
  },
  {
    "id": 104749,
    "name": "Pikine Department",
    "state_id": 473,
    "state_code": "DK",
    "country_id": 195,
    "country_code": "SN",
    "latitude": "14.76515000",
    "longitude": "-17.35198000",
    "wikiDataId": null
  },
  {
    "id": 104756,
    "name": "Rufisque Department",
    "state_id": 473,
    "state_code": "DK",
    "country_id": 195,
    "country_code": "SN",
    "latitude": "14.74339000",
    "longitude": "-17.19841000",
    "wikiDataId": null
  }
]