[
  {
    "id": 144371,
    "name": "Agay",
    "state_id": 1278,
    "state_code": "BUL",
    "country_id": 174,
    "country_code": "PH",
    "latitude": "9.05361111",
    "longitude": "125.58666667",
    "wikiDataId": null
  },
  {
    "id": 144375,
    "name": "Amaga",
    "state_id": 1278,
    "state_code": "BUL",
    "country_id": 174,
    "country_code": "PH",
    "latitude": "8.53083333",
    "longitude": "126.07027778",
    "wikiDataId": null
  },
  {
    "id": 144376,
    "name": "Anticala",
    "state_id": 1278,
    "state_code": "BUL",
    "country_id": 174,
    "country_code": "PH",
    "latitude": "9.00444444",
    "longitude": "125.64527778",
    "wikiDataId": null
  },
  {
    "id": 144377,
    "name": "Aras-asan",
    "state_id": 1278,
    "state_code": "BUL",
    "country_id": 174,
    "country_code": "PH",
    "latitude": "8.88777778",
    "longitude": "126.31111111",
    "wikiDataId": null
  },
  {
    "id": 144379,
    "name": "Bacolod",
    "state_id": 1278,
    "state_code": "BUL",
    "country_id": 174,
    "country_code": "PH",
    "latitude": "8.93166667",
    "longitude": "126.28944444",
    "wikiDataId": null
  },
  {
    "id": 144381,
    "name": "Bah-Bah",
    "state_id": 1278,
    "state_code": "BUL",
    "country_id": 174,
    "country_code": "PH",
    "latitude": "8.60722222",
    "longitude": "125.91444444",
    "wikiDataId": null
  },
  {
    "id": 144382,
    "name": "Balangbalang",
    "state_id": 1278,
    "state_code": "BUL",
    "country_id": 174,
    "country_code": "PH",
    "latitude": "9.05694444",
    "longitude": "125.62277778",
    "wikiDataId": null
  },
  {
    "id": 144383,
    "name": "Bancasi",
    "state_id": 1278,
    "state_code": "BUL",
    "country_id": 174,
    "country_code": "PH",
    "latitude": "8.96666667",
    "longitude": "125.46666667",
    "wikiDataId": null
  },
  {
    "id": 144384,
    "name": "Bangonay",
    "state_id": 1278,
    "state_code": "BUL",
    "country_id": 174,
    "country_code": "PH",
    "latitude": "9.31444444",
    "longitude": "125.55388889",
    "wikiDataId": null
  },
  {
    "id": 144387,
    "name": "Basa",
    "state_id": 1278,
    "state_code": "BUL",
    "country_id": 174,
    "country_code": "PH",
    "latitude": "8.07222222",
    "longitude": "126.06416667",
    "wikiDataId": null
  },
  {
    "id": 144389,
    "name": "Bayabas",
    "state_id": 1278,
    "state_code": "BUL",
    "country_id": 174,
    "country_code": "PH",
    "latitude": "8.96666667",
    "longitude": "126.26666667",
    "wikiDataId": null
  },
  {
    "id": 144390,
    "name": "Bayugan",
    "state_id": 1278,
    "state_code": "BUL",
    "country_id": 174,
    "country_code": "PH",
    "latitude": "8.78564000",
    "longitude": "125.78175000",
    "wikiDataId": null
  },
  {
    "id": 144392,
    "name": "Bigaan",
    "state_id": 1278,
    "state_code": "BUL",
    "country_id": 174,
    "country_code": "PH",
    "latitude": "8.31722222",
    "longitude": "126.28111111",
    "wikiDataId": null
  },
  {
    "id": 144393,
    "name": "Binucayan",
    "state_id": 1278,
    "state_code": "BUL",
    "country_id": 174,
    "country_code": "PH",
    "latitude": "8.25000000",
    "longitude": "125.71666667",
    "wikiDataId": null
  },
  {
    "id": 144396,
    "name": "Buenavista",
    "state_id": 1278,
    "state_code": "BUL",
    "country_id": 174,
    "country_code": "PH",
    "latitude": "8.97694444",
    "longitude": "125.40888889",
    "wikiDataId": null
  },
  {
    "id": 144401,
    "name": "Butuan",
    "state_id": 1278,
    "state_code": "BUL",
    "country_id": 174,
    "country_code": "PH",
    "latitude": "8.95000000",
    "longitude": "125.53333000",
    "wikiDataId": null
  },
  {
    "id": 144406,
    "name": "Caloc-an",
    "state_id": 1278,
    "state_code": "BUL",
    "country_id": 174,
    "country_code": "PH",
    "latitude": "9.04694444",
    "longitude": "125.53055556",
    "wikiDataId": null
  },
  {
    "id": 144407,
    "name": "Cantapoy",
    "state_id": 1278,
    "state_code": "BUL",
    "country_id": 174,
    "country_code": "PH",
    "latitude": "9.49055556",
    "longitude": "125.43638889",
    "wikiDataId": null
  },
  {
    "id": 144409,
    "name": "Capalayan",
    "state_id": 1278,
    "state_code": "BUL",
    "country_id": 174,
    "country_code": "PH",
    "latitude": "9.74055556",
    "longitude": "125.54444444",
    "wikiDataId": null
  },
  {
    "id": 144413,
    "name": "Causwagan",
    "state_id": 1278,
    "state_code": "BUL",
    "country_id": 174,
    "country_code": "PH",
    "latitude": "8.44750000",
    "longitude": "125.84027778",
    "wikiDataId": null
  },
  {
    "id": 144414,
    "name": "City of Cabadbaran",
    "state_id": 1278,
    "state_code": "BUL",
    "country_id": 174,
    "country_code": "PH",
    "latitude": "9.13748000",
    "longitude": "125.65543000",
    "wikiDataId": null
  },
  {
    "id": 144416,
    "name": "Comagascas",
    "state_id": 1278,
    "state_code": "BUL",
    "country_id": 174,
    "country_code": "PH",
    "latitude": "9.13972222",
    "longitude": "125.55972222",
    "wikiDataId": null
  },
  {
    "id": 144418,
    "name": "Cuevas",
    "state_id": 1278,
    "state_code": "BUL",
    "country_id": 174,
    "country_code": "PH",
    "latitude": "8.01916667",
    "longitude": "126.09416667",
    "wikiDataId": null
  },
  {
    "id": 144419,
    "name": "Culit",
    "state_id": 1278,
    "state_code": "BUL",
    "country_id": 174,
    "country_code": "PH",
    "latitude": "8.94722222",
    "longitude": "125.35694444",
    "wikiDataId": null
  },
  {
    "id": 144420,
    "name": "Dakbayan sa Bislig",
    "state_id": 1278,
    "state_code": "BUL",
    "country_id": 174,
    "country_code": "PH",
    "latitude": "8.20996000",
    "longitude": "126.30947000",
    "wikiDataId": null
  },
  {
    "id": 144424,
    "name": "Del Pilar",
    "state_id": 1278,
    "state_code": "BUL",
    "country_id": 174,
    "country_code": "PH",
    "latitude": "9.15194444",
    "longitude": "125.58472222",
    "wikiDataId": null
  },
  {
    "id": 144427,
    "name": "Gamut",
    "state_id": 1278,
    "state_code": "BUL",
    "country_id": 174,
    "country_code": "PH",
    "latitude": "8.53166667",
    "longitude": "126.24111111",
    "wikiDataId": null
  },
  {
    "id": 144431,
    "name": "Guadalupe",
    "state_id": 1278,
    "state_code": "BUL",
    "country_id": 174,
    "country_code": "PH",
    "latitude": "8.58277778",
    "longitude": "125.70805556",
    "wikiDataId": null
  },
  {
    "id": 144432,
    "name": "Guinabsan",
    "state_id": 1278,
    "state_code": "BUL",
    "country_id": 174,
    "country_code": "PH",
    "latitude": "8.89750000",
    "longitude": "125.41611111",
    "wikiDataId": null
  },
  {
    "id": 144434,
    "name": "Ipil",
    "state_id": 1278,
    "state_code": "BUL",
    "country_id": 174,
    "country_code": "PH",
    "latitude": "9.79083333",
    "longitude": "125.43861111",
    "wikiDataId": null
  },
  {
    "id": 144436,
    "name": "Jagupit",
    "state_id": 1278,
    "state_code": "BUL",
    "country_id": 174,
    "country_code": "PH",
    "latitude": "9.24222222",
    "longitude": "125.55805556",
    "wikiDataId": null
  },
  {
    "id": 144439,
    "name": "Kinabhangan",
    "state_id": 1278,
    "state_code": "BUL",
    "country_id": 174,
    "country_code": "PH",
    "latitude": "8.96916667",
    "longitude": "125.35750000",
    "wikiDataId": null
  },
  {
    "id": 144441,
    "name": "La Paz",
    "state_id": 1278,
    "state_code": "BUL",
    "country_id": 174,
    "country_code": "PH",
    "latitude": "8.27083333",
    "longitude": "125.79972222",
    "wikiDataId": null
  },
  {
    "id": 144443,
    "name": "La Union",
    "state_id": 1278,
    "state_code": "BUL",
    "country_id": 174,
    "country_code": "PH",
    "latitude": "9.08555556",
    "longitude": "125.53583333",
    "wikiDataId": null
  },
  {
    "id": 144445,
    "name": "Lapinigan",
    "state_id": 1278,
    "state_code": "BUL",
    "country_id": 174,
    "country_code": "PH",
    "latitude": "8.42055556",
    "longitude": "125.98250000",
    "wikiDataId": null
  },
  {
    "id": 144446,
    "name": "Las Nieves",
    "state_id": 1278,
    "state_code": "BUL",
    "country_id": 174,
    "country_code": "PH",
    "latitude": "8.73167000",
    "longitude": "125.59917000",
    "wikiDataId": null
  },
  {
    "id": 144448,
    "name": "Libas",
    "state_id": 1278,
    "state_code": "BUL",
    "country_id": 174,
    "country_code": "PH",
    "latitude": "9.88333333",
    "longitude": "125.98333333",
    "wikiDataId": null
  },
  {
    "id": 144449,
    "name": "Libertad",
    "state_id": 1278,
    "state_code": "BUL",
    "country_id": 174,
    "country_code": "PH",
    "latitude": "8.94416667",
    "longitude": "125.50194444",
    "wikiDataId": null
  },
  {
    "id": 144455,
    "name": "Los Angeles",
    "state_id": 1278,
    "state_code": "BUL",
    "country_id": 174,
    "country_code": "PH",
    "latitude": "9.01250000",
    "longitude": "125.60805556",
    "wikiDataId": null
  },
  {
    "id": 144456,
    "name": "Los Arcos",
    "state_id": 1278,
    "state_code": "BUL",
    "country_id": 174,
    "country_code": "PH",
    "latitude": "8.63277778",
    "longitude": "125.98555556",
    "wikiDataId": null
  },
  {
    "id": 144457,
    "name": "Loyola",
    "state_id": 1278,
    "state_code": "BUL",
    "country_id": 174,
    "country_code": "PH",
    "latitude": "8.33500000",
    "longitude": "126.33361111",
    "wikiDataId": null
  },
  {
    "id": 144458,
    "name": "Luna",
    "state_id": 1278,
    "state_code": "BUL",
    "country_id": 174,
    "country_code": "PH",
    "latitude": "9.73694444",
    "longitude": "125.49750000",
    "wikiDataId": null
  },
  {
    "id": 144459,
    "name": "Mabahin",
    "state_id": 1278,
    "state_code": "BUL",
    "country_id": 174,
    "country_code": "PH",
    "latitude": "9.18555556",
    "longitude": "126.17055556",
    "wikiDataId": null
  },
  {
    "id": 144460,
    "name": "Mabua",
    "state_id": 1278,
    "state_code": "BUL",
    "country_id": 174,
    "country_code": "PH",
    "latitude": "9.80388889",
    "longitude": "125.44083333",
    "wikiDataId": null
  },
  {
    "id": 144465,
    "name": "Manapa",
    "state_id": 1278,
    "state_code": "BUL",
    "country_id": 174,
    "country_code": "PH",
    "latitude": "8.97777778",
    "longitude": "125.43944444",
    "wikiDataId": null
  },
  {
    "id": 144467,
    "name": "Matabao",
    "state_id": 1278,
    "state_code": "BUL",
    "country_id": 174,
    "country_code": "PH",
    "latitude": "8.95722222",
    "longitude": "125.39944444",
    "wikiDataId": null
  },
  {
    "id": 144469,
    "name": "Maygatasan",
    "state_id": 1278,
    "state_code": "BUL",
    "country_id": 174,
    "country_code": "PH",
    "latitude": "8.70944444",
    "longitude": "125.71833333",
    "wikiDataId": null
  },
  {
    "id": 144472,
    "name": "Panikian",
    "state_id": 1278,
    "state_code": "BUL",
    "country_id": 174,
    "country_code": "PH",
    "latitude": "9.32944444",
    "longitude": "125.93388889",
    "wikiDataId": null
  },
  {
    "id": 144474,
    "name": "Patin-ay",
    "state_id": 1278,
    "state_code": "BUL",
    "country_id": 174,
    "country_code": "PH",
    "latitude": "8.55055556",
    "longitude": "125.93722222",
    "wikiDataId": null
  },
  {
    "id": 144478,
    "name": "Punta",
    "state_id": 1278,
    "state_code": "BUL",
    "country_id": 174,
    "country_code": "PH",
    "latitude": "8.98972222",
    "longitude": "125.34000000",
    "wikiDataId": null
  },
  {
    "id": 144482,
    "name": "Salvacion",
    "state_id": 1278,
    "state_code": "BUL",
    "country_id": 174,
    "country_code": "PH",
    "latitude": "7.99944444",
    "longitude": "126.12472222",
    "wikiDataId": null
  },
  {
    "id": 144485,
    "name": "San Agustin",
    "state_id": 1278,
    "state_code": "BUL",
    "country_id": 174,
    "country_code": "PH",
    "latitude": "8.74366389",
    "longitude": "126.22143333",
    "wikiDataId": null
  },
  {
    "id": 144488,
    "name": "San Francisco",
    "state_id": 1278,
    "state_code": "BUL",
    "country_id": 174,
    "country_code": "PH",
    "latitude": "8.53556000",
    "longitude": "125.95000000",
    "wikiDataId": null
  },
  {
    "id": 144492,
    "name": "San Isidro",
    "state_id": 1278,
    "state_code": "BUL",
    "country_id": 174,
    "country_code": "PH",
    "latitude": "7.75000000",
    "longitude": "125.73333333",
    "wikiDataId": null
  },
  {
    "id": 144495,
    "name": "San Miguel",
    "state_id": 1278,
    "state_code": "BUL",
    "country_id": 174,
    "country_code": "PH",
    "latitude": "8.88333333",
    "longitude": "126.00000000",
    "wikiDataId": null
  },
  {
    "id": 144496,
    "name": "Sanghan",
    "state_id": 1278,
    "state_code": "BUL",
    "country_id": 174,
    "country_code": "PH",
    "latitude": "9.08555556",
    "longitude": "125.57277778",
    "wikiDataId": null
  },
  {
    "id": 144497,
    "name": "Santa Ana",
    "state_id": 1278,
    "state_code": "BUL",
    "country_id": 174,
    "country_code": "PH",
    "latitude": "9.19277778",
    "longitude": "125.56444444",
    "wikiDataId": null
  },
  {
    "id": 144499,
    "name": "Santa Maria",
    "state_id": 1278,
    "state_code": "BUL",
    "country_id": 174,
    "country_code": "PH",
    "latitude": "8.03333333",
    "longitude": "126.16250000",
    "wikiDataId": null
  },
  {
    "id": 144501,
    "name": "Santa Monica",
    "state_id": 1278,
    "state_code": "BUL",
    "country_id": 174,
    "country_code": "PH",
    "latitude": "10.02000000",
    "longitude": "126.03833000",
    "wikiDataId": null
  },
  {
    "id": 144503,
    "name": "Santiago",
    "state_id": 1278,
    "state_code": "BUL",
    "country_id": 174,
    "country_code": "PH",
    "latitude": "9.26556000",
    "longitude": "125.55917000",
    "wikiDataId": null
  },
  {
    "id": 144506,
    "name": "Sinubong",
    "state_id": 1278,
    "state_code": "BUL",
    "country_id": 174,
    "country_code": "PH",
    "latitude": "8.06833333",
    "longitude": "125.93083333",
    "wikiDataId": null
  },
  {
    "id": 144508,
    "name": "Socorro",
    "state_id": 1278,
    "state_code": "BUL",
    "country_id": 174,
    "country_code": "PH",
    "latitude": "9.62100000",
    "longitude": "125.96700000",
    "wikiDataId": null
  },
  {
    "id": 144512,
    "name": "Tagcatong",
    "state_id": 1278,
    "state_code": "BUL",
    "country_id": 174,
    "country_code": "PH",
    "latitude": "9.00222222",
    "longitude": "125.25694444",
    "wikiDataId": null
  },
  {
    "id": 144514,
    "name": "Talacogon",
    "state_id": 1278,
    "state_code": "BUL",
    "country_id": 174,
    "country_code": "PH",
    "latitude": "8.41667000",
    "longitude": "125.80000000",
    "wikiDataId": null
  },
  {
    "id": 144515,
    "name": "Taligaman",
    "state_id": 1278,
    "state_code": "BUL",
    "country_id": 174,
    "country_code": "PH",
    "latitude": "8.90444444",
    "longitude": "125.65583333",
    "wikiDataId": null
  },
  {
    "id": 144516,
    "name": "Talisay",
    "state_id": 1278,
    "state_code": "BUL",
    "country_id": 174,
    "country_code": "PH",
    "latitude": "9.81888889",
    "longitude": "125.61555556",
    "wikiDataId": null
  },
  {
    "id": 144519,
    "name": "Tidman",
    "state_id": 1278,
    "state_code": "BUL",
    "country_id": 174,
    "country_code": "PH",
    "latitude": "8.29861111",
    "longitude": "126.33888889",
    "wikiDataId": null
  },
  {
    "id": 144520,
    "name": "Tigao",
    "state_id": 1278,
    "state_code": "BUL",
    "country_id": 174,
    "country_code": "PH",
    "latitude": "9.20888889",
    "longitude": "126.17611111",
    "wikiDataId": null
  },
  {
    "id": 144521,
    "name": "Trento",
    "state_id": 1278,
    "state_code": "BUL",
    "country_id": 174,
    "country_code": "PH",
    "latitude": "8.05000000",
    "longitude": "126.13333000",
    "wikiDataId": null
  },
  {
    "id": 144525,
    "name": "Unidad",
    "state_id": 1278,
    "state_code": "BUL",
    "country_id": 174,
    "country_code": "PH",
    "latitude": "8.53555556",
    "longitude": "126.22861111",
    "wikiDataId": null
  },
  {
    "id": 144526,
    "name": "Union",
    "state_id": 1278,
    "state_code": "BUL",
    "country_id": 174,
    "country_code": "PH",
    "latitude": "9.75666667",
    "longitude": "126.11027778",
    "wikiDataId": null
  }
]