[
  {
    "id": 66464,
    "name": "Dehiwala-Mount Lavinia",
    "state_id": 2815,
    "state_code": "11",
    "country_id": 208,
    "country_code": "LK",
    "latitude": "6.84019000",
    "longitude": "79.87116000",
    "wikiDataId": null
  },
  {
    "id": 66479,
    "name": "Homagama",
    "state_id": 2815,
    "state_code": "11",
    "country_id": 208,
    "country_code": "LK",
    "latitude": "6.84879896",
    "longitude": "80.00467300",
    "wikiDataId": null
  },
  {
    "id": 146181,
    "name": "Kaduwela",
    "state_id": 2815,
    "state_code": "11",
    "country_id": 208,
    "country_code": "LK",
    "latitude": "6.93106260",
    "longitude": "79.97944220",
    "wikiDataId": null
  },
  {
    "id": 146180,
    "name": "Kesbewa",
    "state_id": 2815,
    "state_code": "11",
    "country_id": 208,
    "country_code": "LK",
    "latitude": "6.78425894",
    "longitude": "79.94665276",
    "wikiDataId": null
  },
  {
    "id": 66499,
    "name": "Kolonnawa",
    "state_id": 2815,
    "state_code": "11",
    "country_id": 208,
    "country_code": "LK",
    "latitude": "6.92893463",
    "longitude": "79.89495168",
    "wikiDataId": null
  },
  {
    "id": 146176,
    "name": "Kotte",
    "state_id": 2815,
    "state_code": "11",
    "country_id": 208,
    "country_code": "LK",
    "latitude": "6.88932048",
    "longitude": "79.90359501",
    "wikiDataId": null
  },
  {
    "id": 66504,
    "name": "Maharagama",
    "state_id": 2815,
    "state_code": "11",
    "country_id": 208,
    "country_code": "LK",
    "latitude": "6.84954886",
    "longitude": "79.92507313",
    "wikiDataId": null
  },
  {
    "id": 66514,
    "name": "Moratuwa",
    "state_id": 2815,
    "state_code": "11",
    "country_id": 208,
    "country_code": "LK",
    "latitude": "6.78149272",
    "longitude": "79.88347117",
    "wikiDataId": null
  },
  {
    "id": 146179,
    "name": "Padukka",
    "state_id": 2815,
    "state_code": "11",
    "country_id": 208,
    "country_code": "LK",
    "latitude": "6.84794680",
    "longitude": "80.10153292",
    "wikiDataId": null
  },
  {
    "id": 146178,
    "name": "Ratmalana",
    "state_id": 2815,
    "state_code": "11",
    "country_id": 208,
    "country_code": "LK",
    "latitude": "6.82105987",
    "longitude": "79.88023083",
    "wikiDataId": null
  },
  {
    "id": 146177,
    "name": "Seethawaka",
    "state_id": 2815,
    "state_code": "11",
    "country_id": 208,
    "country_code": "LK",
    "latitude": "6.92959912",
    "longitude": "80.14979867",
    "wikiDataId": null
  },
  {
    "id": 146175,
    "name": "Thimbirigasyaya",
    "state_id": 2815,
    "state_code": "11",
    "country_id": 208,
    "country_code": "LK",
    "latitude": "6.90214217",
    "longitude": "79.86957578",
    "wikiDataId": null
  }
]