[
  {
    "id": 55202,
    "name": "Bagamér",
    "state_id": 1063,
    "state_code": "HB",
    "country_id": 99,
    "country_code": "HU",
    "latitude": "47.44882000",
    "longitude": "21.98900000",
    "wikiDataId": null
  },
  {
    "id": 55226,
    "name": "Balmazújváros",
    "state_id": 1063,
    "state_code": "HB",
    "country_id": 99,
    "country_code": "HU",
    "latitude": "47.61667000",
    "longitude": "21.35000000",
    "wikiDataId": null
  },
  {
    "id": 55227,
    "name": "Balmazújvárosi Járás",
    "state_id": 1063,
    "state_code": "HB",
    "country_id": 99,
    "country_code": "HU",
    "latitude": "47.61840000",
    "longitude": "21.14882000",
    "wikiDataId": null
  },
  {
    "id": 55290,
    "name": "Báránd",
    "state_id": 1063,
    "state_code": "HB",
    "country_id": 99,
    "country_code": "HU",
    "latitude": "47.30000000",
    "longitude": "21.23333000",
    "wikiDataId": null
  },
  {
    "id": 55239,
    "name": "Berettyóújfalu",
    "state_id": 1063,
    "state_code": "HB",
    "country_id": 99,
    "country_code": "HU",
    "latitude": "47.21667000",
    "longitude": "21.55000000",
    "wikiDataId": null
  },
  {
    "id": 55240,
    "name": "Berettyóújfalui Járás",
    "state_id": 1063,
    "state_code": "HB",
    "country_id": 99,
    "country_code": "HU",
    "latitude": "47.14109000",
    "longitude": "21.55233000",
    "wikiDataId": null
  },
  {
    "id": 55248,
    "name": "Biharkeresztes",
    "state_id": 1063,
    "state_code": "HB",
    "country_id": 99,
    "country_code": "HU",
    "latitude": "47.13333000",
    "longitude": "21.71667000",
    "wikiDataId": null
  },
  {
    "id": 55249,
    "name": "Biharnagybajom",
    "state_id": 1063,
    "state_code": "HB",
    "country_id": 99,
    "country_code": "HU",
    "latitude": "47.21667000",
    "longitude": "21.23333000",
    "wikiDataId": null
  },
  {
    "id": 55349,
    "name": "Csökmő",
    "state_id": 1063,
    "state_code": "HB",
    "country_id": 99,
    "country_code": "HU",
    "latitude": "47.03333000",
    "longitude": "21.30000000",
    "wikiDataId": null
  },
  {
    "id": 55353,
    "name": "Debrecen",
    "state_id": 1063,
    "state_code": "HB",
    "country_id": 99,
    "country_code": "HU",
    "latitude": "47.53333000",
    "longitude": "21.63333000",
    "wikiDataId": null
  },
  {
    "id": 55354,
    "name": "Debreceni Járás",
    "state_id": 1063,
    "state_code": "HB",
    "country_id": 99,
    "country_code": "HU",
    "latitude": "47.52706000",
    "longitude": "21.66869000",
    "wikiDataId": null
  },
  {
    "id": 55357,
    "name": "Derecske",
    "state_id": 1063,
    "state_code": "HB",
    "country_id": 99,
    "country_code": "HU",
    "latitude": "47.35000000",
    "longitude": "21.56667000",
    "wikiDataId": null
  },
  {
    "id": 55358,
    "name": "Derecskei Járás",
    "state_id": 1063,
    "state_code": "HB",
    "country_id": 99,
    "country_code": "HU",
    "latitude": "47.38194000",
    "longitude": "21.74836000",
    "wikiDataId": null
  },
  {
    "id": 55393,
    "name": "Ebes",
    "state_id": 1063,
    "state_code": "HB",
    "country_id": 99,
    "country_code": "HU",
    "latitude": "47.46667000",
    "longitude": "21.50000000",
    "wikiDataId": null
  },
  {
    "id": 55401,
    "name": "Egyek",
    "state_id": 1063,
    "state_code": "HB",
    "country_id": 99,
    "country_code": "HU",
    "latitude": "47.63333000",
    "longitude": "20.90000000",
    "wikiDataId": null
  },
  {
    "id": 55437,
    "name": "Földes",
    "state_id": 1063,
    "state_code": "HB",
    "country_id": 99,
    "country_code": "HU",
    "latitude": "47.30000000",
    "longitude": "21.36667000",
    "wikiDataId": null
  },
  {
    "id": 55479,
    "name": "Görbeháza",
    "state_id": 1063,
    "state_code": "HB",
    "country_id": 99,
    "country_code": "HU",
    "latitude": "47.83333000",
    "longitude": "21.23333000",
    "wikiDataId": null
  },
  {
    "id": 55480,
    "name": "Hadjúszoboszlói Járás",
    "state_id": 1063,
    "state_code": "HB",
    "country_id": 99,
    "country_code": "HU",
    "latitude": "47.48110000",
    "longitude": "21.31000000",
    "wikiDataId": null
  },
  {
    "id": 55481,
    "name": "Hajdúbagos",
    "state_id": 1063,
    "state_code": "HB",
    "country_id": 99,
    "country_code": "HU",
    "latitude": "47.39295000",
    "longitude": "21.66551000",
    "wikiDataId": null
  },
  {
    "id": 55482,
    "name": "Hajdúböszörmény",
    "state_id": 1063,
    "state_code": "HB",
    "country_id": 99,
    "country_code": "HU",
    "latitude": "47.66667000",
    "longitude": "21.51667000",
    "wikiDataId": null
  },
  {
    "id": 55483,
    "name": "Hajdúböszörményi Járás",
    "state_id": 1063,
    "state_code": "HB",
    "country_id": 99,
    "country_code": "HU",
    "latitude": "47.74000000",
    "longitude": "21.50000000",
    "wikiDataId": null
  },
  {
    "id": 55484,
    "name": "Hajdúdorog",
    "state_id": 1063,
    "state_code": "HB",
    "country_id": 99,
    "country_code": "HU",
    "latitude": "47.81667000",
    "longitude": "21.50000000",
    "wikiDataId": null
  },
  {
    "id": 55485,
    "name": "Hajdúhadház",
    "state_id": 1063,
    "state_code": "HB",
    "country_id": 99,
    "country_code": "HU",
    "latitude": "47.68333000",
    "longitude": "21.66667000",
    "wikiDataId": null
  },
  {
    "id": 55486,
    "name": "Hajdúhadházi Járás",
    "state_id": 1063,
    "state_code": "HB",
    "country_id": 99,
    "country_code": "HU",
    "latitude": "47.67000000",
    "longitude": "21.70000000",
    "wikiDataId": null
  },
  {
    "id": 55487,
    "name": "Hajdúnánás",
    "state_id": 1063,
    "state_code": "HB",
    "country_id": 99,
    "country_code": "HU",
    "latitude": "47.85000000",
    "longitude": "21.43333000",
    "wikiDataId": null
  },
  {
    "id": 55488,
    "name": "Hajdúnánási Járás",
    "state_id": 1063,
    "state_code": "HB",
    "country_id": 99,
    "country_code": "HU",
    "latitude": "47.83350000",
    "longitude": "21.25256000",
    "wikiDataId": null
  },
  {
    "id": 55491,
    "name": "Hajdúsámson",
    "state_id": 1063,
    "state_code": "HB",
    "country_id": 99,
    "country_code": "HU",
    "latitude": "47.60000000",
    "longitude": "21.76667000",
    "wikiDataId": null
  },
  {
    "id": 55489,
    "name": "Hajdúszoboszló",
    "state_id": 1063,
    "state_code": "HB",
    "country_id": 99,
    "country_code": "HU",
    "latitude": "47.45000000",
    "longitude": "21.40000000",
    "wikiDataId": null
  },
  {
    "id": 55490,
    "name": "Hajdúszovát",
    "state_id": 1063,
    "state_code": "HB",
    "country_id": 99,
    "country_code": "HU",
    "latitude": "47.38333000",
    "longitude": "21.48333000",
    "wikiDataId": null
  },
  {
    "id": 55515,
    "name": "Hortobágy",
    "state_id": 1063,
    "state_code": "HB",
    "country_id": 99,
    "country_code": "HU",
    "latitude": "47.58278000",
    "longitude": "21.15108000",
    "wikiDataId": null
  },
  {
    "id": 55517,
    "name": "Hosszúpályi",
    "state_id": 1063,
    "state_code": "HB",
    "country_id": 99,
    "country_code": "HU",
    "latitude": "47.39303000",
    "longitude": "21.73280000",
    "wikiDataId": null
  },
  {
    "id": 55555,
    "name": "Kaba",
    "state_id": 1063,
    "state_code": "HB",
    "country_id": 99,
    "country_code": "HU",
    "latitude": "47.35000000",
    "longitude": "21.28333000",
    "wikiDataId": null
  },
  {
    "id": 55621,
    "name": "Komádi",
    "state_id": 1063,
    "state_code": "HB",
    "country_id": 99,
    "country_code": "HU",
    "latitude": "47.00000000",
    "longitude": "21.50000000",
    "wikiDataId": null
  },
  {
    "id": 55623,
    "name": "Konyár",
    "state_id": 1063,
    "state_code": "HB",
    "country_id": 99,
    "country_code": "HU",
    "latitude": "47.31667000",
    "longitude": "21.66667000",
    "wikiDataId": null
  },
  {
    "id": 55669,
    "name": "Létavértes",
    "state_id": 1063,
    "state_code": "HB",
    "country_id": 99,
    "country_code": "HU",
    "latitude": "47.38333000",
    "longitude": "21.90000000",
    "wikiDataId": null
  },
  {
    "id": 55703,
    "name": "Mikepércs",
    "state_id": 1063,
    "state_code": "HB",
    "country_id": 99,
    "country_code": "HU",
    "latitude": "47.45000000",
    "longitude": "21.63333000",
    "wikiDataId": null
  },
  {
    "id": 55713,
    "name": "Monostorpályi",
    "state_id": 1063,
    "state_code": "HB",
    "country_id": 99,
    "country_code": "HU",
    "latitude": "47.40000000",
    "longitude": "21.78333000",
    "wikiDataId": null
  },
  {
    "id": 55794,
    "name": "Nádudvar",
    "state_id": 1063,
    "state_code": "HB",
    "country_id": 99,
    "country_code": "HU",
    "latitude": "47.41667000",
    "longitude": "21.16667000",
    "wikiDataId": null
  },
  {
    "id": 55760,
    "name": "Nagyrábé",
    "state_id": 1063,
    "state_code": "HB",
    "country_id": 99,
    "country_code": "HU",
    "latitude": "47.20000000",
    "longitude": "21.33333000",
    "wikiDataId": null
  },
  {
    "id": 55792,
    "name": "Nyírábrány",
    "state_id": 1063,
    "state_code": "HB",
    "country_id": 99,
    "country_code": "HU",
    "latitude": "47.55311000",
    "longitude": "22.02401000",
    "wikiDataId": null
  },
  {
    "id": 55770,
    "name": "Nyíracsád",
    "state_id": 1063,
    "state_code": "HB",
    "country_id": 99,
    "country_code": "HU",
    "latitude": "47.60330000",
    "longitude": "21.97208000",
    "wikiDataId": null
  },
  {
    "id": 55771,
    "name": "Nyíradony",
    "state_id": 1063,
    "state_code": "HB",
    "country_id": 99,
    "country_code": "HU",
    "latitude": "47.69746000",
    "longitude": "21.91878000",
    "wikiDataId": null
  },
  {
    "id": 55772,
    "name": "Nyíradonyi Járás",
    "state_id": 1063,
    "state_code": "HB",
    "country_id": 99,
    "country_code": "HU",
    "latitude": "47.57873000",
    "longitude": "22.01381000",
    "wikiDataId": null
  },
  {
    "id": 55787,
    "name": "Nyírmártonfalva",
    "state_id": 1063,
    "state_code": "HB",
    "country_id": 99,
    "country_code": "HU",
    "latitude": "47.58333000",
    "longitude": "21.90000000",
    "wikiDataId": null
  },
  {
    "id": 55826,
    "name": "Pocsaj",
    "state_id": 1063,
    "state_code": "HB",
    "country_id": 99,
    "country_code": "HU",
    "latitude": "47.28333000",
    "longitude": "21.81667000",
    "wikiDataId": null
  },
  {
    "id": 55827,
    "name": "Polgár",
    "state_id": 1063,
    "state_code": "HB",
    "country_id": 99,
    "country_code": "HU",
    "latitude": "47.86667000",
    "longitude": "21.11667000",
    "wikiDataId": null
  },
  {
    "id": 55859,
    "name": "Püspökladány",
    "state_id": 1063,
    "state_code": "HB",
    "country_id": 99,
    "country_code": "HU",
    "latitude": "47.31667000",
    "longitude": "21.11667000",
    "wikiDataId": null
  },
  {
    "id": 55860,
    "name": "Püspökladányi Járás",
    "state_id": 1063,
    "state_code": "HB",
    "country_id": 99,
    "country_code": "HU",
    "latitude": "47.31279000",
    "longitude": "21.21177000",
    "wikiDataId": null
  },
  {
    "id": 55992,
    "name": "Sáránd",
    "state_id": 1063,
    "state_code": "HB",
    "country_id": 99,
    "country_code": "HU",
    "latitude": "47.40000000",
    "longitude": "21.63333000",
    "wikiDataId": null
  },
  {
    "id": 55988,
    "name": "Sárrétudvari",
    "state_id": 1063,
    "state_code": "HB",
    "country_id": 99,
    "country_code": "HU",
    "latitude": "47.23333000",
    "longitude": "21.20000000",
    "wikiDataId": null
  },
  {
    "id": 56073,
    "name": "Téglás",
    "state_id": 1063,
    "state_code": "HB",
    "country_id": 99,
    "country_code": "HU",
    "latitude": "47.71667000",
    "longitude": "21.68333000",
    "wikiDataId": null
  },
  {
    "id": 56026,
    "name": "Tiszacsege",
    "state_id": 1063,
    "state_code": "HB",
    "country_id": 99,
    "country_code": "HU",
    "latitude": "47.70000000",
    "longitude": "21.00000000",
    "wikiDataId": null
  },
  {
    "id": 56110,
    "name": "Vámospércs",
    "state_id": 1063,
    "state_code": "HB",
    "country_id": 99,
    "country_code": "HU",
    "latitude": "47.53333000",
    "longitude": "21.90000000",
    "wikiDataId": null
  }
]