[
  {
    "id": 48395,
    "name": "Barnard Castle",
    "state_id": 2406,
    "state_code": "DUR",
    "country_id": 232,
    "country_code": "GB",
    "latitude": "54.54150000",
    "longitude": "-1.91900000",
    "wikiDataId": null
  },
  {
    "id": 48522,
    "name": "Bishop Auckland",
    "state_id": 2406,
    "state_code": "DUR",
    "country_id": 232,
    "country_code": "GB",
    "latitude": "54.65554000",
    "longitude": "-1.67706000",
    "wikiDataId": null
  },
  {
    "id": 48634,
    "name": "Bowburn",
    "state_id": 2406,
    "state_code": "DUR",
    "country_id": 232,
    "country_code": "GB",
    "latitude": "54.73850000",
    "longitude": "-1.52521000",
    "wikiDataId": null
  },
  {
    "id": 48661,
    "name": "Brandon",
    "state_id": 2406,
    "state_code": "DUR",
    "country_id": 232,
    "country_code": "GB",
    "latitude": "54.75000000",
    "longitude": "-1.61667000",
    "wikiDataId": null
  },
  {
    "id": 48886,
    "name": "Castleside",
    "state_id": 2406,
    "state_code": "DUR",
    "country_id": 232,
    "country_code": "GB",
    "latitude": "54.83429000",
    "longitude": "-1.87849000",
    "wikiDataId": null
  },
  {
    "id": 49053,
    "name": "Cockfield",
    "state_id": 2406,
    "state_code": "DUR",
    "country_id": 232,
    "country_code": "GB",
    "latitude": "54.61373000",
    "longitude": "-1.80897000",
    "wikiDataId": null
  },
  {
    "id": 49119,
    "name": "Coundon",
    "state_id": 2406,
    "state_code": "DUR",
    "country_id": 232,
    "country_code": "GB",
    "latitude": "54.66280000",
    "longitude": "-1.62688000",
    "wikiDataId": null
  },
  {
    "id": 49121,
    "name": "County Durham",
    "state_id": 2406,
    "state_code": "DUR",
    "country_id": 232,
    "country_code": "GB",
    "latitude": "54.77680000",
    "longitude": "-1.57575000",
    "wikiDataId": null
  },
  {
    "id": 49136,
    "name": "Coxhoe",
    "state_id": 2406,
    "state_code": "DUR",
    "country_id": 232,
    "country_code": "GB",
    "latitude": "54.71475000",
    "longitude": "-1.50356000",
    "wikiDataId": null
  },
  {
    "id": 49169,
    "name": "Crook",
    "state_id": 2406,
    "state_code": "DUR",
    "country_id": 232,
    "country_code": "GB",
    "latitude": "54.71252000",
    "longitude": "-1.74970000",
    "wikiDataId": null
  },
  {
    "id": 49366,
    "name": "Durham",
    "state_id": 2406,
    "state_code": "DUR",
    "country_id": 232,
    "country_code": "GB",
    "latitude": "54.77676000",
    "longitude": "-1.57566000",
    "wikiDataId": null
  },
  {
    "id": 49494,
    "name": "Evenwood",
    "state_id": 2406,
    "state_code": "DUR",
    "country_id": 232,
    "country_code": "GB",
    "latitude": "54.62213000",
    "longitude": "-1.76133000",
    "wikiDataId": null
  },
  {
    "id": 49551,
    "name": "Ferryhill",
    "state_id": 2406,
    "state_code": "DUR",
    "country_id": 232,
    "country_code": "GB",
    "latitude": "54.68333000",
    "longitude": "-1.55000000",
    "wikiDataId": null
  },
  {
    "id": 49925,
    "name": "High Etherley",
    "state_id": 2406,
    "state_code": "DUR",
    "country_id": 232,
    "country_code": "GB",
    "latitude": "54.65391000",
    "longitude": "-1.74363000",
    "wikiDataId": null
  },
  {
    "id": 50030,
    "name": "Hunwick",
    "state_id": 2406,
    "state_code": "DUR",
    "country_id": 232,
    "country_code": "GB",
    "latitude": "54.68791000",
    "longitude": "-1.70539000",
    "wikiDataId": null
  },
  {
    "id": 50237,
    "name": "Lanchester",
    "state_id": 2406,
    "state_code": "DUR",
    "country_id": 232,
    "country_code": "GB",
    "latitude": "54.82108000",
    "longitude": "-1.74256000",
    "wikiDataId": null
  },
  {
    "id": 50245,
    "name": "Langley Park",
    "state_id": 2406,
    "state_code": "DUR",
    "country_id": 232,
    "country_code": "GB",
    "latitude": "54.79979000",
    "longitude": "-1.67005000",
    "wikiDataId": null
  },
  {
    "id": 50422,
    "name": "Low Etherley",
    "state_id": 2406,
    "state_code": "DUR",
    "country_id": 232,
    "country_code": "GB",
    "latitude": "54.65349000",
    "longitude": "-1.74315000",
    "wikiDataId": null
  },
  {
    "id": 51279,
    "name": "Shildon",
    "state_id": 2406,
    "state_code": "DUR",
    "country_id": 232,
    "country_code": "GB",
    "latitude": "54.62997000",
    "longitude": "-1.64295000",
    "wikiDataId": null
  },
  {
    "id": 51387,
    "name": "Spennymoor",
    "state_id": 2406,
    "state_code": "DUR",
    "country_id": 232,
    "country_code": "GB",
    "latitude": "54.69880000",
    "longitude": "-1.60229000",
    "wikiDataId": null
  },
  {
    "id": 51409,
    "name": "Staindrop",
    "state_id": 2406,
    "state_code": "DUR",
    "country_id": 232,
    "country_code": "GB",
    "latitude": "54.58102000",
    "longitude": "-1.80708000",
    "wikiDataId": null
  },
  {
    "id": 51424,
    "name": "Stanhope",
    "state_id": 2406,
    "state_code": "DUR",
    "country_id": 232,
    "country_code": "GB",
    "latitude": "54.75000000",
    "longitude": "-2.01667000",
    "wikiDataId": null
  },
  {
    "id": 51433,
    "name": "Startforth",
    "state_id": 2406,
    "state_code": "DUR",
    "country_id": 232,
    "country_code": "GB",
    "latitude": "54.53851000",
    "longitude": "-1.93016000",
    "wikiDataId": null
  },
  {
    "id": 51653,
    "name": "Tow Law",
    "state_id": 2406,
    "state_code": "DUR",
    "country_id": 232,
    "country_code": "GB",
    "latitude": "54.74456000",
    "longitude": "-1.81434000",
    "wikiDataId": null
  },
  {
    "id": 51709,
    "name": "Ushaw Moor",
    "state_id": 2406,
    "state_code": "DUR",
    "country_id": 232,
    "country_code": "GB",
    "latitude": "54.77803000",
    "longitude": "-1.64720000",
    "wikiDataId": null
  },
  {
    "id": 51813,
    "name": "West Cornforth",
    "state_id": 2406,
    "state_code": "DUR",
    "country_id": 232,
    "country_code": "GB",
    "latitude": "54.70286000",
    "longitude": "-1.51938000",
    "wikiDataId": null
  },
  {
    "id": 51908,
    "name": "Willington",
    "state_id": 2406,
    "state_code": "DUR",
    "country_id": 232,
    "country_code": "GB",
    "latitude": "54.71667000",
    "longitude": "-1.70000000",
    "wikiDataId": null
  },
  {
    "id": 51950,
    "name": "Witton Gilbert",
    "state_id": 2406,
    "state_code": "DUR",
    "country_id": 232,
    "country_code": "GB",
    "latitude": "54.80572000",
    "longitude": "-1.63686000",
    "wikiDataId": null
  },
  {
    "id": 51961,
    "name": "Wolsingham",
    "state_id": 2406,
    "state_code": "DUR",
    "country_id": 232,
    "country_code": "GB",
    "latitude": "54.73085000",
    "longitude": "-1.88319000",
    "wikiDataId": null
  }
]