[
  {
    "id": 89905,
    "name": "Aita Mare",
    "state_id": 4754,
    "state_code": "CV",
    "country_id": 181,
    "country_code": "RO",
    "latitude": "45.96667000",
    "longitude": "25.55000000",
    "wikiDataId": null
  },
  {
    "id": 89976,
    "name": "Araci",
    "state_id": 4754,
    "state_code": "CV",
    "country_id": 181,
    "country_code": "RO",
    "latitude": "45.81187000",
    "longitude": "25.65482000",
    "wikiDataId": null
  },
  {
    "id": 89981,
    "name": "Arcuș",
    "state_id": 4754,
    "state_code": "CV",
    "country_id": 181,
    "country_code": "RO",
    "latitude": "45.90121390",
    "longitude": "25.77459540",
    "wikiDataId": null
  },
  {
    "id": 90058,
    "name": "Baraolt",
    "state_id": 4754,
    "state_code": "CV",
    "country_id": 181,
    "country_code": "RO",
    "latitude": "46.07514000",
    "longitude": "25.60029000",
    "wikiDataId": null
  },
  {
    "id": 90060,
    "name": "Barcani",
    "state_id": 4754,
    "state_code": "CV",
    "country_id": 181,
    "country_code": "RO",
    "latitude": "45.70000000",
    "longitude": "26.08333000",
    "wikiDataId": null
  },
  {
    "id": 90556,
    "name": "Băţanii Mari",
    "state_id": 4754,
    "state_code": "CV",
    "country_id": 181,
    "country_code": "RO",
    "latitude": "46.08333000",
    "longitude": "25.68333000",
    "wikiDataId": null
  },
  {
    "id": 90087,
    "name": "Belin",
    "state_id": 4754,
    "state_code": "CV",
    "country_id": 181,
    "country_code": "RO",
    "latitude": "45.93333000",
    "longitude": "25.56667000",
    "wikiDataId": null
  },
  {
    "id": 90088,
    "name": "Belin-Vale",
    "state_id": 4754,
    "state_code": "CV",
    "country_id": 181,
    "country_code": "RO",
    "latitude": "45.93237000",
    "longitude": "25.60878000",
    "wikiDataId": null
  },
  {
    "id": 90155,
    "name": "Bixad",
    "state_id": 4754,
    "state_code": "CV",
    "country_id": 181,
    "country_code": "RO",
    "latitude": "46.10000000",
    "longitude": "25.86667000",
    "wikiDataId": null
  },
  {
    "id": 90183,
    "name": "Bodoc",
    "state_id": 4754,
    "state_code": "CV",
    "country_id": 181,
    "country_code": "RO",
    "latitude": "45.95000000",
    "longitude": "25.85000000",
    "wikiDataId": null
  },
  {
    "id": 90233,
    "name": "Boroşneu Mare",
    "state_id": 4754,
    "state_code": "CV",
    "country_id": 181,
    "country_code": "RO",
    "latitude": "45.81667000",
    "longitude": "26.00000000",
    "wikiDataId": null
  },
  {
    "id": 90327,
    "name": "Brăduţ",
    "state_id": 4754,
    "state_code": "CV",
    "country_id": 181,
    "country_code": "RO",
    "latitude": "46.13333000",
    "longitude": "25.61667000",
    "wikiDataId": null
  },
  {
    "id": 90276,
    "name": "Brateş",
    "state_id": 4754,
    "state_code": "CV",
    "country_id": 181,
    "country_code": "RO",
    "latitude": "45.83333000",
    "longitude": "26.06667000",
    "wikiDataId": null
  },
  {
    "id": 90304,
    "name": "Breţcu",
    "state_id": 4754,
    "state_code": "CV",
    "country_id": 181,
    "country_code": "RO",
    "latitude": "46.05000000",
    "longitude": "26.30000000",
    "wikiDataId": null
  },
  {
    "id": 93857,
    "name": "Căpeni",
    "state_id": 4754,
    "state_code": "CV",
    "country_id": 181,
    "country_code": "RO",
    "latitude": "46.04111000",
    "longitude": "25.57858000",
    "wikiDataId": null
  },
  {
    "id": 90587,
    "name": "Catalina",
    "state_id": 4754,
    "state_code": "CV",
    "country_id": 181,
    "country_code": "RO",
    "latitude": "45.96667000",
    "longitude": "26.15000000",
    "wikiDataId": null
  },
  {
    "id": 90629,
    "name": "Cernat",
    "state_id": 4754,
    "state_code": "CV",
    "country_id": 181,
    "country_code": "RO",
    "latitude": "45.95000000",
    "longitude": "26.03333000",
    "wikiDataId": null
  },
  {
    "id": 90663,
    "name": "Chichiş",
    "state_id": 4754,
    "state_code": "CV",
    "country_id": 181,
    "country_code": "RO",
    "latitude": "45.78333000",
    "longitude": "25.80000000",
    "wikiDataId": null
  },
  {
    "id": 90809,
    "name": "Comandău",
    "state_id": 4754,
    "state_code": "CV",
    "country_id": 181,
    "country_code": "RO",
    "latitude": "45.76667000",
    "longitude": "26.26667000",
    "wikiDataId": null
  },
  {
    "id": 90835,
    "name": "Comuna Aita Mare",
    "state_id": 4754,
    "state_code": "CV",
    "country_id": 181,
    "country_code": "RO",
    "latitude": "45.97126000",
    "longitude": "25.58824000",
    "wikiDataId": null
  },
  {
    "id": 90936,
    "name": "Comuna Barcani",
    "state_id": 4754,
    "state_code": "CV",
    "country_id": 181,
    "country_code": "RO",
    "latitude": "45.70483000",
    "longitude": "26.06393000",
    "wikiDataId": null
  },
  {
    "id": 91249,
    "name": "Comuna Băţani",
    "state_id": 4754,
    "state_code": "CV",
    "country_id": 181,
    "country_code": "RO",
    "latitude": "46.09167000",
    "longitude": "25.71930000",
    "wikiDataId": null
  },
  {
    "id": 90952,
    "name": "Comuna Belin",
    "state_id": 4754,
    "state_code": "CV",
    "country_id": 181,
    "country_code": "RO",
    "latitude": "45.93361000",
    "longitude": "25.59126000",
    "wikiDataId": null
  },
  {
    "id": 91001,
    "name": "Comuna Bixad",
    "state_id": 4754,
    "state_code": "CV",
    "country_id": 181,
    "country_code": "RO",
    "latitude": "46.10225000",
    "longitude": "25.86344000",
    "wikiDataId": null
  },
  {
    "id": 91019,
    "name": "Comuna Bodoc",
    "state_id": 4754,
    "state_code": "CV",
    "country_id": 181,
    "country_code": "RO",
    "latitude": "45.96190000",
    "longitude": "25.84149000",
    "wikiDataId": null
  },
  {
    "id": 91053,
    "name": "Comuna Boroşneu Mare",
    "state_id": 4754,
    "state_code": "CV",
    "country_id": 181,
    "country_code": "RO",
    "latitude": "45.81010000",
    "longitude": "26.01568000",
    "wikiDataId": null
  },
  {
    "id": 91116,
    "name": "Comuna Brăduţ",
    "state_id": 4754,
    "state_code": "CV",
    "country_id": 181,
    "country_code": "RO",
    "latitude": "46.12574000",
    "longitude": "25.60329000",
    "wikiDataId": null
  },
  {
    "id": 91084,
    "name": "Comuna Brateş",
    "state_id": 4754,
    "state_code": "CV",
    "country_id": 181,
    "country_code": "RO",
    "latitude": "45.83992000",
    "longitude": "26.07887000",
    "wikiDataId": null
  },
  {
    "id": 91100,
    "name": "Comuna Breţcu",
    "state_id": 4754,
    "state_code": "CV",
    "country_id": 181,
    "country_code": "RO",
    "latitude": "46.04444000",
    "longitude": "26.32887000",
    "wikiDataId": null
  },
  {
    "id": 91266,
    "name": "Comuna Catalina",
    "state_id": 4754,
    "state_code": "CV",
    "country_id": 181,
    "country_code": "RO",
    "latitude": "45.93736000",
    "longitude": "26.12250000",
    "wikiDataId": null
  },
  {
    "id": 93581,
    "name": "Comună Cernat",
    "state_id": 4754,
    "state_code": "CV",
    "country_id": 181,
    "country_code": "RO",
    "latitude": "45.96650000",
    "longitude": "26.01955000",
    "wikiDataId": null
  },
  {
    "id": 91312,
    "name": "Comuna Chichiş",
    "state_id": 4754,
    "state_code": "CV",
    "country_id": 181,
    "country_code": "RO",
    "latitude": "45.76781000",
    "longitude": "25.81378000",
    "wikiDataId": null
  },
  {
    "id": 91406,
    "name": "Comuna Comandău",
    "state_id": 4754,
    "state_code": "CV",
    "country_id": 181,
    "country_code": "RO",
    "latitude": "45.76179000",
    "longitude": "26.27776000",
    "wikiDataId": null
  },
  {
    "id": 91647,
    "name": "Comuna Dobârlău",
    "state_id": 4754,
    "state_code": "CV",
    "country_id": 181,
    "country_code": "RO",
    "latitude": "45.73410000",
    "longitude": "25.88112000",
    "wikiDataId": null
  },
  {
    "id": 91750,
    "name": "Comuna Estelnic",
    "state_id": 4754,
    "state_code": "CV",
    "country_id": 181,
    "country_code": "RO",
    "latitude": "46.12537000",
    "longitude": "26.20544000",
    "wikiDataId": null
  },
  {
    "id": 91841,
    "name": "Comuna Ghelinţa",
    "state_id": 4754,
    "state_code": "CV",
    "country_id": 181,
    "country_code": "RO",
    "latitude": "45.93491000",
    "longitude": "26.22068000",
    "wikiDataId": null
  },
  {
    "id": 91851,
    "name": "Comuna Ghidfalău",
    "state_id": 4754,
    "state_code": "CV",
    "country_id": 181,
    "country_code": "RO",
    "latitude": "45.89956000",
    "longitude": "25.86399000",
    "wikiDataId": null
  },
  {
    "id": 92036,
    "name": "Comuna Hăghig",
    "state_id": 4754,
    "state_code": "CV",
    "country_id": 181,
    "country_code": "RO",
    "latitude": "45.85362000",
    "longitude": "25.59501000",
    "wikiDataId": null
  },
  {
    "id": 92071,
    "name": "Comuna Ilieni",
    "state_id": 4754,
    "state_code": "CV",
    "country_id": 181,
    "country_code": "RO",
    "latitude": "45.80054000",
    "longitude": "25.76436000",
    "wikiDataId": null
  },
  {
    "id": 92149,
    "name": "Comuna Lemnia",
    "state_id": 4754,
    "state_code": "CV",
    "country_id": 181,
    "country_code": "RO",
    "latitude": "46.07078000",
    "longitude": "26.27277000",
    "wikiDataId": null
  },
  {
    "id": 92233,
    "name": "Comuna Malnaş",
    "state_id": 4754,
    "state_code": "CV",
    "country_id": 181,
    "country_code": "RO",
    "latitude": "46.01995000",
    "longitude": "25.82705000",
    "wikiDataId": null
  },
  {
    "id": 92256,
    "name": "Comuna Mereni",
    "state_id": 4754,
    "state_code": "CV",
    "country_id": 181,
    "country_code": "RO",
    "latitude": "46.08496000",
    "longitude": "26.23460000",
    "wikiDataId": null
  },
  {
    "id": 92311,
    "name": "Comuna Moacşa",
    "state_id": 4754,
    "state_code": "CV",
    "country_id": 181,
    "country_code": "RO",
    "latitude": "45.87883000",
    "longitude": "25.95270000",
    "wikiDataId": null
  },
  {
    "id": 92491,
    "name": "Comuna Ojdula",
    "state_id": 4754,
    "state_code": "CV",
    "country_id": 181,
    "country_code": "RO",
    "latitude": "45.97871000",
    "longitude": "26.24773000",
    "wikiDataId": null
  },
  {
    "id": 92523,
    "name": "Comuna Ozun",
    "state_id": 4754,
    "state_code": "CV",
    "country_id": 181,
    "country_code": "RO",
    "latitude": "45.78331000",
    "longitude": "25.88260000",
    "wikiDataId": null
  },
  {
    "id": 92621,
    "name": "Comuna Poian",
    "state_id": 4754,
    "state_code": "CV",
    "country_id": 181,
    "country_code": "RO",
    "latitude": "46.07731000",
    "longitude": "26.17423000",
    "wikiDataId": null
  },
  {
    "id": 92757,
    "name": "Comuna Reci",
    "state_id": 4754,
    "state_code": "CV",
    "country_id": 181,
    "country_code": "RO",
    "latitude": "45.81913000",
    "longitude": "25.95552000",
    "wikiDataId": null
  },
  {
    "id": 93070,
    "name": "Comuna Sânzieni",
    "state_id": 4754,
    "state_code": "CV",
    "country_id": 181,
    "country_code": "RO",
    "latitude": "46.06458000",
    "longitude": "26.11790000",
    "wikiDataId": null
  },
  {
    "id": 92946,
    "name": "Comuna Sita Buzăului",
    "state_id": 4754,
    "state_code": "CV",
    "country_id": 181,
    "country_code": "RO",
    "latitude": "45.61959000",
    "longitude": "26.10621000",
    "wikiDataId": null
  },
  {
    "id": 93214,
    "name": "Comuna Turia",
    "state_id": 4754,
    "state_code": "CV",
    "country_id": 181,
    "country_code": "RO",
    "latitude": "46.02927000",
    "longitude": "26.03953000",
    "wikiDataId": null
  },
  {
    "id": 93426,
    "name": "Comuna Vâlcele",
    "state_id": 4754,
    "state_code": "CV",
    "country_id": 181,
    "country_code": "RO",
    "latitude": "45.81736000",
    "longitude": "25.67925000",
    "wikiDataId": null
  },
  {
    "id": 93301,
    "name": "Comuna Valea Crişului",
    "state_id": 4754,
    "state_code": "CV",
    "country_id": 181,
    "country_code": "RO",
    "latitude": "45.92372000",
    "longitude": "25.78483000",
    "wikiDataId": null
  },
  {
    "id": 93311,
    "name": "Comuna Valea Mare",
    "state_id": 4754,
    "state_code": "CV",
    "country_id": 181,
    "country_code": "RO",
    "latitude": "45.76389000",
    "longitude": "26.01435000",
    "wikiDataId": null
  },
  {
    "id": 93442,
    "name": "Comuna Vârghiş",
    "state_id": 4754,
    "state_code": "CV",
    "country_id": 181,
    "country_code": "RO",
    "latitude": "46.12737000",
    "longitude": "25.55901000",
    "wikiDataId": null
  },
  {
    "id": 93483,
    "name": "Comuna Zăbala",
    "state_id": 4754,
    "state_code": "CV",
    "country_id": 181,
    "country_code": "RO",
    "latitude": "45.89141000",
    "longitude": "26.13251000",
    "wikiDataId": null
  },
  {
    "id": 93468,
    "name": "Comuna Zagon",
    "state_id": 4754,
    "state_code": "CV",
    "country_id": 181,
    "country_code": "RO",
    "latitude": "45.77961000",
    "longitude": "26.12897000",
    "wikiDataId": null
  },
  {
    "id": 93680,
    "name": "Covasna",
    "state_id": 4754,
    "state_code": "CV",
    "country_id": 181,
    "country_code": "RO",
    "latitude": "45.85000000",
    "longitude": "26.18333000",
    "wikiDataId": null
  },
  {
    "id": 93891,
    "name": "Dalnic",
    "state_id": 4754,
    "state_code": "CV",
    "country_id": 181,
    "country_code": "RO",
    "latitude": "45.92241730",
    "longitude": "25.98741010",
    "wikiDataId": null
  },
  {
    "id": 93973,
    "name": "Dobârlău",
    "state_id": 4754,
    "state_code": "CV",
    "country_id": 181,
    "country_code": "RO",
    "latitude": "45.73333000",
    "longitude": "25.88333000",
    "wikiDataId": null
  },
  {
    "id": 93945,
    "name": "Doboșeni",
    "state_id": 4754,
    "state_code": "CV",
    "country_id": 181,
    "country_code": "RO",
    "latitude": "46.12431000",
    "longitude": "25.59347000",
    "wikiDataId": null
  },
  {
    "id": 94145,
    "name": "Estelnic",
    "state_id": 4754,
    "state_code": "CV",
    "country_id": 181,
    "country_code": "RO",
    "latitude": "46.10445000",
    "longitude": "26.21262000",
    "wikiDataId": null
  },
  {
    "id": 94170,
    "name": "Filia",
    "state_id": 4754,
    "state_code": "CV",
    "country_id": 181,
    "country_code": "RO",
    "latitude": "46.14409000",
    "longitude": "25.62140000",
    "wikiDataId": null
  },
  {
    "id": 94190,
    "name": "Floroaia",
    "state_id": 4754,
    "state_code": "CV",
    "country_id": 181,
    "country_code": "RO",
    "latitude": "45.69497000",
    "longitude": "26.01563000",
    "wikiDataId": null
  },
  {
    "id": 94299,
    "name": "Ghelinţa",
    "state_id": 4754,
    "state_code": "CV",
    "country_id": 181,
    "country_code": "RO",
    "latitude": "45.95000000",
    "longitude": "26.23333000",
    "wikiDataId": null
  },
  {
    "id": 94316,
    "name": "Ghidfalău",
    "state_id": 4754,
    "state_code": "CV",
    "country_id": 181,
    "country_code": "RO",
    "latitude": "45.90000000",
    "longitude": "25.85000000",
    "wikiDataId": null
  },
  {
    "id": 94597,
    "name": "Hăghig",
    "state_id": 4754,
    "state_code": "CV",
    "country_id": 181,
    "country_code": "RO",
    "latitude": "45.83333000",
    "longitude": "25.58333000",
    "wikiDataId": null
  },
  {
    "id": 94530,
    "name": "Herculian",
    "state_id": 4754,
    "state_code": "CV",
    "country_id": 181,
    "country_code": "RO",
    "latitude": "46.13402000",
    "longitude": "25.70977000",
    "wikiDataId": null
  },
  {
    "id": 94657,
    "name": "Ilieni",
    "state_id": 4754,
    "state_code": "CV",
    "country_id": 181,
    "country_code": "RO",
    "latitude": "45.80000000",
    "longitude": "25.76667000",
    "wikiDataId": null
  },
  {
    "id": 97026,
    "name": "Întorsura Buzăului",
    "state_id": 4754,
    "state_code": "CV",
    "country_id": 181,
    "country_code": "RO",
    "latitude": "45.68333000",
    "longitude": "26.03333000",
    "wikiDataId": null
  },
  {
    "id": 94776,
    "name": "Lemnia",
    "state_id": 4754,
    "state_code": "CV",
    "country_id": 181,
    "country_code": "RO",
    "latitude": "46.05000000",
    "longitude": "26.26667000",
    "wikiDataId": null
  },
  {
    "id": 94879,
    "name": "Lunga",
    "state_id": 4754,
    "state_code": "CV",
    "country_id": 181,
    "country_code": "RO",
    "latitude": "46.01822000",
    "longitude": "26.21208000",
    "wikiDataId": null
  },
  {
    "id": 94913,
    "name": "Malnaş",
    "state_id": 4754,
    "state_code": "CV",
    "country_id": 181,
    "country_code": "RO",
    "latitude": "46.01667000",
    "longitude": "25.83333000",
    "wikiDataId": null
  },
  {
    "id": 94951,
    "name": "Mereni",
    "state_id": 4754,
    "state_code": "CV",
    "country_id": 181,
    "country_code": "RO",
    "latitude": "46.07924000",
    "longitude": "26.23597000",
    "wikiDataId": null
  },
  {
    "id": 94968,
    "name": "Micfalău",
    "state_id": 4754,
    "state_code": "CV",
    "country_id": 181,
    "country_code": "RO",
    "latitude": "46.05027730",
    "longitude": "25.83466530",
    "wikiDataId": null
  },
  {
    "id": 95038,
    "name": "Moacşa",
    "state_id": 4754,
    "state_code": "CV",
    "country_id": 181,
    "country_code": "RO",
    "latitude": "45.86667000",
    "longitude": "25.96667000",
    "wikiDataId": null
  },
  {
    "id": 95180,
    "name": "Municipiul Sfântu Gheorghe",
    "state_id": 4754,
    "state_code": "CV",
    "country_id": 181,
    "country_code": "RO",
    "latitude": "45.83806000",
    "longitude": "25.79730000",
    "wikiDataId": null
  },
  {
    "id": 95193,
    "name": "Municipiul Târgu Secuiesc",
    "state_id": 4754,
    "state_code": "CV",
    "country_id": 181,
    "country_code": "RO",
    "latitude": "46.00589000",
    "longitude": "26.17155000",
    "wikiDataId": null
  },
  {
    "id": 95421,
    "name": "Ojdula",
    "state_id": 4754,
    "state_code": "CV",
    "country_id": 181,
    "country_code": "RO",
    "latitude": "45.98333000",
    "longitude": "26.25000000",
    "wikiDataId": null
  },
  {
    "id": 95458,
    "name": "Oraş Baraolt",
    "state_id": 4754,
    "state_code": "CV",
    "country_id": 181,
    "country_code": "RO",
    "latitude": "46.06250000",
    "longitude": "25.60505000",
    "wikiDataId": null
  },
  {
    "id": 95499,
    "name": "Oraş Covasna",
    "state_id": 4754,
    "state_code": "CV",
    "country_id": 181,
    "country_code": "RO",
    "latitude": "45.83527000",
    "longitude": "26.16637000",
    "wikiDataId": null
  },
  {
    "id": 95628,
    "name": "Oraş Întorsura Buzãului",
    "state_id": 4754,
    "state_code": "CV",
    "country_id": 181,
    "country_code": "RO",
    "latitude": "45.68539000",
    "longitude": "26.01260000",
    "wikiDataId": null
  },
  {
    "id": 95687,
    "name": "Ozun",
    "state_id": 4754,
    "state_code": "CV",
    "country_id": 181,
    "country_code": "RO",
    "latitude": "45.80000000",
    "longitude": "25.85000000",
    "wikiDataId": null
  },
  {
    "id": 96019,
    "name": "Păpăuți",
    "state_id": 4754,
    "state_code": "CV",
    "country_id": 181,
    "country_code": "RO",
    "latitude": "45.78333000",
    "longitude": "26.13333000",
    "wikiDataId": null
  },
  {
    "id": 95859,
    "name": "Poian",
    "state_id": 4754,
    "state_code": "CV",
    "country_id": 181,
    "country_code": "RO",
    "latitude": "46.06667000",
    "longitude": "26.15000000",
    "wikiDataId": null
  },
  {
    "id": 96073,
    "name": "Reci",
    "state_id": 4754,
    "state_code": "CV",
    "country_id": 181,
    "country_code": "RO",
    "latitude": "45.85000000",
    "longitude": "25.93333000",
    "wikiDataId": null
  },
  {
    "id": 105982,
    "name": "Sânzieni",
    "state_id": 4754,
    "state_code": "CV",
    "country_id": 181,
    "country_code": "RO",
    "latitude": "46.05000000",
    "longitude": "26.13333000",
    "wikiDataId": null
  },
  {
    "id": 96330,
    "name": "Sfântu Gheorghe",
    "state_id": 4754,
    "state_code": "CV",
    "country_id": 181,
    "country_code": "RO",
    "latitude": "45.86667000",
    "longitude": "25.78333000",
    "wikiDataId": null
  },
  {
    "id": 96360,
    "name": "Sita Buzăului",
    "state_id": 4754,
    "state_code": "CV",
    "country_id": 181,
    "country_code": "RO",
    "latitude": "45.65000000",
    "longitude": "26.06667000",
    "wikiDataId": null
  },
  {
    "id": 96588,
    "name": "Târgu Secuiesc",
    "state_id": 4754,
    "state_code": "CV",
    "country_id": 181,
    "country_code": "RO",
    "latitude": "46.00000000",
    "longitude": "26.13333000",
    "wikiDataId": null
  },
  {
    "id": 96562,
    "name": "Turia",
    "state_id": 4754,
    "state_code": "CV",
    "country_id": 181,
    "country_code": "RO",
    "latitude": "46.03333000",
    "longitude": "26.05000000",
    "wikiDataId": null
  },
  {
    "id": 96918,
    "name": "Vâlcele",
    "state_id": 4754,
    "state_code": "CV",
    "country_id": 181,
    "country_code": "RO",
    "latitude": "45.85000000",
    "longitude": "25.68333000",
    "wikiDataId": null
  },
  {
    "id": 96717,
    "name": "Valea Crişului",
    "state_id": 4754,
    "state_code": "CV",
    "country_id": 181,
    "country_code": "RO",
    "latitude": "45.91667000",
    "longitude": "25.76667000",
    "wikiDataId": null
  },
  {
    "id": 96735,
    "name": "Valea Mare",
    "state_id": 4754,
    "state_code": "CV",
    "country_id": 181,
    "country_code": "RO",
    "latitude": "45.76667000",
    "longitude": "26.00000000",
    "wikiDataId": null
  },
  {
    "id": 96941,
    "name": "Vârghiş",
    "state_id": 4754,
    "state_code": "CV",
    "country_id": 181,
    "country_code": "RO",
    "latitude": "46.13333000",
    "longitude": "25.53333000",
    "wikiDataId": null
  },
  {
    "id": 97008,
    "name": "Zăbala",
    "state_id": 4754,
    "state_code": "CV",
    "country_id": 181,
    "country_code": "RO",
    "latitude": "45.90000000",
    "longitude": "26.18333000",
    "wikiDataId": null
  },
  {
    "id": 96979,
    "name": "Zagon",
    "state_id": 4754,
    "state_code": "CV",
    "country_id": 181,
    "country_code": "RO",
    "latitude": "45.76667000",
    "longitude": "26.11667000",
    "wikiDataId": null
  }
]