[
  {
    "id": 31809,
    "name": "Dishnā",
    "state_id": 3247,
    "state_code": "KN",
    "country_id": 65,
    "country_code": "EG",
    "latitude": "26.12467000",
    "longitude": "32.47598000",
    "wikiDataId": null
  },
  {
    "id": 31813,
    "name": "Farshūţ",
    "state_id": 3247,
    "state_code": "KN",
    "country_id": 65,
    "country_code": "EG",
    "latitude": "26.05494000",
    "longitude": "32.16329000",
    "wikiDataId": null
  },
  {
    "id": 31822,
    "name": "Isnā",
    "state_id": 3247,
    "state_code": "KN",
    "country_id": 65,
    "country_code": "EG",
    "latitude": "25.29336000",
    "longitude": "32.55402000",
    "wikiDataId": null
  },
  {
    "id": 31831,
    "name": "Kousa",
    "state_id": 3247,
    "state_code": "KN",
    "country_id": 65,
    "country_code": "EG",
    "latitude": "25.91407000",
    "longitude": "32.76362000",
    "wikiDataId": null
  },
  {
    "id": 31847,
    "name": "Naja' Ḥammādī",
    "state_id": 3247,
    "state_code": "KN",
    "country_id": 65,
    "country_code": "EG",
    "latitude": "26.04949000",
    "longitude": "32.24142000",
    "wikiDataId": null
  },
  {
    "id": 31853,
    "name": "Qinā",
    "state_id": 3247,
    "state_code": "KN",
    "country_id": 65,
    "country_code": "EG",
    "latitude": "26.16418000",
    "longitude": "32.72671000",
    "wikiDataId": null
  }
]