[
  {
    "id": 2846,
    "name": "Brokopondo",
    "country_id": 210,
    "country_code": "SR",
    "state_code": "BR",
    "type": "district",
    "latitude": "4.68516430",
    "longitude": "-55.06109300",
    "iso3166_2": "SR-BR",
    "native": "Brocopondo",
    "timezone": "America/Paramaribo"
  },
  {
    "id": 2839,
    "name": "Commewijne",
    "country_id": 210,
    "country_code": "SR",
    "state_code": "CM",
    "type": "district",
    "latitude": "5.84011980",
    "longitude": "-54.92444310",
    "iso3166_2": "SR-CM",
    "native": "Commewijne",
    "timezone": "America/Paramaribo"
  },
  {
    "id": 2842,
    "name": "Coronie",
    "country_id": 210,
    "country_code": "SR",
    "state_code": "CR",
    "type": "district",
    "latitude": "5.74685630",
    "longitude": "-56.24551620",
    "iso3166_2": "SR-CR",
    "native": "Coronie",
    "timezone": "America/Paramaribo"
  },
  {
    "id": 2845,
    "name": "Marowijne",
    "country_id": 210,
    "country_code": "SR",
    "state_code": "MA",
    "type": "district",
    "latitude": "5.70832720",
    "longitude": "-54.35369000",
    "iso3166_2": "SR-MA",
    "native": "Marowijne",
    "timezone": "America/Paramaribo"
  },
  {
    "id": 2840,
    "name": "Nickerie",
    "country_id": 210,
    "country_code": "SR",
    "state_code": "NI",
    "type": "district",
    "latitude": "5.71839250",
    "longitude": "-56.87751050",
    "iso3166_2": "SR-NI",
    "native": "Nickerie",
    "timezone": "America/Paramaribo"
  },
  {
    "id": 2841,
    "name": "Para",
    "country_id": 210,
    "country_code": "SR",
    "state_code": "PR",
    "type": "district",
    "latitude": "5.34304130",
    "longitude": "-55.58134100",
    "iso3166_2": "SR-PR",
    "native": "Naar",
    "timezone": "America/Paramaribo"
  },
  {
    "id": 2843,
    "name": "Paramaribo",
    "country_id": 210,
    "country_code": "SR",
    "state_code": "PM",
    "type": "district",
    "latitude": "5.82476280",
    "longitude": "-55.17039410",
    "iso3166_2": "SR-PM",
    "native": "Paramaribo",
    "timezone": "America/Paramaribo"
  },
  {
    "id": 2848,
    "name": "Saramacca",
    "country_id": 210,
    "country_code": "SR",
    "state_code": "SA",
    "type": "district",
    "latitude": "5.78708050",
    "longitude": "-55.60645740",
    "iso3166_2": "SR-SA",
    "native": "Saramacca",
    "timezone": "America/Paramaribo"
  },
  {
    "id": 2847,
    "name": "Sipaliwini",
    "country_id": 210,
    "country_code": "SR",
    "state_code": "SI",
    "type": "district",
    "latitude": "3.68150860",
    "longitude": "-55.96124600",
    "iso3166_2": "SR-SI",
    "native": "Sipaliwini",
    "timezone": "America/Paramaribo"
  },
  {
    "id": 2844,
    "name": "Wanica",
    "country_id": 210,
    "country_code": "SR",
    "state_code": "WA",
    "type": "district",
    "latitude": "5.75000000",
    "longitude": "-55.25000000",
    "iso3166_2": "SR-WA",
    "native": "Wanica",
    "timezone": "America/Paramaribo"
  }
]