[
  {
    "id": 97626,
    "name": "Andreapol’",
    "state_id": 1860,
    "state_code": "TVE",
    "country_id": 182,
    "country_code": "RU",
    "latitude": "56.65134000",
    "longitude": "32.26640000",
    "wikiDataId": null
  },
  {
    "id": 97627,
    "name": "Andreapol’skiy Rayon",
    "state_id": 1860,
    "state_code": "TVE",
    "country_id": 182,
    "country_code": "RU",
    "latitude": "56.66667000",
    "longitude": "32.25000000",
    "wikiDataId": null
  },
  {
    "id": 97885,
    "name": "Bel’skiy Rayon",
    "state_id": 1860,
    "state_code": "TVE",
    "country_id": 182,
    "country_code": "RU",
    "latitude": "55.83333000",
    "longitude": "33.08333000",
    "wikiDataId": null
  },
  {
    "id": 97878,
    "name": "Belyy",
    "state_id": 1860,
    "state_code": "TVE",
    "country_id": 182,
    "country_code": "RU",
    "latitude": "55.84020000",
    "longitude": "32.94190000",
    "wikiDataId": null
  },
  {
    "id": 97879,
    "name": "Belyy Gorodok",
    "state_id": 1860,
    "state_code": "TVE",
    "country_id": 182,
    "country_code": "RU",
    "latitude": "56.96500000",
    "longitude": "37.51250000",
    "wikiDataId": null
  },
  {
    "id": 97894,
    "name": "Berezayka",
    "state_id": 1860,
    "state_code": "TVE",
    "country_id": 182,
    "country_code": "RU",
    "latitude": "57.98833000",
    "longitude": "33.90361000",
    "wikiDataId": null
  },
  {
    "id": 97899,
    "name": "Bernovo",
    "state_id": 1860,
    "state_code": "TVE",
    "country_id": 182,
    "country_code": "RU",
    "latitude": "56.68633000",
    "longitude": "34.70357000",
    "wikiDataId": null
  },
  {
    "id": 97920,
    "name": "Bezhetsk",
    "state_id": 1860,
    "state_code": "TVE",
    "country_id": 182,
    "country_code": "RU",
    "latitude": "57.78506000",
    "longitude": "36.69651000",
    "wikiDataId": null
  },
  {
    "id": 97921,
    "name": "Bezhetskiy Rayon",
    "state_id": 1860,
    "state_code": "TVE",
    "country_id": 182,
    "country_code": "RU",
    "latitude": "57.76667000",
    "longitude": "36.58333000",
    "wikiDataId": null
  },
  {
    "id": 97993,
    "name": "Bologovskiy Rayon",
    "state_id": 1860,
    "state_code": "TVE",
    "country_id": 182,
    "country_code": "RU",
    "latitude": "57.91667000",
    "longitude": "34.00000000",
    "wikiDataId": null
  },
  {
    "id": 97994,
    "name": "Bologoye",
    "state_id": 1860,
    "state_code": "TVE",
    "country_id": 182,
    "country_code": "RU",
    "latitude": "57.88585000",
    "longitude": "34.04876000",
    "wikiDataId": null
  },
  {
    "id": 97995,
    "name": "Bologoye-4",
    "state_id": 1860,
    "state_code": "TVE",
    "country_id": 182,
    "country_code": "RU",
    "latitude": "57.90000000",
    "longitude": "33.65000000",
    "wikiDataId": null
  },
  {
    "id": 98393,
    "name": "Emmaus",
    "state_id": 1860,
    "state_code": "TVE",
    "country_id": 182,
    "country_code": "RU",
    "latitude": "56.78055000",
    "longitude": "36.11500000",
    "wikiDataId": null
  },
  {
    "id": 98429,
    "name": "Firovo",
    "state_id": 1860,
    "state_code": "TVE",
    "country_id": 182,
    "country_code": "RU",
    "latitude": "57.48135000",
    "longitude": "33.70211000",
    "wikiDataId": null
  },
  {
    "id": 98430,
    "name": "Firovskiy Rayon",
    "state_id": 1860,
    "state_code": "TVE",
    "country_id": 182,
    "country_code": "RU",
    "latitude": "57.48333000",
    "longitude": "33.70000000",
    "wikiDataId": null
  },
  {
    "id": 98561,
    "name": "Gorodnya",
    "state_id": 1860,
    "state_code": "TVE",
    "country_id": 182,
    "country_code": "RU",
    "latitude": "56.70550000",
    "longitude": "36.31793000",
    "wikiDataId": null
  },
  {
    "id": 98656,
    "name": "Il’inskoye",
    "state_id": 1860,
    "state_code": "TVE",
    "country_id": 182,
    "country_code": "RU",
    "latitude": "56.96667000",
    "longitude": "37.18333000",
    "wikiDataId": null
  },
  {
    "id": 98758,
    "name": "Izoplit",
    "state_id": 1860,
    "state_code": "TVE",
    "country_id": 182,
    "country_code": "RU",
    "latitude": "56.62558000",
    "longitude": "36.22198000",
    "wikiDataId": null
  },
  {
    "id": 98781,
    "name": "Kalashnikovo",
    "state_id": 1860,
    "state_code": "TVE",
    "country_id": 182,
    "country_code": "RU",
    "latitude": "57.28237000",
    "longitude": "35.22617000",
    "wikiDataId": null
  },
  {
    "id": 98791,
    "name": "Kalininskiy Rayon",
    "state_id": 1860,
    "state_code": "TVE",
    "country_id": 182,
    "country_code": "RU",
    "latitude": "56.75958000",
    "longitude": "35.98945000",
    "wikiDataId": null
  },
  {
    "id": 98803,
    "name": "Kalyazin",
    "state_id": 1860,
    "state_code": "TVE",
    "country_id": 182,
    "country_code": "RU",
    "latitude": "57.24028000",
    "longitude": "37.84333000",
    "wikiDataId": null
  },
  {
    "id": 98804,
    "name": "Kalyazinskiy Rayon",
    "state_id": 1860,
    "state_code": "TVE",
    "country_id": 182,
    "country_code": "RU",
    "latitude": "57.25000000",
    "longitude": "37.83333000",
    "wikiDataId": null
  },
  {
    "id": 98891,
    "name": "Kashin",
    "state_id": 1860,
    "state_code": "TVE",
    "country_id": 182,
    "country_code": "RU",
    "latitude": "57.35917000",
    "longitude": "37.60806000",
    "wikiDataId": null
  },
  {
    "id": 98892,
    "name": "Kashinskiy Rayon",
    "state_id": 1860,
    "state_code": "TVE",
    "country_id": 182,
    "country_code": "RU",
    "latitude": "57.41667000",
    "longitude": "37.58333000",
    "wikiDataId": null
  },
  {
    "id": 98943,
    "name": "Kesova Gora",
    "state_id": 1860,
    "state_code": "TVE",
    "country_id": 182,
    "country_code": "RU",
    "latitude": "57.58361000",
    "longitude": "37.29222000",
    "wikiDataId": null
  },
  {
    "id": 98944,
    "name": "Kesovogorskiy Rayon",
    "state_id": 1860,
    "state_code": "TVE",
    "country_id": 182,
    "country_code": "RU",
    "latitude": "57.58333000",
    "longitude": "37.33333000",
    "wikiDataId": null
  },
  {
    "id": 99043,
    "name": "Kimrskiy Rayon",
    "state_id": 1860,
    "state_code": "TVE",
    "country_id": 182,
    "country_code": "RU",
    "latitude": "56.91667000",
    "longitude": "37.33333000",
    "wikiDataId": null
  },
  {
    "id": 99044,
    "name": "Kimry",
    "state_id": 1860,
    "state_code": "TVE",
    "country_id": 182,
    "country_code": "RU",
    "latitude": "56.86667000",
    "longitude": "37.35000000",
    "wikiDataId": null
  },
  {
    "id": 99177,
    "name": "Konakovo",
    "state_id": 1860,
    "state_code": "TVE",
    "country_id": 182,
    "country_code": "RU",
    "latitude": "56.70000000",
    "longitude": "36.76667000",
    "wikiDataId": null
  },
  {
    "id": 99178,
    "name": "Konakovskiy Rayon",
    "state_id": 1860,
    "state_code": "TVE",
    "country_id": 182,
    "country_code": "RU",
    "latitude": "56.66667000",
    "longitude": "36.83333000",
    "wikiDataId": null
  },
  {
    "id": 99268,
    "name": "Kozlovo",
    "state_id": 1860,
    "state_code": "TVE",
    "country_id": 182,
    "country_code": "RU",
    "latitude": "56.50977000",
    "longitude": "36.27326000",
    "wikiDataId": null
  },
  {
    "id": 99325,
    "name": "Krasnokholmskiy Rayon",
    "state_id": 1860,
    "state_code": "TVE",
    "country_id": 182,
    "country_code": "RU",
    "latitude": "58.08333000",
    "longitude": "37.16667000",
    "wikiDataId": null
  },
  {
    "id": 99328,
    "name": "Krasnomayskiy",
    "state_id": 1860,
    "state_code": "TVE",
    "country_id": 182,
    "country_code": "RU",
    "latitude": "57.61941000",
    "longitude": "34.40987000",
    "wikiDataId": null
  },
  {
    "id": 99363,
    "name": "Krasnyy Kholm",
    "state_id": 1860,
    "state_code": "TVE",
    "country_id": 182,
    "country_code": "RU",
    "latitude": "58.06070000",
    "longitude": "37.12032000",
    "wikiDataId": null
  },
  {
    "id": 99491,
    "name": "Kuvshinovo",
    "state_id": 1860,
    "state_code": "TVE",
    "country_id": 182,
    "country_code": "RU",
    "latitude": "57.02953000",
    "longitude": "34.17252000",
    "wikiDataId": null
  },
  {
    "id": 99492,
    "name": "Kuvshinovskiy Rayon",
    "state_id": 1860,
    "state_code": "TVE",
    "country_id": 182,
    "country_code": "RU",
    "latitude": "57.00000000",
    "longitude": "34.16667000",
    "wikiDataId": null
  },
  {
    "id": 99502,
    "name": "Kuzhenkino",
    "state_id": 1860,
    "state_code": "TVE",
    "country_id": 182,
    "country_code": "RU",
    "latitude": "57.76111000",
    "longitude": "33.95083000",
    "wikiDataId": null
  },
  {
    "id": 99598,
    "name": "Lesnoy Rayon",
    "state_id": 1860,
    "state_code": "TVE",
    "country_id": 182,
    "country_code": "RU",
    "latitude": "58.25000000",
    "longitude": "35.50000000",
    "wikiDataId": null
  },
  {
    "id": 99599,
    "name": "Lesnoye",
    "state_id": 1860,
    "state_code": "TVE",
    "country_id": 182,
    "country_code": "RU",
    "latitude": "58.28406000",
    "longitude": "35.51584000",
    "wikiDataId": null
  },
  {
    "id": 99623,
    "name": "Likhoslavl’",
    "state_id": 1860,
    "state_code": "TVE",
    "country_id": 182,
    "country_code": "RU",
    "latitude": "57.12747000",
    "longitude": "35.46404000",
    "wikiDataId": null
  },
  {
    "id": 99624,
    "name": "Likhoslavl’skiy Rayon",
    "state_id": 1860,
    "state_code": "TVE",
    "country_id": 182,
    "country_code": "RU",
    "latitude": "57.16667000",
    "longitude": "35.41667000",
    "wikiDataId": null
  },
  {
    "id": 99746,
    "name": "Maksatikha",
    "state_id": 1860,
    "state_code": "TVE",
    "country_id": 182,
    "country_code": "RU",
    "latitude": "57.79695000",
    "longitude": "35.88254000",
    "wikiDataId": null
  },
  {
    "id": 99747,
    "name": "Maksatikhinskiy Rayon",
    "state_id": 1860,
    "state_code": "TVE",
    "country_id": 182,
    "country_code": "RU",
    "latitude": "57.83333000",
    "longitude": "35.91667000",
    "wikiDataId": null
  },
  {
    "id": 99952,
    "name": "Molokovo",
    "state_id": 1860,
    "state_code": "TVE",
    "country_id": 182,
    "country_code": "RU",
    "latitude": "58.16611000",
    "longitude": "36.76278000",
    "wikiDataId": null
  },
  {
    "id": 100098,
    "name": "Nelidovo",
    "state_id": 1860,
    "state_code": "TVE",
    "country_id": 182,
    "country_code": "RU",
    "latitude": "56.22107000",
    "longitude": "32.77738000",
    "wikiDataId": null
  },
  {
    "id": 100335,
    "name": "Novozavidovskiy",
    "state_id": 1860,
    "state_code": "TVE",
    "country_id": 182,
    "country_code": "RU",
    "latitude": "56.55000000",
    "longitude": "36.43333000",
    "wikiDataId": null
  },
  {
    "id": 100421,
    "name": "Olenino",
    "state_id": 1860,
    "state_code": "TVE",
    "country_id": 182,
    "country_code": "RU",
    "latitude": "56.20917000",
    "longitude": "33.48888000",
    "wikiDataId": null
  },
  {
    "id": 100477,
    "name": "Orsha",
    "state_id": 1860,
    "state_code": "TVE",
    "country_id": 182,
    "country_code": "RU",
    "latitude": "56.91196000",
    "longitude": "36.22862000",
    "wikiDataId": null
  },
  {
    "id": 100491,
    "name": "Ostashkov",
    "state_id": 1860,
    "state_code": "TVE",
    "country_id": 182,
    "country_code": "RU",
    "latitude": "57.14667000",
    "longitude": "33.10753000",
    "wikiDataId": null
  },
  {
    "id": 100492,
    "name": "Ostashkovskiy Rayon",
    "state_id": 1860,
    "state_code": "TVE",
    "country_id": 182,
    "country_code": "RU",
    "latitude": "57.16667000",
    "longitude": "33.25000000",
    "wikiDataId": null
  },
  {
    "id": 100593,
    "name": "Peno",
    "state_id": 1860,
    "state_code": "TVE",
    "country_id": 182,
    "country_code": "RU",
    "latitude": "56.92624000",
    "longitude": "32.74262000",
    "wikiDataId": null
  },
  {
    "id": 100594,
    "name": "Penovskiy Rayon",
    "state_id": 1860,
    "state_code": "TVE",
    "country_id": 182,
    "country_code": "RU",
    "latitude": "56.91667000",
    "longitude": "32.75000000",
    "wikiDataId": null
  },
  {
    "id": 100922,
    "name": "Radchenko",
    "state_id": 1860,
    "state_code": "TVE",
    "country_id": 182,
    "country_code": "RU",
    "latitude": "56.68027000",
    "longitude": "36.37178000",
    "wikiDataId": null
  },
  {
    "id": 100937,
    "name": "Rameshki",
    "state_id": 1860,
    "state_code": "TVE",
    "country_id": 182,
    "country_code": "RU",
    "latitude": "57.34390000",
    "longitude": "36.04535000",
    "wikiDataId": null
  },
  {
    "id": 100938,
    "name": "Rameshkovskiy Rayon",
    "state_id": 1860,
    "state_code": "TVE",
    "country_id": 182,
    "country_code": "RU",
    "latitude": "57.33333000",
    "longitude": "36.08333000",
    "wikiDataId": null
  },
  {
    "id": 100958,
    "name": "Redkino",
    "state_id": 1860,
    "state_code": "TVE",
    "country_id": 182,
    "country_code": "RU",
    "latitude": "56.64754000",
    "longitude": "36.29674000",
    "wikiDataId": null
  },
  {
    "id": 101060,
    "name": "Rzhev",
    "state_id": 1860,
    "state_code": "TVE",
    "country_id": 182,
    "country_code": "RU",
    "latitude": "56.26241000",
    "longitude": "34.32817000",
    "wikiDataId": null
  },
  {
    "id": 101075,
    "name": "Sakharovo",
    "state_id": 1860,
    "state_code": "TVE",
    "country_id": 182,
    "country_code": "RU",
    "latitude": "56.89949000",
    "longitude": "36.05015000",
    "wikiDataId": null
  },
  {
    "id": 101098,
    "name": "Sandovo",
    "state_id": 1860,
    "state_code": "TVE",
    "country_id": 182,
    "country_code": "RU",
    "latitude": "58.46022000",
    "longitude": "36.41277000",
    "wikiDataId": null
  },
  {
    "id": 101099,
    "name": "Sandovskiy Rayon",
    "state_id": 1860,
    "state_code": "TVE",
    "country_id": 182,
    "country_code": "RU",
    "latitude": "58.41667000",
    "longitude": "36.41667000",
    "wikiDataId": null
  },
  {
    "id": 101156,
    "name": "Selishche",
    "state_id": 1860,
    "state_code": "TVE",
    "country_id": 182,
    "country_code": "RU",
    "latitude": "56.88794000",
    "longitude": "33.26914000",
    "wikiDataId": null
  },
  {
    "id": 101157,
    "name": "Selizharovo",
    "state_id": 1860,
    "state_code": "TVE",
    "country_id": 182,
    "country_code": "RU",
    "latitude": "56.85188000",
    "longitude": "33.44869000",
    "wikiDataId": null
  },
  {
    "id": 101158,
    "name": "Selizharovskiy Rayon",
    "state_id": 1860,
    "state_code": "TVE",
    "country_id": 182,
    "country_code": "RU",
    "latitude": "56.83333000",
    "longitude": "33.41667000",
    "wikiDataId": null
  },
  {
    "id": 101476,
    "name": "Sonkovo",
    "state_id": 1860,
    "state_code": "TVE",
    "country_id": 182,
    "country_code": "RU",
    "latitude": "57.77816000",
    "longitude": "37.15707000",
    "wikiDataId": null
  },
  {
    "id": 101537,
    "name": "Spirovo",
    "state_id": 1860,
    "state_code": "TVE",
    "country_id": 182,
    "country_code": "RU",
    "latitude": "57.41905000",
    "longitude": "34.97658000",
    "wikiDataId": null
  },
  {
    "id": 101538,
    "name": "Spirovskiy Rayon",
    "state_id": 1860,
    "state_code": "TVE",
    "country_id": 182,
    "country_code": "RU",
    "latitude": "57.41667000",
    "longitude": "35.00000000",
    "wikiDataId": null
  },
  {
    "id": 101554,
    "name": "Stantsia Staritsa",
    "state_id": 1860,
    "state_code": "TVE",
    "country_id": 182,
    "country_code": "RU",
    "latitude": "56.53224000",
    "longitude": "34.77287000",
    "wikiDataId": null
  },
  {
    "id": 101567,
    "name": "Staraya Toropa",
    "state_id": 1860,
    "state_code": "TVE",
    "country_id": 182,
    "country_code": "RU",
    "latitude": "56.28012000",
    "longitude": "31.67018000",
    "wikiDataId": null
  },
  {
    "id": 101569,
    "name": "Staritsa",
    "state_id": 1860,
    "state_code": "TVE",
    "country_id": 182,
    "country_code": "RU",
    "latitude": "56.50752000",
    "longitude": "34.93544000",
    "wikiDataId": null
  },
  {
    "id": 101570,
    "name": "Staritskiy Rayon",
    "state_id": 1860,
    "state_code": "TVE",
    "country_id": 182,
    "country_code": "RU",
    "latitude": "56.50000000",
    "longitude": "34.91667000",
    "wikiDataId": null
  },
  {
    "id": 101899,
    "name": "Toropets",
    "state_id": 1860,
    "state_code": "TVE",
    "country_id": 182,
    "country_code": "RU",
    "latitude": "56.49779000",
    "longitude": "31.63528000",
    "wikiDataId": null
  },
  {
    "id": 101900,
    "name": "Toropetskiy Rayon",
    "state_id": 1860,
    "state_code": "TVE",
    "country_id": 182,
    "country_code": "RU",
    "latitude": "56.58333000",
    "longitude": "31.50000000",
    "wikiDataId": null
  },
  {
    "id": 101901,
    "name": "Torzhok",
    "state_id": 1860,
    "state_code": "TVE",
    "country_id": 182,
    "country_code": "RU",
    "latitude": "57.04360000",
    "longitude": "34.96221000",
    "wikiDataId": null
  },
  {
    "id": 101902,
    "name": "Torzhokskiy Rayon",
    "state_id": 1860,
    "state_code": "TVE",
    "country_id": 182,
    "country_code": "RU",
    "latitude": "57.08333000",
    "longitude": "35.00000000",
    "wikiDataId": null
  },
  {
    "id": 101988,
    "name": "Tver",
    "state_id": 1860,
    "state_code": "TVE",
    "country_id": 182,
    "country_code": "RU",
    "latitude": "56.85836000",
    "longitude": "35.90057000",
    "wikiDataId": null
  },
  {
    "id": 102024,
    "name": "Udomlya",
    "state_id": 1860,
    "state_code": "TVE",
    "country_id": 182,
    "country_code": "RU",
    "latitude": "57.87944000",
    "longitude": "34.99250000",
    "wikiDataId": null
  },
  {
    "id": 102199,
    "name": "Vasil’yevskiy Mokh",
    "state_id": 1860,
    "state_code": "TVE",
    "country_id": 182,
    "country_code": "RU",
    "latitude": "57.01316000",
    "longitude": "35.91897000",
    "wikiDataId": null
  },
  {
    "id": 102216,
    "name": "Velikooktyabr’skiy",
    "state_id": 1860,
    "state_code": "TVE",
    "country_id": 182,
    "country_code": "RU",
    "latitude": "57.43333000",
    "longitude": "33.81595000",
    "wikiDataId": null
  },
  {
    "id": 102293,
    "name": "Ves’yegonsk",
    "state_id": 1860,
    "state_code": "TVE",
    "country_id": 182,
    "country_code": "RU",
    "latitude": "58.66398000",
    "longitude": "37.26040000",
    "wikiDataId": null
  },
  {
    "id": 102294,
    "name": "Ves’yegonskiy Rayon",
    "state_id": 1860,
    "state_code": "TVE",
    "country_id": 182,
    "country_code": "RU",
    "latitude": "58.66667000",
    "longitude": "37.16667000",
    "wikiDataId": null
  },
  {
    "id": 102429,
    "name": "Vydropuzhsk",
    "state_id": 1860,
    "state_code": "TVE",
    "country_id": 182,
    "country_code": "RU",
    "latitude": "57.36470000",
    "longitude": "34.84287000",
    "wikiDataId": null
  },
  {
    "id": 102434,
    "name": "Vypolzovo",
    "state_id": 1860,
    "state_code": "TVE",
    "country_id": 182,
    "country_code": "RU",
    "latitude": "57.87667000",
    "longitude": "33.69861000",
    "wikiDataId": null
  },
  {
    "id": 102441,
    "name": "Vyshnevolotskiy Rayon",
    "state_id": 1860,
    "state_code": "TVE",
    "country_id": 182,
    "country_code": "RU",
    "latitude": "57.58333000",
    "longitude": "34.58333000",
    "wikiDataId": null
  },
  {
    "id": 102443,
    "name": "Vyshniy Volochëk",
    "state_id": 1860,
    "state_code": "TVE",
    "country_id": 182,
    "country_code": "RU",
    "latitude": "57.59125000",
    "longitude": "34.56453000",
    "wikiDataId": null
  },
  {
    "id": 102646,
    "name": "Zapadnaya Dvina",
    "state_id": 1860,
    "state_code": "TVE",
    "country_id": 182,
    "country_code": "RU",
    "latitude": "56.25901000",
    "longitude": "32.07454000",
    "wikiDataId": null
  },
  {
    "id": 102672,
    "name": "Zavidovo",
    "state_id": 1860,
    "state_code": "TVE",
    "country_id": 182,
    "country_code": "RU",
    "latitude": "56.53333000",
    "longitude": "36.53333000",
    "wikiDataId": null
  },
  {
    "id": 102713,
    "name": "Zharkovskiy",
    "state_id": 1860,
    "state_code": "TVE",
    "country_id": 182,
    "country_code": "RU",
    "latitude": "55.84900000",
    "longitude": "32.26970000",
    "wikiDataId": null
  },
  {
    "id": 102773,
    "name": "Zubtsov",
    "state_id": 1860,
    "state_code": "TVE",
    "country_id": 182,
    "country_code": "RU",
    "latitude": "56.17533000",
    "longitude": "34.58935000",
    "wikiDataId": null
  },
  {
    "id": 102774,
    "name": "Zubtsovskiy Rayon",
    "state_id": 1860,
    "state_code": "TVE",
    "country_id": 182,
    "country_code": "RU",
    "latitude": "56.16667000",
    "longitude": "34.58333000",
    "wikiDataId": null
  }
]