[
  {
    "id": 146174,
    "name": "Akurana",
    "state_id": 2788,
    "state_code": "21",
    "country_id": 208,
    "country_code": "LK",
    "latitude": "7.36500000",
    "longitude": "80.61722200",
    "wikiDataId": null
  },
  {
    "id": 146150,
    "name": "Alawatugoda",
    "state_id": 2788,
    "state_code": "21",
    "country_id": 208,
    "country_code": "LK",
    "latitude": "7.41048962",
    "longitude": "80.60918933",
    "wikiDataId": null
  },
  {
    "id": 146149,
    "name": "Ambatenna",
    "state_id": 2788,
    "state_code": "21",
    "country_id": 208,
    "country_code": "LK",
    "latitude": "7.35252855",
    "longitude": "80.61378113",
    "wikiDataId": null
  },
  {
    "id": 146148,
    "name": "Daskara",
    "state_id": 2788,
    "state_code": "21",
    "country_id": 208,
    "country_code": "LK",
    "latitude": "7.20902217",
    "longitude": "80.57764643",
    "wikiDataId": null
  },
  {
    "id": 146147,
    "name": "Daulagala",
    "state_id": 2788,
    "state_code": "21",
    "country_id": 208,
    "country_code": "LK",
    "latitude": "7.22882494",
    "longitude": "80.57756073",
    "wikiDataId": null
  },
  {
    "id": 146173,
    "name": "Delthota",
    "state_id": 2788,
    "state_code": "21",
    "country_id": 208,
    "country_code": "LK",
    "latitude": "7.18491721",
    "longitude": "80.70488697",
    "wikiDataId": null
  },
  {
    "id": 146172,
    "name": "Doluwa",
    "state_id": 2788,
    "state_code": "21",
    "country_id": 208,
    "country_code": "LK",
    "latitude": "7.18518536",
    "longitude": "80.60573450",
    "wikiDataId": null
  },
  {
    "id": 146146,
    "name": "Galagedara",
    "state_id": 2788,
    "state_code": "21",
    "country_id": 208,
    "country_code": "LK",
    "latitude": "7.36833300",
    "longitude": "80.52750000",
    "wikiDataId": null
  },
  {
    "id": 146145,
    "name": "Galhinna",
    "state_id": 2788,
    "state_code": "21",
    "country_id": 208,
    "country_code": "LK",
    "latitude": "7.41614200",
    "longitude": "80.56884200",
    "wikiDataId": null
  },
  {
    "id": 66472,
    "name": "Gampola",
    "state_id": 2788,
    "state_code": "21",
    "country_id": 208,
    "country_code": "LK",
    "latitude": "7.16430000",
    "longitude": "80.56960000",
    "wikiDataId": null
  },
  {
    "id": 146171,
    "name": "Ganga Ihala Korale",
    "state_id": 2788,
    "state_code": "21",
    "country_id": 208,
    "country_code": "LK",
    "latitude": "7.11455516",
    "longitude": "80.51448810",
    "wikiDataId": null
  },
  {
    "id": 146144,
    "name": "Hanguranketa",
    "state_id": 2788,
    "state_code": "21",
    "country_id": 208,
    "country_code": "LK",
    "latitude": "7.16666700",
    "longitude": "80.78333300",
    "wikiDataId": null
  },
  {
    "id": 146143,
    "name": "Hapugastalawa",
    "state_id": 2788,
    "state_code": "21",
    "country_id": 208,
    "country_code": "LK",
    "latitude": "7.05872498",
    "longitude": "80.57137014",
    "wikiDataId": null
  },
  {
    "id": 146170,
    "name": "Harispattuwa",
    "state_id": 2788,
    "state_code": "21",
    "country_id": 208,
    "country_code": "LK",
    "latitude": "7.33016007",
    "longitude": "80.58765149",
    "wikiDataId": null
  },
  {
    "id": 146169,
    "name": "Hatharaliyadda",
    "state_id": 2788,
    "state_code": "21",
    "country_id": 208,
    "country_code": "LK",
    "latitude": "7.33032982",
    "longitude": "80.47875881",
    "wikiDataId": null
  },
  {
    "id": 66485,
    "name": "Kadugannawa",
    "state_id": 2788,
    "state_code": "21",
    "country_id": 208,
    "country_code": "LK",
    "latitude": "7.25470000",
    "longitude": "80.52420000",
    "wikiDataId": null
  },
  {
    "id": 146168,
    "name": "Kandy Four Gravets",
    "state_id": 2788,
    "state_code": "21",
    "country_id": 208,
    "country_code": "LK",
    "latitude": "7.28318748",
    "longitude": "80.63527585",
    "wikiDataId": null
  },
  {
    "id": 146153,
    "name": "Katugastota",
    "state_id": 2788,
    "state_code": "21",
    "country_id": 208,
    "country_code": "LK",
    "latitude": "7.33333300",
    "longitude": "80.61666700",
    "wikiDataId": null
  },
  {
    "id": 146167,
    "name": "Kundasale",
    "state_id": 2788,
    "state_code": "21",
    "country_id": 208,
    "country_code": "LK",
    "latitude": "7.30391594",
    "longitude": "80.71230408",
    "wikiDataId": null
  },
  {
    "id": 146142,
    "name": "Madawala",
    "state_id": 2788,
    "state_code": "21",
    "country_id": 208,
    "country_code": "LK",
    "latitude": "7.32833100",
    "longitude": "80.67355200",
    "wikiDataId": null
  },
  {
    "id": 146166,
    "name": "Medadumbara",
    "state_id": 2788,
    "state_code": "21",
    "country_id": 208,
    "country_code": "LK",
    "latitude": "7.30425996",
    "longitude": "80.77519844",
    "wikiDataId": null
  },
  {
    "id": 146141,
    "name": "Menikdiwela",
    "state_id": 2788,
    "state_code": "21",
    "country_id": 208,
    "country_code": "LK",
    "latitude": "7.08333300",
    "longitude": "80.73333300",
    "wikiDataId": null
  },
  {
    "id": 146165,
    "name": "Minipe",
    "state_id": 2788,
    "state_code": "21",
    "country_id": 208,
    "country_code": "LK",
    "latitude": "7.22638754",
    "longitude": "81.00116732",
    "wikiDataId": null
  },
  {
    "id": 146151,
    "name": "Nawalapitiya",
    "state_id": 2788,
    "state_code": "21",
    "country_id": 208,
    "country_code": "LK",
    "latitude": "7.03696481",
    "longitude": "80.51626688",
    "wikiDataId": null
  },
  {
    "id": 146152,
    "name": "Pallekele",
    "state_id": 2788,
    "state_code": "21",
    "country_id": 208,
    "country_code": "LK",
    "latitude": "7.28333300",
    "longitude": "80.70000000",
    "wikiDataId": null
  },
  {
    "id": 146164,
    "name": "Panvila",
    "state_id": 2788,
    "state_code": "21",
    "country_id": 208,
    "country_code": "LK",
    "latitude": "7.40929750",
    "longitude": "80.73966228",
    "wikiDataId": null
  },
  {
    "id": 146163,
    "name": "Pasbage Korale",
    "state_id": 2788,
    "state_code": "21",
    "country_id": 208,
    "country_code": "LK",
    "latitude": "7.01510450",
    "longitude": "80.54078073",
    "wikiDataId": null
  },
  {
    "id": 146162,
    "name": "Pathadumbara",
    "state_id": 2788,
    "state_code": "21",
    "country_id": 208,
    "country_code": "LK",
    "latitude": "7.34931196",
    "longitude": "80.66303689",
    "wikiDataId": null
  },
  {
    "id": 146161,
    "name": "Pathahewaheta",
    "state_id": 2788,
    "state_code": "21",
    "country_id": 208,
    "country_code": "LK",
    "latitude": "7.23139207",
    "longitude": "80.70848937",
    "wikiDataId": null
  },
  {
    "id": 146154,
    "name": "Peradeniya",
    "state_id": 2788,
    "state_code": "21",
    "country_id": 208,
    "country_code": "LK",
    "latitude": "7.26666700",
    "longitude": "80.60000000",
    "wikiDataId": null
  },
  {
    "id": 146140,
    "name": "Pilimathalawa",
    "state_id": 2788,
    "state_code": "21",
    "country_id": 208,
    "country_code": "LK",
    "latitude": "7.27000000",
    "longitude": "80.57000000",
    "wikiDataId": null
  },
  {
    "id": 146160,
    "name": "Poojapitiya",
    "state_id": 2788,
    "state_code": "21",
    "country_id": 208,
    "country_code": "LK",
    "latitude": "7.38093796",
    "longitude": "80.58913708",
    "wikiDataId": null
  },
  {
    "id": 146139,
    "name": "Pussellawa",
    "state_id": 2788,
    "state_code": "21",
    "country_id": 208,
    "country_code": "LK",
    "latitude": "7.10533300",
    "longitude": "80.63666700",
    "wikiDataId": null
  },
  {
    "id": 146138,
    "name": "Talatuoya",
    "state_id": 2788,
    "state_code": "21",
    "country_id": 208,
    "country_code": "LK",
    "latitude": "7.25000000",
    "longitude": "80.68333300",
    "wikiDataId": null
  },
  {
    "id": 146137,
    "name": "Teldeniya",
    "state_id": 2788,
    "state_code": "21",
    "country_id": 208,
    "country_code": "LK",
    "latitude": "7.30000000",
    "longitude": "80.76666700",
    "wikiDataId": null
  },
  {
    "id": 146159,
    "name": "Thumpane",
    "state_id": 2788,
    "state_code": "21",
    "country_id": 208,
    "country_code": "LK",
    "latitude": "7.36616728",
    "longitude": "80.51587048",
    "wikiDataId": null
  },
  {
    "id": 146133,
    "name": "Udadumbara",
    "state_id": 2788,
    "state_code": "21",
    "country_id": 208,
    "country_code": "LK",
    "latitude": "7.35000000",
    "longitude": "80.83333300",
    "wikiDataId": null
  },
  {
    "id": 146158,
    "name": "Udapalatha",
    "state_id": 2788,
    "state_code": "21",
    "country_id": 208,
    "country_code": "LK",
    "latitude": "7.11515526",
    "longitude": "80.60248340",
    "wikiDataId": null
  },
  {
    "id": 146157,
    "name": "Ududumbara",
    "state_id": 2788,
    "state_code": "21",
    "country_id": 208,
    "country_code": "LK",
    "latitude": "7.31434839",
    "longitude": "80.87707756",
    "wikiDataId": null
  },
  {
    "id": 146156,
    "name": "Udunuwara",
    "state_id": 2788,
    "state_code": "21",
    "country_id": 208,
    "country_code": "LK",
    "latitude": "7.22777866",
    "longitude": "80.55894578",
    "wikiDataId": null
  },
  {
    "id": 146136,
    "name": "Ulapane",
    "state_id": 2788,
    "state_code": "21",
    "country_id": 208,
    "country_code": "LK",
    "latitude": "7.10277800",
    "longitude": "80.56111100",
    "wikiDataId": null
  },
  {
    "id": 146135,
    "name": "Watadeniya",
    "state_id": 2788,
    "state_code": "21",
    "country_id": 208,
    "country_code": "LK",
    "latitude": "7.19501100",
    "longitude": "80.55249400",
    "wikiDataId": null
  },
  {
    "id": 66542,
    "name": "Wattegama",
    "state_id": 2788,
    "state_code": "21",
    "country_id": 208,
    "country_code": "LK",
    "latitude": "7.35027800",
    "longitude": "80.68250000",
    "wikiDataId": null
  },
  {
    "id": 146134,
    "name": "Welamboda",
    "state_id": 2788,
    "state_code": "21",
    "country_id": 208,
    "country_code": "LK",
    "latitude": "7.20000000",
    "longitude": "80.55000000",
    "wikiDataId": null
  },
  {
    "id": 146155,
    "name": "Yatinuwara",
    "state_id": 2788,
    "state_code": "21",
    "country_id": 208,
    "country_code": "LK",
    "latitude": "7.28584509",
    "longitude": "80.53516168",
    "wikiDataId": null
  }
]