[
  {
    "id": 53836,
    "name": "Agua Azul",
    "state_id": 4046,
    "state_code": "CR",
    "country_id": 97,
    "country_code": "HN",
    "latitude": "14.91667000",
    "longitude": "-87.96667000",
    "wikiDataId": null
  },
  {
    "id": 53837,
    "name": "Agua Azul Rancho",
    "state_id": 4046,
    "state_code": "CR",
    "country_id": 97,
    "country_code": "HN",
    "latitude": "14.90000000",
    "longitude": "-87.95000000",
    "wikiDataId": null
  },
  {
    "id": 53859,
    "name": "Armenta",
    "state_id": 4046,
    "state_code": "CR",
    "country_id": 97,
    "country_code": "HN",
    "latitude": "15.50000000",
    "longitude": "-88.05000000",
    "wikiDataId": null
  },
  {
    "id": 53866,
    "name": "Baja Mar",
    "state_id": 4046,
    "state_code": "CR",
    "country_id": 97,
    "country_code": "HN",
    "latitude": "15.88851000",
    "longitude": "-87.85547000",
    "wikiDataId": null
  },
  {
    "id": 53868,
    "name": "Baracoa",
    "state_id": 4046,
    "state_code": "CR",
    "country_id": 97,
    "country_code": "HN",
    "latitude": "15.76667000",
    "longitude": "-87.85000000",
    "wikiDataId": null
  },
  {
    "id": 53870,
    "name": "Bejuco",
    "state_id": 4046,
    "state_code": "CR",
    "country_id": 97,
    "country_code": "HN",
    "latitude": "15.13333000",
    "longitude": "-87.93333000",
    "wikiDataId": null
  },
  {
    "id": 53891,
    "name": "Cañaveral",
    "state_id": 4046,
    "state_code": "CR",
    "country_id": 97,
    "country_code": "HN",
    "latitude": "14.98333000",
    "longitude": "-88.01667000",
    "wikiDataId": null
  },
  {
    "id": 53889,
    "name": "Casa Quemada",
    "state_id": 4046,
    "state_code": "CR",
    "country_id": 97,
    "country_code": "HN",
    "latitude": "15.11667000",
    "longitude": "-88.08333000",
    "wikiDataId": null
  },
  {
    "id": 53899,
    "name": "Chivana",
    "state_id": 4046,
    "state_code": "CR",
    "country_id": 97,
    "country_code": "HN",
    "latitude": "15.75000000",
    "longitude": "-87.98333000",
    "wikiDataId": null
  },
  {
    "id": 53900,
    "name": "Choloma",
    "state_id": 4046,
    "state_code": "CR",
    "country_id": 97,
    "country_code": "HN",
    "latitude": "15.64000000",
    "longitude": "-87.92000000",
    "wikiDataId": null
  },
  {
    "id": 53902,
    "name": "Chotepe",
    "state_id": 4046,
    "state_code": "CR",
    "country_id": 97,
    "country_code": "HN",
    "latitude": "15.41667000",
    "longitude": "-87.98333000",
    "wikiDataId": null
  },
  {
    "id": 53904,
    "name": "Cofradía",
    "state_id": 4046,
    "state_code": "CR",
    "country_id": 97,
    "country_code": "HN",
    "latitude": "15.40000000",
    "longitude": "-88.15000000",
    "wikiDataId": null
  },
  {
    "id": 53931,
    "name": "Cuyamel",
    "state_id": 4046,
    "state_code": "CR",
    "country_id": 97,
    "country_code": "HN",
    "latitude": "15.66667000",
    "longitude": "-88.20000000",
    "wikiDataId": null
  },
  {
    "id": 53958,
    "name": "El Llano",
    "state_id": 4046,
    "state_code": "CR",
    "country_id": 97,
    "country_code": "HN",
    "latitude": "15.15000000",
    "longitude": "-87.88333000",
    "wikiDataId": null
  },
  {
    "id": 53960,
    "name": "El Marañón",
    "state_id": 4046,
    "state_code": "CR",
    "country_id": 97,
    "country_code": "HN",
    "latitude": "15.40000000",
    "longitude": "-88.05000000",
    "wikiDataId": null
  },
  {
    "id": 53961,
    "name": "El Milagro",
    "state_id": 4046,
    "state_code": "CR",
    "country_id": 97,
    "country_code": "HN",
    "latitude": "15.40000000",
    "longitude": "-87.96667000",
    "wikiDataId": null
  },
  {
    "id": 53969,
    "name": "El Olivar",
    "state_id": 4046,
    "state_code": "CR",
    "country_id": 97,
    "country_code": "HN",
    "latitude": "15.08333000",
    "longitude": "-87.88333000",
    "wikiDataId": null
  },
  {
    "id": 53973,
    "name": "El Perico",
    "state_id": 4046,
    "state_code": "CR",
    "country_id": 97,
    "country_code": "HN",
    "latitude": "15.08333000",
    "longitude": "-88.10000000",
    "wikiDataId": null
  },
  {
    "id": 53975,
    "name": "El Plan",
    "state_id": 4046,
    "state_code": "CR",
    "country_id": 97,
    "country_code": "HN",
    "latitude": "15.28333000",
    "longitude": "-87.96667000",
    "wikiDataId": null
  },
  {
    "id": 53977,
    "name": "El Porvenir",
    "state_id": 4046,
    "state_code": "CR",
    "country_id": 97,
    "country_code": "HN",
    "latitude": "15.83333000",
    "longitude": "-87.93333000",
    "wikiDataId": null
  },
  {
    "id": 53982,
    "name": "El Rancho",
    "state_id": 4046,
    "state_code": "CR",
    "country_id": 97,
    "country_code": "HN",
    "latitude": "15.55441000",
    "longitude": "-88.02343210",
    "wikiDataId": null
  },
  {
    "id": 53993,
    "name": "El Tigre",
    "state_id": 4046,
    "state_code": "CR",
    "country_id": 97,
    "country_code": "HN",
    "latitude": "14.93333000",
    "longitude": "-87.98333000",
    "wikiDataId": null
  },
  {
    "id": 53998,
    "name": "El Zapotal del Norte",
    "state_id": 4046,
    "state_code": "CR",
    "country_id": 97,
    "country_code": "HN",
    "latitude": "15.51667000",
    "longitude": "-88.05000000",
    "wikiDataId": null
  },
  {
    "id": 54060,
    "name": "La Guama",
    "state_id": 4046,
    "state_code": "CR",
    "country_id": 97,
    "country_code": "HN",
    "latitude": "14.88333000",
    "longitude": "-87.93333000",
    "wikiDataId": null
  },
  {
    "id": 54062,
    "name": "La Huesa",
    "state_id": 4046,
    "state_code": "CR",
    "country_id": 97,
    "country_code": "HN",
    "latitude": "15.58333000",
    "longitude": "-87.88333000",
    "wikiDataId": null
  },
  {
    "id": 54065,
    "name": "La Jutosa",
    "state_id": 4046,
    "state_code": "CR",
    "country_id": 97,
    "country_code": "HN",
    "latitude": "15.63333000",
    "longitude": "-88.00000000",
    "wikiDataId": null
  },
  {
    "id": 54070,
    "name": "La Lima",
    "state_id": 4046,
    "state_code": "CR",
    "country_id": 97,
    "country_code": "HN",
    "latitude": "15.43333000",
    "longitude": "-87.91667000",
    "wikiDataId": null
  },
  {
    "id": 54076,
    "name": "La Sabana",
    "state_id": 4046,
    "state_code": "CR",
    "country_id": 97,
    "country_code": "HN",
    "latitude": "15.36667000",
    "longitude": "-87.93333000",
    "wikiDataId": null
  },
  {
    "id": 54107,
    "name": "Los Caminos",
    "state_id": 4046,
    "state_code": "CR",
    "country_id": 97,
    "country_code": "HN",
    "latitude": "14.95000000",
    "longitude": "-87.96667000",
    "wikiDataId": null
  },
  {
    "id": 54109,
    "name": "Los Naranjos",
    "state_id": 4046,
    "state_code": "CR",
    "country_id": 97,
    "country_code": "HN",
    "latitude": "14.90000000",
    "longitude": "-88.05000000",
    "wikiDataId": null
  },
  {
    "id": 54132,
    "name": "Monterrey",
    "state_id": 4046,
    "state_code": "CR",
    "country_id": 97,
    "country_code": "HN",
    "latitude": "15.58912830",
    "longitude": "-87.88161610",
    "wikiDataId": null
  },
  {
    "id": 54152,
    "name": "Nuevo Chamelecón",
    "state_id": 4046,
    "state_code": "CR",
    "country_id": 97,
    "country_code": "HN",
    "latitude": "15.38333000",
    "longitude": "-88.01667000",
    "wikiDataId": null
  },
  {
    "id": 54159,
    "name": "Omoa",
    "state_id": 4046,
    "state_code": "CR",
    "country_id": 97,
    "country_code": "HN",
    "latitude": "15.76667000",
    "longitude": "-88.03333000",
    "wikiDataId": null
  },
  {
    "id": 54164,
    "name": "Oropéndolas",
    "state_id": 4046,
    "state_code": "CR",
    "country_id": 97,
    "country_code": "HN",
    "latitude": "15.01667000",
    "longitude": "-87.93333000",
    "wikiDataId": null
  },
  {
    "id": 54170,
    "name": "Peña Blanca",
    "state_id": 4046,
    "state_code": "CR",
    "country_id": 97,
    "country_code": "HN",
    "latitude": "15.53333000",
    "longitude": "-88.05000000",
    "wikiDataId": null
  },
  {
    "id": 54171,
    "name": "Pimienta",
    "state_id": 4046,
    "state_code": "CR",
    "country_id": 97,
    "country_code": "HN",
    "latitude": "15.26500000",
    "longitude": "-87.96667000",
    "wikiDataId": null
  },
  {
    "id": 54172,
    "name": "Pimienta Vieja",
    "state_id": 4046,
    "state_code": "CR",
    "country_id": 97,
    "country_code": "HN",
    "latitude": "15.23333000",
    "longitude": "-87.96667000",
    "wikiDataId": null
  },
  {
    "id": 54176,
    "name": "Potrerillos",
    "state_id": 4046,
    "state_code": "CR",
    "country_id": 97,
    "country_code": "HN",
    "latitude": "15.21000000",
    "longitude": "-87.95000000",
    "wikiDataId": null
  },
  {
    "id": 54180,
    "name": "Pueblo Nuevo",
    "state_id": 4046,
    "state_code": "CR",
    "country_id": 97,
    "country_code": "HN",
    "latitude": "15.28333000",
    "longitude": "-88.01667000",
    "wikiDataId": null
  },
  {
    "id": 54182,
    "name": "Puerto Alto",
    "state_id": 4046,
    "state_code": "CR",
    "country_id": 97,
    "country_code": "HN",
    "latitude": "15.70000000",
    "longitude": "-87.86667000",
    "wikiDataId": null
  },
  {
    "id": 54185,
    "name": "Puerto Cortés",
    "state_id": 4046,
    "state_code": "CR",
    "country_id": 97,
    "country_code": "HN",
    "latitude": "15.79000000",
    "longitude": "-87.84900000",
    "wikiDataId": null
  },
  {
    "id": 54184,
    "name": "Puerto Cortez",
    "state_id": 4046,
    "state_code": "CR",
    "country_id": 97,
    "country_code": "HN",
    "latitude": "15.82562000",
    "longitude": "-87.92968000",
    "wikiDataId": null
  },
  {
    "id": 54191,
    "name": "Quebrada Seca",
    "state_id": 4046,
    "state_code": "CR",
    "country_id": 97,
    "country_code": "HN",
    "latitude": "15.65979330",
    "longitude": "-87.94999810",
    "wikiDataId": null
  },
  {
    "id": 54199,
    "name": "Río Blanquito",
    "state_id": 4046,
    "state_code": "CR",
    "country_id": 97,
    "country_code": "HN",
    "latitude": "15.73333000",
    "longitude": "-87.90000000",
    "wikiDataId": null
  },
  {
    "id": 54201,
    "name": "Río Chiquito",
    "state_id": 4046,
    "state_code": "CR",
    "country_id": 97,
    "country_code": "HN",
    "latitude": "15.63333000",
    "longitude": "-88.25000000",
    "wikiDataId": null
  },
  {
    "id": 54203,
    "name": "Río Lindo",
    "state_id": 4046,
    "state_code": "CR",
    "country_id": 97,
    "country_code": "HN",
    "latitude": "15.03333000",
    "longitude": "-87.98333000",
    "wikiDataId": null
  },
  {
    "id": 54215,
    "name": "San Antonio de Cortés",
    "state_id": 4046,
    "state_code": "CR",
    "country_id": 97,
    "country_code": "HN",
    "latitude": "15.11667000",
    "longitude": "-88.03333000",
    "wikiDataId": null
  },
  {
    "id": 54221,
    "name": "San Buenaventura",
    "state_id": 4046,
    "state_code": "CR",
    "country_id": 97,
    "country_code": "HN",
    "latitude": "15.01667000",
    "longitude": "-88.00000000",
    "wikiDataId": null
  },
  {
    "id": 54233,
    "name": "San Francisco de Yojoa",
    "state_id": 4046,
    "state_code": "CR",
    "country_id": 97,
    "country_code": "HN",
    "latitude": "15.01667000",
    "longitude": "-87.96667000",
    "wikiDataId": null
  },
  {
    "id": 54254,
    "name": "San José del Boquerón",
    "state_id": 4046,
    "state_code": "CR",
    "country_id": 97,
    "country_code": "HN",
    "latitude": "15.48333000",
    "longitude": "-87.86667000",
    "wikiDataId": null
  },
  {
    "id": 54268,
    "name": "San Manuel",
    "state_id": 4046,
    "state_code": "CR",
    "country_id": 97,
    "country_code": "HN",
    "latitude": "15.37279000",
    "longitude": "-87.90167000",
    "wikiDataId": null
  },
  {
    "id": 54281,
    "name": "San Pedro Sula",
    "state_id": 4046,
    "state_code": "CR",
    "country_id": 97,
    "country_code": "HN",
    "latitude": "15.50417000",
    "longitude": "-88.02500000",
    "wikiDataId": null
  },
  {
    "id": 54298,
    "name": "Santa Cruz de Yojoa",
    "state_id": 4046,
    "state_code": "CR",
    "country_id": 97,
    "country_code": "HN",
    "latitude": "14.98333000",
    "longitude": "-87.90000000",
    "wikiDataId": null
  },
  {
    "id": 54299,
    "name": "Santa Elena",
    "state_id": 4046,
    "state_code": "CR",
    "country_id": 97,
    "country_code": "HN",
    "latitude": "15.38333000",
    "longitude": "-88.13333000",
    "wikiDataId": null
  },
  {
    "id": 54344,
    "name": "Travesía",
    "state_id": 4046,
    "state_code": "CR",
    "country_id": 97,
    "country_code": "HN",
    "latitude": "15.86667000",
    "longitude": "-87.90000000",
    "wikiDataId": null
  },
  {
    "id": 54362,
    "name": "Villanueva",
    "state_id": 4046,
    "state_code": "CR",
    "country_id": 97,
    "country_code": "HN",
    "latitude": "15.31667000",
    "longitude": "-88.00000000",
    "wikiDataId": null
  }
]