[
  {
    "id": 53479,
    "name": "Dolores",
    "state_id": 3669,
    "state_code": "17",
    "country_id": 90,
    "country_code": "GT",
    "latitude": "16.51178000",
    "longitude": "-89.41704000",
    "wikiDataId": null
  },
  {
    "id": 53494,
    "name": "Flores",
    "state_id": 3669,
    "state_code": "17",
    "country_id": 90,
    "country_code": "GT",
    "latitude": "16.92258000",
    "longitude": "-89.89941000",
    "wikiDataId": null
  },
  {
    "id": 53520,
    "name": "La Libertad",
    "state_id": 3669,
    "state_code": "17",
    "country_id": 90,
    "country_code": "GT",
    "latitude": "16.78850000",
    "longitude": "-90.11698000",
    "wikiDataId": null
  },
  {
    "id": 53533,
    "name": "Melchor de Mencos",
    "state_id": 3669,
    "state_code": "17",
    "country_id": 90,
    "country_code": "GT",
    "latitude": "17.06606000",
    "longitude": "-89.15229000",
    "wikiDataId": null
  },
  {
    "id": 53560,
    "name": "Municipio de Flores",
    "state_id": 3669,
    "state_code": "17",
    "country_id": 90,
    "country_code": "GT",
    "latitude": "16.92381000",
    "longitude": "-89.89709000",
    "wikiDataId": null
  },
  {
    "id": 53576,
    "name": "Municipio de Poptún",
    "state_id": 3669,
    "state_code": "17",
    "country_id": 90,
    "country_code": "GT",
    "latitude": "16.35687000",
    "longitude": "-89.58912000",
    "wikiDataId": null
  },
  {
    "id": 53578,
    "name": "Municipio de San Andrés",
    "state_id": 3669,
    "state_code": "17",
    "country_id": 90,
    "country_code": "GT",
    "latitude": "17.49541000",
    "longitude": "-90.39883000",
    "wikiDataId": null
  },
  {
    "id": 53582,
    "name": "Municipio de San Benito",
    "state_id": 3669,
    "state_code": "17",
    "country_id": 90,
    "country_code": "GT",
    "latitude": "16.91289000",
    "longitude": "-89.90979000",
    "wikiDataId": null
  },
  {
    "id": 53584,
    "name": "Municipio de San Francisco",
    "state_id": 3669,
    "state_code": "17",
    "country_id": 90,
    "country_code": "GT",
    "latitude": "16.72425000",
    "longitude": "-89.90877000",
    "wikiDataId": null
  },
  {
    "id": 53589,
    "name": "Municipio de Santa Ana",
    "state_id": 3669,
    "state_code": "17",
    "country_id": 90,
    "country_code": "GT",
    "latitude": "16.77305000",
    "longitude": "-89.66878000",
    "wikiDataId": null
  },
  {
    "id": 53596,
    "name": "Municipio de Sayaxché",
    "state_id": 3669,
    "state_code": "17",
    "country_id": 90,
    "country_code": "GT",
    "latitude": "16.33160000",
    "longitude": "-90.16339000",
    "wikiDataId": null
  },
  {
    "id": 53631,
    "name": "Poptún",
    "state_id": 3669,
    "state_code": "17",
    "country_id": 90,
    "country_code": "GT",
    "latitude": "16.33111000",
    "longitude": "-89.41694000",
    "wikiDataId": null
  },
  {
    "id": 53649,
    "name": "San Andrés",
    "state_id": 3669,
    "state_code": "17",
    "country_id": 90,
    "country_code": "GT",
    "latitude": "16.96667000",
    "longitude": "-89.91667000",
    "wikiDataId": null
  },
  {
    "id": 53665,
    "name": "San Benito",
    "state_id": 3669,
    "state_code": "17",
    "country_id": 90,
    "country_code": "GT",
    "latitude": "16.91675000",
    "longitude": "-89.91898000",
    "wikiDataId": null
  },
  {
    "id": 53673,
    "name": "San Francisco",
    "state_id": 3669,
    "state_code": "17",
    "country_id": 90,
    "country_code": "GT",
    "latitude": "16.80000000",
    "longitude": "-89.93333000",
    "wikiDataId": null
  },
  {
    "id": 53681,
    "name": "San José",
    "state_id": 3669,
    "state_code": "17",
    "country_id": 90,
    "country_code": "GT",
    "latitude": "16.98333000",
    "longitude": "-89.90000000",
    "wikiDataId": null
  },
  {
    "id": 53704,
    "name": "San Luis",
    "state_id": 3669,
    "state_code": "17",
    "country_id": 90,
    "country_code": "GT",
    "latitude": "16.19889000",
    "longitude": "-89.44028000",
    "wikiDataId": null
  },
  {
    "id": 53743,
    "name": "Santa Ana",
    "state_id": 3669,
    "state_code": "17",
    "country_id": 90,
    "country_code": "GT",
    "latitude": "16.80000000",
    "longitude": "-89.83333000",
    "wikiDataId": null
  },
  {
    "id": 53776,
    "name": "Sayaxché",
    "state_id": 3669,
    "state_code": "17",
    "country_id": 90,
    "country_code": "GT",
    "latitude": "16.52446000",
    "longitude": "-90.18801000",
    "wikiDataId": null
  }
]