[
  {
    "id": 147944,
    "name": "Andoas",
    "state_id": 4922,
    "state_code": "LOR",
    "country_id": 173,
    "country_code": "PE",
    "latitude": "-2.90250000",
    "longitude": "-76.40250000",
    "wikiDataId": null
  },
  {
    "id": 147941,
    "name": "Borja",
    "state_id": 4922,
    "state_code": "LOR",
    "country_id": 173,
    "country_code": "PE",
    "latitude": "-4.43333333",
    "longitude": "-77.55000000",
    "wikiDataId": null
  },
  {
    "id": 147949,
    "name": "Caballococha",
    "state_id": 4922,
    "state_code": "LOR",
    "country_id": 173,
    "country_code": "PE",
    "latitude": "-3.90583333",
    "longitude": "-70.51638889",
    "wikiDataId": null
  },
  {
    "id": 147947,
    "name": "Cape Pantoja",
    "state_id": 4922,
    "state_code": "LOR",
    "country_id": 173,
    "country_code": "PE",
    "latitude": "-0.96435000",
    "longitude": "-75.18144000",
    "wikiDataId": null
  },
  {
    "id": 147952,
    "name": "Indiana",
    "state_id": 4922,
    "state_code": "LOR",
    "country_id": 173,
    "country_code": "PE",
    "latitude": "-3.50142700",
    "longitude": "-73.04809600",
    "wikiDataId": null
  },
  {
    "id": 147940,
    "name": "Iquitos",
    "state_id": 4922,
    "state_code": "LOR",
    "country_id": 173,
    "country_code": "PE",
    "latitude": "-3.73333333",
    "longitude": "-73.25000000",
    "wikiDataId": null
  },
  {
    "id": 147945,
    "name": "Jeberos",
    "state_id": 4922,
    "state_code": "LOR",
    "country_id": 173,
    "country_code": "PE",
    "latitude": "-5.28333000",
    "longitude": "-76.28333000",
    "wikiDataId": null
  },
  {
    "id": 147946,
    "name": "Jenaro Herrera",
    "state_id": 4922,
    "state_code": "LOR",
    "country_id": 173,
    "country_code": "PE",
    "latitude": "-4.90741000",
    "longitude": "-73.66779000",
    "wikiDataId": null
  },
  {
    "id": 147948,
    "name": "Lagunas",
    "state_id": 4922,
    "state_code": "LOR",
    "country_id": 173,
    "country_code": "PE",
    "latitude": "-5.22694000",
    "longitude": "-75.67528000",
    "wikiDataId": null
  },
  {
    "id": 147942,
    "name": "Nauta",
    "state_id": 4922,
    "state_code": "LOR",
    "country_id": 173,
    "country_code": "PE",
    "latitude": "-4.50833333",
    "longitude": "-73.58333333",
    "wikiDataId": null
  },
  {
    "id": 147953,
    "name": "Punchana",
    "state_id": 4922,
    "state_code": "LOR",
    "country_id": 173,
    "country_code": "PE",
    "latitude": "-3.71666667",
    "longitude": "-73.23333333",
    "wikiDataId": null
  },
  {
    "id": 147954,
    "name": "Requena",
    "state_id": 4922,
    "state_code": "LOR",
    "country_id": 173,
    "country_code": "PE",
    "latitude": "-6.74797000",
    "longitude": "-75.05491000",
    "wikiDataId": null
  },
  {
    "id": 147955,
    "name": "San Antonio del Estrecho",
    "state_id": 4922,
    "state_code": "LOR",
    "country_id": 173,
    "country_code": "PE",
    "latitude": "-2.45012000",
    "longitude": "-72.66896000",
    "wikiDataId": null
  },
  {
    "id": 147950,
    "name": "San Lorenzo",
    "state_id": 4922,
    "state_code": "LOR",
    "country_id": 173,
    "country_code": "PE",
    "latitude": "-4.81667000",
    "longitude": "-76.60000000",
    "wikiDataId": null
  },
  {
    "id": 147943,
    "name": "San Pablo",
    "state_id": 4922,
    "state_code": "LOR",
    "country_id": 173,
    "country_code": "PE",
    "latitude": "-4.01922000",
    "longitude": "-71.10281000",
    "wikiDataId": null
  },
  {
    "id": 147951,
    "name": "Tamshiyacu",
    "state_id": 4922,
    "state_code": "LOR",
    "country_id": 173,
    "country_code": "PE",
    "latitude": "-4.00320000",
    "longitude": "-73.15850000",
    "wikiDataId": null
  },
  {
    "id": 147956,
    "name": "Yurimaguas",
    "state_id": 4922,
    "state_code": "LOR",
    "country_id": 173,
    "country_code": "PE",
    "latitude": "-5.90000000",
    "longitude": "-76.08333333",
    "wikiDataId": null
  }
]