[
  {
    "id": 67590,
    "name": "Baroueli",
    "state_id": 249,
    "state_code": "4",
    "country_id": 134,
    "country_code": "ML",
    "latitude": "13.07489000",
    "longitude": "-6.57171000",
    "wikiDataId": null
  },
  {
    "id": 67594,
    "name": "Cercle de San",
    "state_id": 249,
    "state_code": "4",
    "country_id": 134,
    "country_code": "ML",
    "latitude": "13.17895000",
    "longitude": "-5.01617000",
    "wikiDataId": null
  },
  {
    "id": 67618,
    "name": "Ké-Macina",
    "state_id": 249,
    "state_code": "4",
    "country_id": 134,
    "country_code": "ML",
    "latitude": "13.96410000",
    "longitude": "-5.35791000",
    "wikiDataId": null
  },
  {
    "id": 67610,
    "name": "Kinmparana",
    "state_id": 249,
    "state_code": "4",
    "country_id": 134,
    "country_code": "ML",
    "latitude": "12.84217000",
    "longitude": "-4.92450000",
    "wikiDataId": null
  },
  {
    "id": 67619,
    "name": "Markala",
    "state_id": 249,
    "state_code": "4",
    "country_id": 134,
    "country_code": "ML",
    "latitude": "13.70210000",
    "longitude": "-6.06590000",
    "wikiDataId": null
  },
  {
    "id": 67624,
    "name": "San",
    "state_id": 249,
    "state_code": "4",
    "country_id": 134,
    "country_code": "ML",
    "latitude": "13.30335000",
    "longitude": "-4.89562000",
    "wikiDataId": null
  },
  {
    "id": 67627,
    "name": "Ségou",
    "state_id": 249,
    "state_code": "4",
    "country_id": 134,
    "country_code": "ML",
    "latitude": "13.43170000",
    "longitude": "-6.21570000",
    "wikiDataId": null
  },
  {
    "id": 67626,
    "name": "Sokolo",
    "state_id": 249,
    "state_code": "4",
    "country_id": 134,
    "country_code": "ML",
    "latitude": "14.73280000",
    "longitude": "-6.12190000",
    "wikiDataId": null
  }
]