[
  {
    "id": 4699,
    "name": "Blagoevgrad",
    "country_id": 34,
    "country_code": "BG",
    "state_code": "01",
    "type": "district",
    "latitude": "42.01110770",
    "longitude": "23.09064570",
    "iso3166_2": "BG-01",
    "native": "Благоевград",
    "timezone": "Europe/Sofia"
  },
  {
    "id": 4715,
    "name": "Burgas",
    "country_id": 34,
    "country_code": "BG",
    "state_code": "02",
    "type": "district",
    "latitude": "42.49366160",
    "longitude": "27.47212760",
    "iso3166_2": "BG-02",
    "native": "Бургас",
    "timezone": "Europe/Sofia"
  },
  {
    "id": 4718,
    "name": "Dobrich",
    "country_id": 34,
    "country_code": "BG",
    "state_code": "08",
    "type": "district",
    "latitude": "43.57278600",
    "longitude": "27.82728020",
    "iso3166_2": "BG-08",
    "native": "Добрич",
    "timezone": "Europe/Sofia"
  },
  {
    "id": 4693,
    "name": "Gabrovo",
    "country_id": 34,
    "country_code": "BG",
    "state_code": "07",
    "type": "district",
    "latitude": "42.86847000",
    "longitude": "25.31688900",
    "iso3166_2": "BG-07",
    "native": "Габрово",
    "timezone": "Europe/Sofia"
  },
  {
    "id": 4704,
    "name": "Haskovo",
    "country_id": 34,
    "country_code": "BG",
    "state_code": "26",
    "type": "district",
    "latitude": "41.93441780",
    "longitude": "25.55546720",
    "iso3166_2": "BG-26",
    "native": "Хасково",
    "timezone": "Europe/Sofia"
  },
  {
    "id": 4702,
    "name": "Kardzhali",
    "country_id": 34,
    "country_code": "BG",
    "state_code": "09",
    "type": "district",
    "latitude": "41.64374600",
    "longitude": "25.37221560",
    "iso3166_2": "BG-09",
    "native": "Кърджали",
    "timezone": "Europe/Sofia"
  },
  {
    "id": 4703,
    "name": "Kyustendil",
    "country_id": 34,
    "country_code": "BG",
    "state_code": "10",
    "type": "district",
    "latitude": "42.28687990",
    "longitude": "22.69396350",
    "iso3166_2": "BG-10",
    "native": "Кюстендил",
    "timezone": "Europe/Sofia"
  },
  {
    "id": 4710,
    "name": "Lovech",
    "country_id": 34,
    "country_code": "BG",
    "state_code": "11",
    "type": "district",
    "latitude": "43.13677980",
    "longitude": "24.71393350",
    "iso3166_2": "BG-11",
    "native": "Ловеч",
    "timezone": "Europe/Sofia"
  },
  {
    "id": 4696,
    "name": "Montana",
    "country_id": 34,
    "country_code": "BG",
    "state_code": "12",
    "type": "district",
    "latitude": "43.40851480",
    "longitude": "23.22575890",
    "iso3166_2": "BG-12",
    "native": "Монтана",
    "timezone": "Europe/Sofia"
  },
  {
    "id": 4712,
    "name": "Pazardzhik",
    "country_id": 34,
    "country_code": "BG",
    "state_code": "13",
    "type": "district",
    "latitude": "42.19275670",
    "longitude": "24.33362260",
    "iso3166_2": "BG-13",
    "native": "Пазарджик",
    "timezone": "Europe/Sofia"
  },
  {
    "id": 4695,
    "name": "Pernik",
    "country_id": 34,
    "country_code": "BG",
    "state_code": "14",
    "type": "district",
    "latitude": "42.60519900",
    "longitude": "23.03779160",
    "iso3166_2": "BG-14",
    "native": "Перник",
    "timezone": "Europe/Sofia"
  },
  {
    "id": 4706,
    "name": "Pleven",
    "country_id": 34,
    "country_code": "BG",
    "state_code": "15",
    "type": "district",
    "latitude": "43.40902200",
    "longitude": "24.61801230",
    "iso3166_2": "BG-15",
    "native": "Плевен",
    "timezone": "Europe/Sofia"
  },
  {
    "id": 4701,
    "name": "Plovdiv",
    "country_id": 34,
    "country_code": "BG",
    "state_code": "16",
    "type": "district",
    "latitude": "42.13540790",
    "longitude": "24.74529040",
    "iso3166_2": "BG-16",
    "native": "Плодов",
    "timezone": "Europe/Sofia"
  },
  {
    "id": 4698,
    "name": "Razgrad",
    "country_id": 34,
    "country_code": "BG",
    "state_code": "17",
    "type": "district",
    "latitude": "43.52717050",
    "longitude": "26.52412280",
    "iso3166_2": "BG-17",
    "native": "Разград",
    "timezone": "Europe/Sofia"
  },
  {
    "id": 4713,
    "name": "Ruse",
    "country_id": 34,
    "country_code": "BG",
    "state_code": "18",
    "type": "district",
    "latitude": "43.83559640",
    "longitude": "25.96561440",
    "iso3166_2": "BG-18",
    "native": "Русе",
    "timezone": "Europe/Sofia"
  },
  {
    "id": 4882,
    "name": "Shumen",
    "country_id": 34,
    "country_code": "BG",
    "state_code": "27",
    "type": "district",
    "latitude": "43.27123980",
    "longitude": "26.93612860",
    "iso3166_2": "BG-27",
    "native": "Шумен",
    "timezone": "Europe/Sofia"
  },
  {
    "id": 4708,
    "name": "Silistra",
    "country_id": 34,
    "country_code": "BG",
    "state_code": "19",
    "type": "district",
    "latitude": "44.11471010",
    "longitude": "27.26714540",
    "iso3166_2": "BG-19",
    "native": "Силистра",
    "timezone": "Europe/Sofia"
  },
  {
    "id": 4700,
    "name": "Sliven",
    "country_id": 34,
    "country_code": "BG",
    "state_code": "20",
    "type": "district",
    "latitude": "42.68167020",
    "longitude": "26.32285690",
    "iso3166_2": "BG-20",
    "native": "Сливен",
    "timezone": "Europe/Sofia"
  },
  {
    "id": 4694,
    "name": "Smolyan",
    "country_id": 34,
    "country_code": "BG",
    "state_code": "21",
    "type": "district",
    "latitude": "41.57741480",
    "longitude": "24.70108710",
    "iso3166_2": "BG-21",
    "native": "Смолян",
    "timezone": "Europe/Sofia"
  },
  {
    "id": 4719,
    "name": "Sofia",
    "country_id": 34,
    "country_code": "BG",
    "state_code": "23",
    "type": "district",
    "latitude": "42.64191000",
    "longitude": "23.97356320",
    "iso3166_2": "BG-23",
    "native": "София",
    "timezone": "Europe/Sofia"
  },
  {
    "id": 4705,
    "name": "Sofia City",
    "country_id": 34,
    "country_code": "BG",
    "state_code": "22",
    "type": "district",
    "latitude": "42.65431800",
    "longitude": "23.33315720",
    "iso3166_2": "BG-22",
    "native": "София град",
    "timezone": "Europe/Sofia"
  },
  {
    "id": 4707,
    "name": "Stara Zagora",
    "country_id": 34,
    "country_code": "BG",
    "state_code": "24",
    "type": "district",
    "latitude": "42.42577090",
    "longitude": "25.63448550",
    "iso3166_2": "BG-24",
    "native": "Стара Загора",
    "timezone": "Europe/Sofia"
  },
  {
    "id": 4714,
    "name": "Targovishte",
    "country_id": 34,
    "country_code": "BG",
    "state_code": "25",
    "type": "district",
    "latitude": "43.24623490",
    "longitude": "26.56912510",
    "iso3166_2": "BG-25",
    "native": "Търговище",
    "timezone": "Europe/Sofia"
  },
  {
    "id": 4717,
    "name": "Varna",
    "country_id": 34,
    "country_code": "BG",
    "state_code": "03",
    "type": "district",
    "latitude": "43.20464770",
    "longitude": "27.91054880",
    "iso3166_2": "BG-03",
    "native": "Варна",
    "timezone": "Europe/Sofia"
  },
  {
    "id": 4709,
    "name": "Veliko Tarnovo",
    "country_id": 34,
    "country_code": "BG",
    "state_code": "04",
    "type": "district",
    "latitude": "43.08205840",
    "longitude": "25.63213120",
    "iso3166_2": "BG-04",
    "native": "Велико Търново",
    "timezone": "Europe/Sofia"
  },
  {
    "id": 4697,
    "name": "Vidin",
    "country_id": 34,
    "country_code": "BG",
    "state_code": "05",
    "type": "district",
    "latitude": "43.98572420",
    "longitude": "22.87721940",
    "iso3166_2": "BG-05",
    "native": "Видин",
    "timezone": "Europe/Sofia"
  },
  {
    "id": 4711,
    "name": "Vratsa",
    "country_id": 34,
    "country_code": "BG",
    "state_code": "06",
    "type": "district",
    "latitude": "43.21018060",
    "longitude": "23.55292100",
    "iso3166_2": "BG-06",
    "native": "Враца",
    "timezone": "Europe/Sofia"
  },
  {
    "id": 4716,
    "name": "Yambol",
    "country_id": 34,
    "country_code": "BG",
    "state_code": "28",
    "type": "district",
    "latitude": "42.48414940",
    "longitude": "26.50352960",
    "iso3166_2": "BG-28",
    "native": "Ямбол",
    "timezone": "Europe/Sofia"
  }
]