[
  {
    "id": 68020,
    "name": "Abelardo L. Rodríguez",
    "state_id": 3465,
    "state_code": "MOR",
    "country_id": 142,
    "country_code": "MX",
    "latitude": "18.73750000",
    "longitude": "-98.98528000",
    "wikiDataId": null
  },
  {
    "id": 68033,
    "name": "Acamilpa",
    "state_id": 3465,
    "state_code": "MOR",
    "country_id": 142,
    "country_code": "MX",
    "latitude": "18.71695000",
    "longitude": "-99.15724000",
    "wikiDataId": null
  },
  {
    "id": 68060,
    "name": "Achichipico",
    "state_id": 3465,
    "state_code": "MOR",
    "country_id": 142,
    "country_code": "MX",
    "latitude": "18.94861000",
    "longitude": "-98.82611000",
    "wikiDataId": null
  },
  {
    "id": 68090,
    "name": "Adolfo López Mateos",
    "state_id": 3465,
    "state_code": "MOR",
    "country_id": 142,
    "country_code": "MX",
    "latitude": "19.80083000",
    "longitude": "-100.00055000",
    "wikiDataId": null
  },
  {
    "id": 68156,
    "name": "Ahuehuetzingo",
    "state_id": 3465,
    "state_code": "MOR",
    "country_id": 142,
    "country_code": "MX",
    "latitude": "18.68024000",
    "longitude": "-99.30834000",
    "wikiDataId": null
  },
  {
    "id": 68199,
    "name": "Alfredo V. Bonfil (Chacampalco)",
    "state_id": 3465,
    "state_code": "MOR",
    "country_id": 142,
    "country_code": "MX",
    "latitude": "18.65528000",
    "longitude": "-99.15417000",
    "wikiDataId": null
  },
  {
    "id": 68219,
    "name": "Alpuyeca",
    "state_id": 3465,
    "state_code": "MOR",
    "country_id": 142,
    "country_code": "MX",
    "latitude": "18.74006000",
    "longitude": "-99.25937000",
    "wikiDataId": null
  },
  {
    "id": 68231,
    "name": "Amacuitlapilco",
    "state_id": 3465,
    "state_code": "MOR",
    "country_id": 142,
    "country_code": "MX",
    "latitude": "18.69611000",
    "longitude": "-98.81167000",
    "wikiDataId": null
  },
  {
    "id": 68232,
    "name": "Amacuzac",
    "state_id": 3465,
    "state_code": "MOR",
    "country_id": 142,
    "country_code": "MX",
    "latitude": "18.60056000",
    "longitude": "-99.37252000",
    "wikiDataId": null
  },
  {
    "id": 68245,
    "name": "Amatlán de Quetzalcoatl",
    "state_id": 3465,
    "state_code": "MOR",
    "country_id": 142,
    "country_code": "MX",
    "latitude": "18.97537000",
    "longitude": "-99.03742000",
    "wikiDataId": null
  },
  {
    "id": 68249,
    "name": "Amayuca",
    "state_id": 3465,
    "state_code": "MOR",
    "country_id": 142,
    "country_code": "MX",
    "latitude": "18.72408000",
    "longitude": "-98.79812000",
    "wikiDataId": null
  },
  {
    "id": 68255,
    "name": "Amilcingo",
    "state_id": 3465,
    "state_code": "MOR",
    "country_id": 142,
    "country_code": "MX",
    "latitude": "18.74274000",
    "longitude": "-98.77089000",
    "wikiDataId": null
  },
  {
    "id": 68270,
    "name": "Anenecuilco",
    "state_id": 3465,
    "state_code": "MOR",
    "country_id": 142,
    "country_code": "MX",
    "latitude": "18.77738000",
    "longitude": "-98.98907000",
    "wikiDataId": null
  },
  {
    "id": 68366,
    "name": "Arroyo Vista Hermosa",
    "state_id": 3465,
    "state_code": "MOR",
    "country_id": 142,
    "country_code": "MX",
    "latitude": "19.33082000",
    "longitude": "-99.53694000",
    "wikiDataId": null
  },
  {
    "id": 68409,
    "name": "Atlacahualoya",
    "state_id": 3465,
    "state_code": "MOR",
    "country_id": 142,
    "country_code": "MX",
    "latitude": "18.54057000",
    "longitude": "-98.72982000",
    "wikiDataId": null
  },
  {
    "id": 68410,
    "name": "Atlacholoaya",
    "state_id": 3465,
    "state_code": "MOR",
    "country_id": 142,
    "country_code": "MX",
    "latitude": "18.74238000",
    "longitude": "-99.22656000",
    "wikiDataId": null
  },
  {
    "id": 68417,
    "name": "Atlatlahucan",
    "state_id": 3465,
    "state_code": "MOR",
    "country_id": 142,
    "country_code": "MX",
    "latitude": "18.93554000",
    "longitude": "-98.89496000",
    "wikiDataId": null
  },
  {
    "id": 68429,
    "name": "Atotonilco",
    "state_id": 3465,
    "state_code": "MOR",
    "country_id": 142,
    "country_code": "MX",
    "latitude": "18.64947000",
    "longitude": "-98.83117000",
    "wikiDataId": null
  },
  {
    "id": 68451,
    "name": "Axochiapan",
    "state_id": 3465,
    "state_code": "MOR",
    "country_id": 142,
    "country_code": "MX",
    "latitude": "18.50246000",
    "longitude": "-98.75358000",
    "wikiDataId": null
  },
  {
    "id": 68459,
    "name": "Ayala",
    "state_id": 3465,
    "state_code": "MOR",
    "country_id": 142,
    "country_code": "MX",
    "latitude": "18.72604000",
    "longitude": "-98.95106000",
    "wikiDataId": null
  },
  {
    "id": 68635,
    "name": "Bonifacio García",
    "state_id": 3465,
    "state_code": "MOR",
    "country_id": 142,
    "country_code": "MX",
    "latitude": "18.71786000",
    "longitude": "-99.12011000",
    "wikiDataId": null
  },
  {
    "id": 68671,
    "name": "Buenavista",
    "state_id": 3465,
    "state_code": "MOR",
    "country_id": 142,
    "country_code": "MX",
    "latitude": "19.80082000",
    "longitude": "-100.04385000",
    "wikiDataId": null
  },
  {
    "id": 68731,
    "name": "Calera Chica",
    "state_id": 3465,
    "state_code": "MOR",
    "country_id": 142,
    "country_code": "MX",
    "latitude": "18.85833000",
    "longitude": "-99.18194000",
    "wikiDataId": null
  },
  {
    "id": 68742,
    "name": "Calle Real",
    "state_id": 3465,
    "state_code": "MOR",
    "country_id": 142,
    "country_code": "MX",
    "latitude": "19.48858000",
    "longitude": "-99.61332000",
    "wikiDataId": null
  },
  {
    "id": 68851,
    "name": "Casahuatlán",
    "state_id": 3465,
    "state_code": "MOR",
    "country_id": 142,
    "country_code": "MX",
    "latitude": "18.57271000",
    "longitude": "-99.39051000",
    "wikiDataId": null
  },
  {
    "id": 68918,
    "name": "Cerritos de Cárdenas",
    "state_id": 3465,
    "state_code": "MOR",
    "country_id": 142,
    "country_code": "MX",
    "latitude": "19.96942000",
    "longitude": "-100.02254000",
    "wikiDataId": null
  },
  {
    "id": 68956,
    "name": "Chalcatzingo",
    "state_id": 3465,
    "state_code": "MOR",
    "country_id": 142,
    "country_code": "MX",
    "latitude": "18.68951000",
    "longitude": "-98.77434000",
    "wikiDataId": null
  },
  {
    "id": 69002,
    "name": "Chavarría",
    "state_id": 3465,
    "state_code": "MOR",
    "country_id": 142,
    "country_code": "MX",
    "latitude": "18.72575000",
    "longitude": "-99.46826000",
    "wikiDataId": null
  },
  {
    "id": 69041,
    "name": "Chiconcuac",
    "state_id": 3465,
    "state_code": "MOR",
    "country_id": 142,
    "country_code": "MX",
    "latitude": "18.78278000",
    "longitude": "-99.20722000",
    "wikiDataId": null
  },
  {
    "id": 69081,
    "name": "Chinameca",
    "state_id": 3465,
    "state_code": "MOR",
    "country_id": 142,
    "country_code": "MX",
    "latitude": "18.62220000",
    "longitude": "-98.99766000",
    "wikiDataId": null
  },
  {
    "id": 69145,
    "name": "Ciudad Ayala",
    "state_id": 3465,
    "state_code": "MOR",
    "country_id": 142,
    "country_code": "MX",
    "latitude": "18.76694000",
    "longitude": "-98.98222000",
    "wikiDataId": null
  },
  {
    "id": 69201,
    "name": "Cliserio Alanís (San Gaspar)",
    "state_id": 3465,
    "state_code": "MOR",
    "country_id": 142,
    "country_code": "MX",
    "latitude": "18.86111000",
    "longitude": "-99.16000000",
    "wikiDataId": null
  },
  {
    "id": 69218,
    "name": "Coahuixtla",
    "state_id": 3465,
    "state_code": "MOR",
    "country_id": 142,
    "country_code": "MX",
    "latitude": "18.57417000",
    "longitude": "-99.37000000",
    "wikiDataId": null
  },
  {
    "id": 69229,
    "name": "Coatetelco",
    "state_id": 3465,
    "state_code": "MOR",
    "country_id": 142,
    "country_code": "MX",
    "latitude": "18.72963000",
    "longitude": "-99.32605000",
    "wikiDataId": null
  },
  {
    "id": 69230,
    "name": "Coatlán del Río",
    "state_id": 3465,
    "state_code": "MOR",
    "country_id": 142,
    "country_code": "MX",
    "latitude": "18.74423000",
    "longitude": "-99.43324000",
    "wikiDataId": null
  },
  {
    "id": 69240,
    "name": "Cocoyoc",
    "state_id": 3465,
    "state_code": "MOR",
    "country_id": 142,
    "country_code": "MX",
    "latitude": "18.88417000",
    "longitude": "-98.98194000",
    "wikiDataId": null
  },
  {
    "id": 69242,
    "name": "Cocoyotla",
    "state_id": 3465,
    "state_code": "MOR",
    "country_id": 142,
    "country_code": "MX",
    "latitude": "18.75445000",
    "longitude": "-99.45075000",
    "wikiDataId": null
  },
  {
    "id": 69406,
    "name": "Colonia Ángel Bocanegra (Adolfo López Mateos)",
    "state_id": 3465,
    "state_code": "MOR",
    "country_id": 142,
    "country_code": "MX",
    "latitude": "18.92639000",
    "longitude": "-99.02972000",
    "wikiDataId": null
  },
  {
    "id": 69384,
    "name": "Colonia el Florido",
    "state_id": 3465,
    "state_code": "MOR",
    "country_id": 142,
    "country_code": "MX",
    "latitude": "18.73833000",
    "longitude": "-99.36722000",
    "wikiDataId": null
  },
  {
    "id": 69396,
    "name": "Colonia las Arboledas",
    "state_id": 3465,
    "state_code": "MOR",
    "country_id": 142,
    "country_code": "MX",
    "latitude": "18.78528000",
    "longitude": "-98.93972000",
    "wikiDataId": null
  },
  {
    "id": 69401,
    "name": "Colonia los Cerritos",
    "state_id": 3465,
    "state_code": "MOR",
    "country_id": 142,
    "country_code": "MX",
    "latitude": "18.95389000",
    "longitude": "-99.19250000",
    "wikiDataId": null
  },
  {
    "id": 69343,
    "name": "Colonia Obrera",
    "state_id": 3465,
    "state_code": "MOR",
    "country_id": 142,
    "country_code": "MX",
    "latitude": "18.93167000",
    "longitude": "-99.03889000",
    "wikiDataId": null
  },
  {
    "id": 69347,
    "name": "Colonia Palo Prieto (Chipitongo)",
    "state_id": 3465,
    "state_code": "MOR",
    "country_id": 142,
    "country_code": "MX",
    "latitude": "18.70417000",
    "longitude": "-99.11278000",
    "wikiDataId": null
  },
  {
    "id": 69361,
    "name": "Colonia San Francisco",
    "state_id": 3465,
    "state_code": "MOR",
    "country_id": 142,
    "country_code": "MX",
    "latitude": "18.89611000",
    "longitude": "-98.90361000",
    "wikiDataId": null
  },
  {
    "id": 69462,
    "name": "Constancio Farfán (La Pascuala)",
    "state_id": 3465,
    "state_code": "MOR",
    "country_id": 142,
    "country_code": "MX",
    "latitude": "18.74194000",
    "longitude": "-98.95389000",
    "wikiDataId": null
  },
  {
    "id": 69572,
    "name": "Cuauchichinola",
    "state_id": 3465,
    "state_code": "MOR",
    "country_id": 142,
    "country_code": "MX",
    "latitude": "18.66389000",
    "longitude": "-99.37583000",
    "wikiDataId": null
  },
  {
    "id": 69576,
    "name": "Cuauhtempan (San Andrés Cuauhtempan)",
    "state_id": 3465,
    "state_code": "MOR",
    "country_id": 142,
    "country_code": "MX",
    "latitude": "18.97472000",
    "longitude": "-98.94639000",
    "wikiDataId": null
  },
  {
    "id": 69591,
    "name": "Cuautla",
    "state_id": 3465,
    "state_code": "MOR",
    "country_id": 142,
    "country_code": "MX",
    "latitude": "18.81060000",
    "longitude": "-98.93525000",
    "wikiDataId": null
  },
  {
    "id": 69614,
    "name": "Cuentepec",
    "state_id": 3465,
    "state_code": "MOR",
    "country_id": 142,
    "country_code": "MX",
    "latitude": "18.86159000",
    "longitude": "-99.32611000",
    "wikiDataId": null
  },
  {
    "id": 69615,
    "name": "Cuernavaca",
    "state_id": 3465,
    "state_code": "MOR",
    "country_id": 142,
    "country_code": "MX",
    "latitude": "18.95532000",
    "longitude": "-99.24002000",
    "wikiDataId": null
  },
  {
    "id": 69721,
    "name": "Dos Ríos",
    "state_id": 3465,
    "state_code": "MOR",
    "country_id": 142,
    "country_code": "MX",
    "latitude": "19.37467000",
    "longitude": "-99.34359000",
    "wikiDataId": null
  },
  {
    "id": 69871,
    "name": "El Carmen",
    "state_id": 3465,
    "state_code": "MOR",
    "country_id": 142,
    "country_code": "MX",
    "latitude": "19.88796000",
    "longitude": "-98.95732000",
    "wikiDataId": null
  },
  {
    "id": 69965,
    "name": "El Estudiante",
    "state_id": 3465,
    "state_code": "MOR",
    "country_id": 142,
    "country_code": "MX",
    "latitude": "18.57760000",
    "longitude": "-99.29712000",
    "wikiDataId": null
  },
  {
    "id": 70039,
    "name": "El Mirador",
    "state_id": 3465,
    "state_code": "MOR",
    "country_id": 142,
    "country_code": "MX",
    "latitude": "18.77139000",
    "longitude": "-99.34139000",
    "wikiDataId": null
  },
  {
    "id": 70168,
    "name": "El Rodeo",
    "state_id": 3465,
    "state_code": "MOR",
    "country_id": 142,
    "country_code": "MX",
    "latitude": "18.77864000",
    "longitude": "-99.32269000",
    "wikiDataId": null
  },
  {
    "id": 70188,
    "name": "El Salitre",
    "state_id": 3465,
    "state_code": "MOR",
    "country_id": 142,
    "country_code": "MX",
    "latitude": "18.67583000",
    "longitude": "-98.95806000",
    "wikiDataId": null
  },
  {
    "id": 70277,
    "name": "Emiliano Zapata",
    "state_id": 3465,
    "state_code": "MOR",
    "country_id": 142,
    "country_code": "MX",
    "latitude": "18.84065000",
    "longitude": "-99.18463000",
    "wikiDataId": null
  },
  {
    "id": 70291,
    "name": "Emiliano Zapata (Casahuates)",
    "state_id": 3465,
    "state_code": "MOR",
    "country_id": 142,
    "country_code": "MX",
    "latitude": "18.93056000",
    "longitude": "-98.95889000",
    "wikiDataId": null
  },
  {
    "id": 70307,
    "name": "Enthavi",
    "state_id": 3465,
    "state_code": "MOR",
    "country_id": 142,
    "country_code": "MX",
    "latitude": "19.49842000",
    "longitude": "-99.57502000",
    "wikiDataId": null
  },
  {
    "id": 70385,
    "name": "Ex-Hacienda el Hospital",
    "state_id": 3465,
    "state_code": "MOR",
    "country_id": 142,
    "country_code": "MX",
    "latitude": "18.83111000",
    "longitude": "-98.99667000",
    "wikiDataId": null
  },
  {
    "id": 70400,
    "name": "Felipe Neri (Cuatepec)",
    "state_id": 3465,
    "state_code": "MOR",
    "country_id": 142,
    "country_code": "MX",
    "latitude": "19.03944000",
    "longitude": "-98.94361000",
    "wikiDataId": null
  },
  {
    "id": 70425,
    "name": "Fraccionamiento Lomas de Ahuatlán",
    "state_id": 3465,
    "state_code": "MOR",
    "country_id": 142,
    "country_code": "MX",
    "latitude": "18.95444000",
    "longitude": "-99.25722000",
    "wikiDataId": null
  },
  {
    "id": 70443,
    "name": "Fraccionamiento Universo",
    "state_id": 3465,
    "state_code": "MOR",
    "country_id": 142,
    "country_code": "MX",
    "latitude": "18.96167000",
    "longitude": "-99.18639000",
    "wikiDataId": null
  },
  {
    "id": 70508,
    "name": "Galeana",
    "state_id": 3465,
    "state_code": "MOR",
    "country_id": 142,
    "country_code": "MX",
    "latitude": "18.63810000",
    "longitude": "-99.21240000",
    "wikiDataId": null
  },
  {
    "id": 70698,
    "name": "Higuerón",
    "state_id": 3465,
    "state_code": "MOR",
    "country_id": 142,
    "country_code": "MX",
    "latitude": "18.57750000",
    "longitude": "-99.18056000",
    "wikiDataId": null
  },
  {
    "id": 70721,
    "name": "Huajintlán",
    "state_id": 3465,
    "state_code": "MOR",
    "country_id": 142,
    "country_code": "MX",
    "latitude": "18.60923000",
    "longitude": "-99.42432000",
    "wikiDataId": null
  },
  {
    "id": 70741,
    "name": "Huatecalco",
    "state_id": 3465,
    "state_code": "MOR",
    "country_id": 142,
    "country_code": "MX",
    "latitude": "18.67676000",
    "longitude": "-99.14354000",
    "wikiDataId": null
  },
  {
    "id": 70754,
    "name": "Huazulco",
    "state_id": 3465,
    "state_code": "MOR",
    "country_id": 142,
    "country_code": "MX",
    "latitude": "18.75299000",
    "longitude": "-98.77535000",
    "wikiDataId": null
  },
  {
    "id": 70756,
    "name": "Huecahuasco",
    "state_id": 3465,
    "state_code": "MOR",
    "country_id": 142,
    "country_code": "MX",
    "latitude": "18.93694000",
    "longitude": "-98.78250000",
    "wikiDataId": null
  },
  {
    "id": 70770,
    "name": "Huepalcalco (San Miguel)",
    "state_id": 3465,
    "state_code": "MOR",
    "country_id": 142,
    "country_code": "MX",
    "latitude": "18.90889000",
    "longitude": "-98.75000000",
    "wikiDataId": null
  },
  {
    "id": 70774,
    "name": "Hueyapan",
    "state_id": 3465,
    "state_code": "MOR",
    "country_id": 142,
    "country_code": "MX",
    "latitude": "18.88970000",
    "longitude": "-98.68200000",
    "wikiDataId": null
  },
  {
    "id": 70798,
    "name": "Huitchila",
    "state_id": 3465,
    "state_code": "MOR",
    "country_id": 142,
    "country_code": "MX",
    "latitude": "18.63880000",
    "longitude": "-98.92529000",
    "wikiDataId": null
  },
  {
    "id": 70806,
    "name": "Huitzilac",
    "state_id": 3465,
    "state_code": "MOR",
    "country_id": 142,
    "country_code": "MX",
    "latitude": "19.02983000",
    "longitude": "-99.26788000",
    "wikiDataId": null
  },
  {
    "id": 70809,
    "name": "Huitzililla",
    "state_id": 3465,
    "state_code": "MOR",
    "country_id": 142,
    "country_code": "MX",
    "latitude": "18.69425000",
    "longitude": "-98.89687000",
    "wikiDataId": null
  },
  {
    "id": 70840,
    "name": "Ignacio Bastida (Santa Catarina Tlayca)",
    "state_id": 3465,
    "state_code": "MOR",
    "country_id": 142,
    "country_code": "MX",
    "latitude": "18.94028000",
    "longitude": "-99.01444000",
    "wikiDataId": null
  },
  {
    "id": 70871,
    "name": "Independencia",
    "state_id": 3465,
    "state_code": "MOR",
    "country_id": 142,
    "country_code": "MX",
    "latitude": "18.87716000",
    "longitude": "-99.12237000",
    "wikiDataId": null
  },
  {
    "id": 70894,
    "name": "Itzamatitlán",
    "state_id": 3465,
    "state_code": "MOR",
    "country_id": 142,
    "country_code": "MX",
    "latitude": "18.90942000",
    "longitude": "-99.02236000",
    "wikiDataId": null
  },
  {
    "id": 70943,
    "name": "Ixtlilco el Chico",
    "state_id": 3465,
    "state_code": "MOR",
    "country_id": 142,
    "country_code": "MX",
    "latitude": "18.55833000",
    "longitude": "-98.84694000",
    "wikiDataId": null
  },
  {
    "id": 70985,
    "name": "Jaltepec",
    "state_id": 3465,
    "state_code": "MOR",
    "country_id": 142,
    "country_code": "MX",
    "latitude": "19.72960000",
    "longitude": "-98.63456000",
    "wikiDataId": null
  },
  {
    "id": 71003,
    "name": "Jantetelco",
    "state_id": 3465,
    "state_code": "MOR",
    "country_id": 142,
    "country_code": "MX",
    "latitude": "18.71828000",
    "longitude": "-98.77760000",
    "wikiDataId": null
  },
  {
    "id": 71041,
    "name": "Jicarero",
    "state_id": 3465,
    "state_code": "MOR",
    "country_id": 142,
    "country_code": "MX",
    "latitude": "18.61488000",
    "longitude": "-99.22344000",
    "wikiDataId": null
  },
  {
    "id": 71061,
    "name": "Jiutepec",
    "state_id": 3465,
    "state_code": "MOR",
    "country_id": 142,
    "country_code": "MX",
    "latitude": "18.88139000",
    "longitude": "-99.17778000",
    "wikiDataId": null
  },
  {
    "id": 71069,
    "name": "Jojutla",
    "state_id": 3465,
    "state_code": "MOR",
    "country_id": 142,
    "country_code": "MX",
    "latitude": "18.61472000",
    "longitude": "-99.18028000",
    "wikiDataId": null
  },
  {
    "id": 71079,
    "name": "Jonacatepec",
    "state_id": 3465,
    "state_code": "MOR",
    "country_id": 142,
    "country_code": "MX",
    "latitude": "18.68081000",
    "longitude": "-98.80336000",
    "wikiDataId": null
  },
  {
    "id": 71124,
    "name": "Juan Morales",
    "state_id": 3465,
    "state_code": "MOR",
    "country_id": 142,
    "country_code": "MX",
    "latitude": "18.81139000",
    "longitude": "-98.92194000",
    "wikiDataId": null
  },
  {
    "id": 71139,
    "name": "Jumiltepec",
    "state_id": 3465,
    "state_code": "MOR",
    "country_id": 142,
    "country_code": "MX",
    "latitude": "18.91359000",
    "longitude": "-98.77666000",
    "wikiDataId": null
  },
  {
    "id": 71320,
    "name": "La Huanica",
    "state_id": 3465,
    "state_code": "MOR",
    "country_id": 142,
    "country_code": "MX",
    "latitude": "19.45956000",
    "longitude": "-99.50079000",
    "wikiDataId": null
  },
  {
    "id": 71330,
    "name": "La Joya",
    "state_id": 3465,
    "state_code": "MOR",
    "country_id": 142,
    "country_code": "MX",
    "latitude": "18.66667000",
    "longitude": "-99.46667000",
    "wikiDataId": null
  },
  {
    "id": 71517,
    "name": "La Unidad Huitzizilapan",
    "state_id": 3465,
    "state_code": "MOR",
    "country_id": 142,
    "country_code": "MX",
    "latitude": "19.42223000",
    "longitude": "-99.39771000",
    "wikiDataId": null
  },
  {
    "id": 71897,
    "name": "Lázaro Cárdenas (El Empalme)",
    "state_id": 3465,
    "state_code": "MOR",
    "country_id": 142,
    "country_code": "MX",
    "latitude": "18.93222000",
    "longitude": "-99.02528000",
    "wikiDataId": null
  },
  {
    "id": 71715,
    "name": "Loma Bonita",
    "state_id": 3465,
    "state_code": "MOR",
    "country_id": 142,
    "country_code": "MX",
    "latitude": "18.93144000",
    "longitude": "-99.17564000",
    "wikiDataId": null
  },
  {
    "id": 71743,
    "name": "Lomas de Ahuatepec",
    "state_id": 3465,
    "state_code": "MOR",
    "country_id": 142,
    "country_code": "MX",
    "latitude": "18.97139000",
    "longitude": "-99.18972000",
    "wikiDataId": null
  },
  {
    "id": 71773,
    "name": "Los Arcos",
    "state_id": 3465,
    "state_code": "MOR",
    "country_id": 142,
    "country_code": "MX",
    "latitude": "18.88722000",
    "longitude": "-99.02417000",
    "wikiDataId": null
  },
  {
    "id": 71987,
    "name": "Marcelino Rodríguez (San Ignacio)",
    "state_id": 3465,
    "state_code": "MOR",
    "country_id": 142,
    "country_code": "MX",
    "latitude": "18.57889000",
    "longitude": "-98.74361000",
    "wikiDataId": null
  },
  {
    "id": 72043,
    "name": "Mazatepec",
    "state_id": 3465,
    "state_code": "MOR",
    "country_id": 142,
    "country_code": "MX",
    "latitude": "18.72795000",
    "longitude": "-99.36339000",
    "wikiDataId": null
  },
  {
    "id": 72089,
    "name": "Metepec",
    "state_id": 3465,
    "state_code": "MOR",
    "country_id": 142,
    "country_code": "MX",
    "latitude": "18.87889000",
    "longitude": "-98.74667000",
    "wikiDataId": null
  },
  {
    "id": 72114,
    "name": "Miacatlán",
    "state_id": 3465,
    "state_code": "MOR",
    "country_id": 142,
    "country_code": "MX",
    "latitude": "18.76203000",
    "longitude": "-99.35944000",
    "wikiDataId": null
  },
  {
    "id": 72119,
    "name": "Michapa",
    "state_id": 3465,
    "state_code": "MOR",
    "country_id": 142,
    "country_code": "MX",
    "latitude": "18.70241000",
    "longitude": "-99.47907000",
    "wikiDataId": null
  },
  {
    "id": 72126,
    "name": "Miguel Bocanegra",
    "state_id": 3465,
    "state_code": "MOR",
    "country_id": 142,
    "country_code": "MX",
    "latitude": "19.84574000",
    "longitude": "-99.11193000",
    "wikiDataId": null
  },
  {
    "id": 72170,
    "name": "Mixtlalcingo",
    "state_id": 3465,
    "state_code": "MOR",
    "country_id": 142,
    "country_code": "MX",
    "latitude": "18.80333000",
    "longitude": "-98.90028000",
    "wikiDataId": null
  },
  {
    "id": 72247,
    "name": "Moyotepec",
    "state_id": 3465,
    "state_code": "MOR",
    "country_id": 142,
    "country_code": "MX",
    "latitude": "18.72084000",
    "longitude": "-98.99471000",
    "wikiDataId": null
  },
  {
    "id": 72287,
    "name": "Narciso Mendoza",
    "state_id": 3465,
    "state_code": "MOR",
    "country_id": 142,
    "country_code": "MX",
    "latitude": "18.87417000",
    "longitude": "-98.96972000",
    "wikiDataId": null
  },
  {
    "id": 72312,
    "name": "Nepopualco",
    "state_id": 3465,
    "state_code": "MOR",
    "country_id": 142,
    "country_code": "MX",
    "latitude": "18.99926000",
    "longitude": "-98.94270000",
    "wikiDataId": null
  },
  {
    "id": 72335,
    "name": "Ninguno [Centro de Readaptación Social de Atlacholoaya]",
    "state_id": 3465,
    "state_code": "MOR",
    "country_id": 142,
    "country_code": "MX",
    "latitude": "18.75778000",
    "longitude": "-99.22944000",
    "wikiDataId": null
  },
  {
    "id": 72430,
    "name": "Oacalco",
    "state_id": 3465,
    "state_code": "MOR",
    "country_id": 142,
    "country_code": "MX",
    "latitude": "18.92342000",
    "longitude": "-99.02935000",
    "wikiDataId": null
  },
  {
    "id": 72434,
    "name": "Oaxtepec",
    "state_id": 3465,
    "state_code": "MOR",
    "country_id": 142,
    "country_code": "MX",
    "latitude": "18.91825000",
    "longitude": "-98.95644000",
    "wikiDataId": null
  },
  {
    "id": 72462,
    "name": "Ocoxaltepec",
    "state_id": 3465,
    "state_code": "MOR",
    "country_id": 142,
    "country_code": "MX",
    "latitude": "18.93500000",
    "longitude": "-98.75250000",
    "wikiDataId": null
  },
  {
    "id": 72473,
    "name": "Ocuituco",
    "state_id": 3465,
    "state_code": "MOR",
    "country_id": 142,
    "country_code": "MX",
    "latitude": "18.87731000",
    "longitude": "-98.77323000",
    "wikiDataId": null
  },
  {
    "id": 72501,
    "name": "Olintepec",
    "state_id": 3465,
    "state_code": "MOR",
    "country_id": 142,
    "country_code": "MX",
    "latitude": "18.74056000",
    "longitude": "-98.98722000",
    "wikiDataId": null
  },
  {
    "id": 72724,
    "name": "Pedro Amaro",
    "state_id": 3465,
    "state_code": "MOR",
    "country_id": 142,
    "country_code": "MX",
    "latitude": "18.59639000",
    "longitude": "-99.17306000",
    "wikiDataId": null
  },
  {
    "id": 72750,
    "name": "Peña Flores (Palo Verde)",
    "state_id": 3465,
    "state_code": "MOR",
    "country_id": 142,
    "country_code": "MX",
    "latitude": "18.86722000",
    "longitude": "-98.96833000",
    "wikiDataId": null
  },
  {
    "id": 73013,
    "name": "Pérez de Galeana",
    "state_id": 3465,
    "state_code": "MOR",
    "country_id": 142,
    "country_code": "MX",
    "latitude": "19.97933000",
    "longitude": "-99.14164000",
    "wikiDataId": null
  },
  {
    "id": 72911,
    "name": "Progreso",
    "state_id": 3465,
    "state_code": "MOR",
    "country_id": 142,
    "country_code": "MX",
    "latitude": "18.88008000",
    "longitude": "-99.15260000",
    "wikiDataId": null
  },
  {
    "id": 72936,
    "name": "Pueblo Nuevo",
    "state_id": 3465,
    "state_code": "MOR",
    "country_id": 142,
    "country_code": "MX",
    "latitude": "18.70068000",
    "longitude": "-99.15277000",
    "wikiDataId": null
  },
  {
    "id": 72945,
    "name": "Pueblo Nuevo de Morelos",
    "state_id": 3465,
    "state_code": "MOR",
    "country_id": 142,
    "country_code": "MX",
    "latitude": "19.76245000",
    "longitude": "-99.05385000",
    "wikiDataId": null
  },
  {
    "id": 72956,
    "name": "Puente de Ixtla",
    "state_id": 3465,
    "state_code": "MOR",
    "country_id": 142,
    "country_code": "MX",
    "latitude": "18.61472000",
    "longitude": "-99.31806000",
    "wikiDataId": null
  },
  {
    "id": 73005,
    "name": "Puxtla",
    "state_id": 3465,
    "state_code": "MOR",
    "country_id": 142,
    "country_code": "MX",
    "latitude": "18.81000000",
    "longitude": "-98.98250000",
    "wikiDataId": null
  },
  {
    "id": 73016,
    "name": "Quebrantadero",
    "state_id": 3465,
    "state_code": "MOR",
    "country_id": 142,
    "country_code": "MX",
    "latitude": "18.52429000",
    "longitude": "-98.79023000",
    "wikiDataId": null
  },
  {
    "id": 73101,
    "name": "Reyes Acozac",
    "state_id": 3465,
    "state_code": "MOR",
    "country_id": 142,
    "country_code": "MX",
    "latitude": "19.77550000",
    "longitude": "-98.98079000",
    "wikiDataId": null
  },
  {
    "id": 73210,
    "name": "Salazar",
    "state_id": 3465,
    "state_code": "MOR",
    "country_id": 142,
    "country_code": "MX",
    "latitude": "19.30767000",
    "longitude": "-99.38863000",
    "wikiDataId": null
  },
  {
    "id": 73276,
    "name": "San Andrés Cuexcontitlán",
    "state_id": 3465,
    "state_code": "MOR",
    "country_id": 142,
    "country_code": "MX",
    "latitude": "19.35892000",
    "longitude": "-99.62151000",
    "wikiDataId": null
  },
  {
    "id": 73306,
    "name": "San Andrés de la Cal",
    "state_id": 3465,
    "state_code": "MOR",
    "country_id": 142,
    "country_code": "MX",
    "latitude": "18.95694000",
    "longitude": "-99.11444000",
    "wikiDataId": null
  },
  {
    "id": 73289,
    "name": "San Andrés Ocotlán",
    "state_id": 3465,
    "state_code": "MOR",
    "country_id": 142,
    "country_code": "MX",
    "latitude": "19.19297000",
    "longitude": "-99.58612000",
    "wikiDataId": null
  },
  {
    "id": 73329,
    "name": "San Antonio Chiverías",
    "state_id": 3465,
    "state_code": "MOR",
    "country_id": 142,
    "country_code": "MX",
    "latitude": "18.65222000",
    "longitude": "-99.22139000",
    "wikiDataId": null
  },
  {
    "id": 73381,
    "name": "San Antonio del Puente",
    "state_id": 3465,
    "state_code": "MOR",
    "country_id": 142,
    "country_code": "MX",
    "latitude": "19.41832000",
    "longitude": "-99.61734000",
    "wikiDataId": null
  },
  {
    "id": 73428,
    "name": "San Bartolomé Tlaltelulco",
    "state_id": 3465,
    "state_code": "MOR",
    "country_id": 142,
    "country_code": "MX",
    "latitude": "19.22738000",
    "longitude": "-99.62964000",
    "wikiDataId": null
  },
  {
    "id": 73487,
    "name": "San Diego",
    "state_id": 3465,
    "state_code": "MOR",
    "country_id": 142,
    "country_code": "MX",
    "latitude": "19.00833000",
    "longitude": "-99.65434000",
    "wikiDataId": null
  },
  {
    "id": 73492,
    "name": "San Diego Alcalá",
    "state_id": 3465,
    "state_code": "MOR",
    "country_id": 142,
    "country_code": "MX",
    "latitude": "19.45121000",
    "longitude": "-99.62115000",
    "wikiDataId": null
  },
  {
    "id": 73494,
    "name": "San Diego Linares",
    "state_id": 3465,
    "state_code": "MOR",
    "country_id": 142,
    "country_code": "MX",
    "latitude": "19.38628000",
    "longitude": "-99.63748000",
    "wikiDataId": null
  },
  {
    "id": 73525,
    "name": "San Felipe Teotitlán",
    "state_id": 3465,
    "state_code": "MOR",
    "country_id": 142,
    "country_code": "MX",
    "latitude": "19.80431000",
    "longitude": "-98.70106000",
    "wikiDataId": null
  },
  {
    "id": 73555,
    "name": "San Francisco Chimalpa",
    "state_id": 3465,
    "state_code": "MOR",
    "country_id": 142,
    "country_code": "MX",
    "latitude": "19.44279000",
    "longitude": "-99.34398000",
    "wikiDataId": null
  },
  {
    "id": 73599,
    "name": "San Francisco Tetetla",
    "state_id": 3465,
    "state_code": "MOR",
    "country_id": 142,
    "country_code": "MX",
    "latitude": "19.11669000",
    "longitude": "-99.60141000",
    "wikiDataId": null
  },
  {
    "id": 73606,
    "name": "San Francisco Zacacalco",
    "state_id": 3465,
    "state_code": "MOR",
    "country_id": 142,
    "country_code": "MX",
    "latitude": "19.92875000",
    "longitude": "-98.98279000",
    "wikiDataId": null
  },
  {
    "id": 73632,
    "name": "San Gabriel las Palmas",
    "state_id": 3465,
    "state_code": "MOR",
    "country_id": 142,
    "country_code": "MX",
    "latitude": "18.61417000",
    "longitude": "-99.34694000",
    "wikiDataId": null
  },
  {
    "id": 73635,
    "name": "San Gaspar Tlahuelilpan",
    "state_id": 3465,
    "state_code": "MOR",
    "country_id": 142,
    "country_code": "MX",
    "latitude": "19.24290000",
    "longitude": "-99.54568000",
    "wikiDataId": null
  },
  {
    "id": 73701,
    "name": "San Jerónimo Acazulco",
    "state_id": 3465,
    "state_code": "MOR",
    "country_id": 142,
    "country_code": "MX",
    "latitude": "19.26563000",
    "longitude": "-99.41629000",
    "wikiDataId": null
  },
  {
    "id": 73706,
    "name": "San Jerónimo Chicahualco",
    "state_id": 3465,
    "state_code": "MOR",
    "country_id": 142,
    "country_code": "MX",
    "latitude": "19.28279000",
    "longitude": "-99.59290000",
    "wikiDataId": null
  },
  {
    "id": 73737,
    "name": "San José",
    "state_id": 3465,
    "state_code": "MOR",
    "country_id": 142,
    "country_code": "MX",
    "latitude": "19.00777000",
    "longitude": "-99.66345000",
    "wikiDataId": null
  },
  {
    "id": 73752,
    "name": "San José Buenavista el Grande",
    "state_id": 3465,
    "state_code": "MOR",
    "country_id": 142,
    "country_code": "MX",
    "latitude": "19.40833000",
    "longitude": "-99.58141000",
    "wikiDataId": null
  },
  {
    "id": 73759,
    "name": "San José Comalco",
    "state_id": 3465,
    "state_code": "MOR",
    "country_id": 142,
    "country_code": "MX",
    "latitude": "19.47097000",
    "longitude": "-99.62627000",
    "wikiDataId": null
  },
  {
    "id": 73849,
    "name": "San José el Llanito",
    "state_id": 3465,
    "state_code": "MOR",
    "country_id": 142,
    "country_code": "MX",
    "latitude": "19.30337000",
    "longitude": "-99.47950000",
    "wikiDataId": null
  },
  {
    "id": 73734,
    "name": "San Jose Solís",
    "state_id": 3465,
    "state_code": "MOR",
    "country_id": 142,
    "country_code": "MX",
    "latitude": "19.99877000",
    "longitude": "-100.04922000",
    "wikiDataId": null
  },
  {
    "id": 73801,
    "name": "San José Vista Hermosa",
    "state_id": 3465,
    "state_code": "MOR",
    "country_id": 142,
    "country_code": "MX",
    "latitude": "18.65443000",
    "longitude": "-99.26622000",
    "wikiDataId": null
  },
  {
    "id": 73863,
    "name": "San Juan Ahuehueyo",
    "state_id": 3465,
    "state_code": "MOR",
    "country_id": 142,
    "country_code": "MX",
    "latitude": "18.71500000",
    "longitude": "-98.93278000",
    "wikiDataId": null
  },
  {
    "id": 73978,
    "name": "San Juan la Isla",
    "state_id": 3465,
    "state_code": "MOR",
    "country_id": 142,
    "country_code": "MX",
    "latitude": "19.13027000",
    "longitude": "-99.57076000",
    "wikiDataId": null
  },
  {
    "id": 73917,
    "name": "San Juan Pueblo Nuevo",
    "state_id": 3465,
    "state_code": "MOR",
    "country_id": 142,
    "country_code": "MX",
    "latitude": "19.77583000",
    "longitude": "-99.01976000",
    "wikiDataId": null
  },
  {
    "id": 73937,
    "name": "San Juan Texcalpan",
    "state_id": 3465,
    "state_code": "MOR",
    "country_id": 142,
    "country_code": "MX",
    "latitude": "18.93583000",
    "longitude": "-98.92889000",
    "wikiDataId": null
  },
  {
    "id": 73939,
    "name": "San Juan Tilapa",
    "state_id": 3465,
    "state_code": "MOR",
    "country_id": 142,
    "country_code": "MX",
    "latitude": "19.22021000",
    "longitude": "-99.66012000",
    "wikiDataId": null
  },
  {
    "id": 73950,
    "name": "San Juan Xochiaca",
    "state_id": 3465,
    "state_code": "MOR",
    "country_id": 142,
    "country_code": "MX",
    "latitude": "19.01349000",
    "longitude": "-99.53938000",
    "wikiDataId": null
  },
  {
    "id": 73955,
    "name": "San Juan Yautepec",
    "state_id": 3465,
    "state_code": "MOR",
    "country_id": 142,
    "country_code": "MX",
    "latitude": "19.34887000",
    "longitude": "-99.34045000",
    "wikiDataId": null
  },
  {
    "id": 73957,
    "name": "San Juan Zitlaltepec",
    "state_id": 3465,
    "state_code": "MOR",
    "country_id": 142,
    "country_code": "MX",
    "latitude": "19.81207000",
    "longitude": "-99.14526000",
    "wikiDataId": null
  },
  {
    "id": 74001,
    "name": "San Lorenzo Cuauhtenco",
    "state_id": 3465,
    "state_code": "MOR",
    "country_id": 142,
    "country_code": "MX",
    "latitude": "19.19573000",
    "longitude": "-99.63156000",
    "wikiDataId": null
  },
  {
    "id": 74007,
    "name": "San Lorenzo Nenamicoyan",
    "state_id": 3465,
    "state_code": "MOR",
    "country_id": 142,
    "country_code": "MX",
    "latitude": "20.13699000",
    "longitude": "-99.63877000",
    "wikiDataId": null
  },
  {
    "id": 74008,
    "name": "San Lorenzo Oyamel",
    "state_id": 3465,
    "state_code": "MOR",
    "country_id": 142,
    "country_code": "MX",
    "latitude": "19.43355000",
    "longitude": "-99.57761000",
    "wikiDataId": null
  },
  {
    "id": 74048,
    "name": "San Luis Ayucán",
    "state_id": 3465,
    "state_code": "MOR",
    "country_id": 142,
    "country_code": "MX",
    "latitude": "19.49597000",
    "longitude": "-99.36312000",
    "wikiDataId": null
  },
  {
    "id": 74080,
    "name": "San Marcos de la Cruz",
    "state_id": 3465,
    "state_code": "MOR",
    "country_id": 142,
    "country_code": "MX",
    "latitude": "19.18682000",
    "longitude": "-99.65430000",
    "wikiDataId": null
  },
  {
    "id": 74118,
    "name": "San Mateo Atarasquíllo",
    "state_id": 3465,
    "state_code": "MOR",
    "country_id": 142,
    "country_code": "MX",
    "latitude": "19.32304000",
    "longitude": "-99.46156000",
    "wikiDataId": null
  },
  {
    "id": 74131,
    "name": "San Mateo Otzacatipan",
    "state_id": 3465,
    "state_code": "MOR",
    "country_id": 142,
    "country_code": "MX",
    "latitude": "19.33273000",
    "longitude": "-99.60345000",
    "wikiDataId": null
  },
  {
    "id": 74151,
    "name": "San Miguel",
    "state_id": 3465,
    "state_code": "MOR",
    "country_id": 142,
    "country_code": "MX",
    "latitude": "19.86852000",
    "longitude": "-99.13448000",
    "wikiDataId": null
  },
  {
    "id": 74158,
    "name": "San Miguel Almaya",
    "state_id": 3465,
    "state_code": "MOR",
    "country_id": 142,
    "country_code": "MX",
    "latitude": "19.21047000",
    "longitude": "-99.44195000",
    "wikiDataId": null
  },
  {
    "id": 74162,
    "name": "San Miguel Ameyalco",
    "state_id": 3465,
    "state_code": "MOR",
    "country_id": 142,
    "country_code": "MX",
    "latitude": "19.30681000",
    "longitude": "-99.45880000",
    "wikiDataId": null
  },
  {
    "id": 74164,
    "name": "San Miguel Atepoxco",
    "state_id": 3465,
    "state_code": "MOR",
    "country_id": 142,
    "country_code": "MX",
    "latitude": "19.74498000",
    "longitude": "-98.74038000",
    "wikiDataId": null
  },
  {
    "id": 74168,
    "name": "San Miguel Balderas",
    "state_id": 3465,
    "state_code": "MOR",
    "country_id": 142,
    "country_code": "MX",
    "latitude": "19.10943000",
    "longitude": "-99.65165000",
    "wikiDataId": null
  },
  {
    "id": 74231,
    "name": "San Miguel de La Victoria",
    "state_id": 3465,
    "state_code": "MOR",
    "country_id": 142,
    "country_code": "MX",
    "latitude": "20.05611000",
    "longitude": "-99.59109000",
    "wikiDataId": null
  },
  {
    "id": 74219,
    "name": "San Miguel Totoltepec",
    "state_id": 3465,
    "state_code": "MOR",
    "country_id": 142,
    "country_code": "MX",
    "latitude": "19.32402000",
    "longitude": "-99.57779000",
    "wikiDataId": null
  },
  {
    "id": 74255,
    "name": "San Nicolás Coatepec",
    "state_id": 3465,
    "state_code": "MOR",
    "country_id": 142,
    "country_code": "MX",
    "latitude": "19.13735000",
    "longitude": "-99.42948000",
    "wikiDataId": null
  },
  {
    "id": 74259,
    "name": "San Nicolás Peralta",
    "state_id": 3465,
    "state_code": "MOR",
    "country_id": 142,
    "country_code": "MX",
    "latitude": "19.35954000",
    "longitude": "-99.48555000",
    "wikiDataId": null
  },
  {
    "id": 74261,
    "name": "San Nicolás Solís",
    "state_id": 3465,
    "state_code": "MOR",
    "country_id": 142,
    "country_code": "MX",
    "latitude": "19.99107000",
    "longitude": "-100.02610000",
    "wikiDataId": null
  },
  {
    "id": 74264,
    "name": "San Nicolás Tlazala",
    "state_id": 3465,
    "state_code": "MOR",
    "country_id": 142,
    "country_code": "MX",
    "latitude": "19.22623000",
    "longitude": "-99.46372000",
    "wikiDataId": null
  },
  {
    "id": 74285,
    "name": "San Pablo Autopan",
    "state_id": 3465,
    "state_code": "MOR",
    "country_id": 142,
    "country_code": "MX",
    "latitude": "19.35638000",
    "longitude": "-99.65724000",
    "wikiDataId": null
  },
  {
    "id": 74312,
    "name": "San Pedro Apatlaco",
    "state_id": 3465,
    "state_code": "MOR",
    "country_id": 142,
    "country_code": "MX",
    "latitude": "18.79306000",
    "longitude": "-98.95972000",
    "wikiDataId": null
  },
  {
    "id": 74316,
    "name": "San Pedro Atlapulco",
    "state_id": 3465,
    "state_code": "MOR",
    "country_id": 142,
    "country_code": "MX",
    "latitude": "19.24402000",
    "longitude": "-99.39505000",
    "wikiDataId": null
  },
  {
    "id": 74325,
    "name": "San Pedro Chochula",
    "state_id": 3465,
    "state_code": "MOR",
    "country_id": 142,
    "country_code": "MX",
    "latitude": "19.26359000",
    "longitude": "-99.48590000",
    "wikiDataId": null
  },
  {
    "id": 74339,
    "name": "San Pedro Huaquilpan",
    "state_id": 3465,
    "state_code": "MOR",
    "country_id": 142,
    "country_code": "MX",
    "latitude": "19.98840000",
    "longitude": "-98.86777000",
    "wikiDataId": null
  },
  {
    "id": 74375,
    "name": "San Pedro Techuchulco",
    "state_id": 3465,
    "state_code": "MOR",
    "country_id": 142,
    "country_code": "MX",
    "latitude": "19.11359000",
    "longitude": "-99.52425000",
    "wikiDataId": null
  },
  {
    "id": 74386,
    "name": "San Pedro Tlaltizapan",
    "state_id": 3465,
    "state_code": "MOR",
    "country_id": 142,
    "country_code": "MX",
    "latitude": "19.19973000",
    "longitude": "-99.49956000",
    "wikiDataId": null
  },
  {
    "id": 74392,
    "name": "San Pedro Totoltepec",
    "state_id": 3465,
    "state_code": "MOR",
    "country_id": 142,
    "country_code": "MX",
    "latitude": "19.31108000",
    "longitude": "-99.57197000",
    "wikiDataId": null
  },
  {
    "id": 74395,
    "name": "San Pedro Tultepec",
    "state_id": 3465,
    "state_code": "MOR",
    "country_id": 142,
    "country_code": "MX",
    "latitude": "19.26514000",
    "longitude": "-99.50934000",
    "wikiDataId": null
  },
  {
    "id": 74397,
    "name": "San Pedro Xalpa",
    "state_id": 3465,
    "state_code": "MOR",
    "country_id": 142,
    "country_code": "MX",
    "latitude": "19.82666000",
    "longitude": "-99.18466000",
    "wikiDataId": null
  },
  {
    "id": 74403,
    "name": "San Pedro Zictepec",
    "state_id": 3465,
    "state_code": "MOR",
    "country_id": 142,
    "country_code": "MX",
    "latitude": "19.03659000",
    "longitude": "-99.57771000",
    "wikiDataId": null
  },
  {
    "id": 74437,
    "name": "San Rafael Zaragoza",
    "state_id": 3465,
    "state_code": "MOR",
    "country_id": 142,
    "country_code": "MX",
    "latitude": "18.64166000",
    "longitude": "-99.00399000",
    "wikiDataId": null
  },
  {
    "id": 74454,
    "name": "San Sebastián",
    "state_id": 3465,
    "state_code": "MOR",
    "country_id": 142,
    "country_code": "MX",
    "latitude": "19.78431000",
    "longitude": "-99.05560000",
    "wikiDataId": null
  },
  {
    "id": 74508,
    "name": "San Vicente de Juárez",
    "state_id": 3465,
    "state_code": "MOR",
    "country_id": 142,
    "country_code": "MX",
    "latitude": "18.68343000",
    "longitude": "-98.98517000",
    "wikiDataId": null
  },
  {
    "id": 74538,
    "name": "Santa Ana Jilotzingo",
    "state_id": 3465,
    "state_code": "MOR",
    "country_id": 142,
    "country_code": "MX",
    "latitude": "19.45617000",
    "longitude": "-99.48836000",
    "wikiDataId": null
  },
  {
    "id": 74572,
    "name": "Santa Catarina",
    "state_id": 3465,
    "state_code": "MOR",
    "country_id": 142,
    "country_code": "MX",
    "latitude": "18.96972000",
    "longitude": "-99.14028000",
    "wikiDataId": null
  },
  {
    "id": 74619,
    "name": "Santa Cruz Ayotuxco",
    "state_id": 3465,
    "state_code": "MOR",
    "country_id": 142,
    "country_code": "MX",
    "latitude": "19.38273000",
    "longitude": "-99.37192000",
    "wikiDataId": null
  },
  {
    "id": 74637,
    "name": "Santa Cruz Pueblo Nuevo",
    "state_id": 3465,
    "state_code": "MOR",
    "country_id": 142,
    "country_code": "MX",
    "latitude": "19.09864000",
    "longitude": "-99.65531000",
    "wikiDataId": null
  },
  {
    "id": 74709,
    "name": "Santa María Ajoloapan",
    "state_id": 3465,
    "state_code": "MOR",
    "country_id": 142,
    "country_code": "MX",
    "latitude": "19.76360000",
    "longitude": "-98.95908000",
    "wikiDataId": null
  },
  {
    "id": 74716,
    "name": "Santa María Atarasquillo",
    "state_id": 3465,
    "state_code": "MOR",
    "country_id": 142,
    "country_code": "MX",
    "latitude": "19.32831000",
    "longitude": "-99.46899000",
    "wikiDataId": null
  },
  {
    "id": 74757,
    "name": "Santa María Magdalena Ocotitlán",
    "state_id": 3465,
    "state_code": "MOR",
    "country_id": 142,
    "country_code": "MX",
    "latitude": "19.23713000",
    "longitude": "-99.62418000",
    "wikiDataId": null
  },
  {
    "id": 74698,
    "name": "Santa Martha",
    "state_id": 3465,
    "state_code": "MOR",
    "country_id": 142,
    "country_code": "MX",
    "latitude": "19.05977000",
    "longitude": "-99.38132000",
    "wikiDataId": null
  },
  {
    "id": 74846,
    "name": "Santa Rosa Treinta",
    "state_id": 3465,
    "state_code": "MOR",
    "country_id": 142,
    "country_code": "MX",
    "latitude": "18.70025000",
    "longitude": "-99.18357000",
    "wikiDataId": null
  },
  {
    "id": 74877,
    "name": "Santiago Analco",
    "state_id": 3465,
    "state_code": "MOR",
    "country_id": 142,
    "country_code": "MX",
    "latitude": "19.33116000",
    "longitude": "-99.45208000",
    "wikiDataId": null
  },
  {
    "id": 74933,
    "name": "Santiago Oxthoc",
    "state_id": 3465,
    "state_code": "MOR",
    "country_id": 142,
    "country_code": "MX",
    "latitude": "20.11599000",
    "longitude": "-99.54422000",
    "wikiDataId": null
  },
  {
    "id": 74945,
    "name": "Santiago Tepatlaxco",
    "state_id": 3465,
    "state_code": "MOR",
    "country_id": 142,
    "country_code": "MX",
    "latitude": "19.47485000",
    "longitude": "-99.34410000",
    "wikiDataId": null
  },
  {
    "id": 74969,
    "name": "Santiago Tílapa",
    "state_id": 3465,
    "state_code": "MOR",
    "country_id": 142,
    "country_code": "MX",
    "latitude": "19.18953000",
    "longitude": "-99.42089000",
    "wikiDataId": null
  },
  {
    "id": 74999,
    "name": "Santo Domingo Aztacameca",
    "state_id": 3465,
    "state_code": "MOR",
    "country_id": 142,
    "country_code": "MX",
    "latitude": "19.78223000",
    "longitude": "-98.76811000",
    "wikiDataId": null
  },
  {
    "id": 75004,
    "name": "Santo Domingo Ocotitlán",
    "state_id": 3465,
    "state_code": "MOR",
    "country_id": 142,
    "country_code": "MX",
    "latitude": "19.01445000",
    "longitude": "-99.06101000",
    "wikiDataId": null
  },
  {
    "id": 75259,
    "name": "Tecajec",
    "state_id": 3465,
    "state_code": "MOR",
    "country_id": 142,
    "country_code": "MX",
    "latitude": "18.79806000",
    "longitude": "-98.81500000",
    "wikiDataId": null
  },
  {
    "id": 75301,
    "name": "Tehuixtla",
    "state_id": 3465,
    "state_code": "MOR",
    "country_id": 142,
    "country_code": "MX",
    "latitude": "18.55944000",
    "longitude": "-99.27119000",
    "wikiDataId": null
  },
  {
    "id": 75319,
    "name": "Telixtac",
    "state_id": 3465,
    "state_code": "MOR",
    "country_id": 142,
    "country_code": "MX",
    "latitude": "18.56031000",
    "longitude": "-98.77625000",
    "wikiDataId": null
  },
  {
    "id": 75336,
    "name": "Temimilcingo",
    "state_id": 3465,
    "state_code": "MOR",
    "country_id": 142,
    "country_code": "MX",
    "latitude": "18.72954000",
    "longitude": "-99.16071000",
    "wikiDataId": null
  },
  {
    "id": 75337,
    "name": "Temixco",
    "state_id": 3465,
    "state_code": "MOR",
    "country_id": 142,
    "country_code": "MX",
    "latitude": "18.85254000",
    "longitude": "-99.22537000",
    "wikiDataId": null
  },
  {
    "id": 75338,
    "name": "Temoac",
    "state_id": 3465,
    "state_code": "MOR",
    "country_id": 142,
    "country_code": "MX",
    "latitude": "18.77222000",
    "longitude": "-98.77750000",
    "wikiDataId": null
  },
  {
    "id": 75351,
    "name": "Tenango",
    "state_id": 3465,
    "state_code": "MOR",
    "country_id": 142,
    "country_code": "MX",
    "latitude": "18.62253000",
    "longitude": "-98.75175000",
    "wikiDataId": null
  },
  {
    "id": 75365,
    "name": "Tenextepango",
    "state_id": 3465,
    "state_code": "MOR",
    "country_id": 142,
    "country_code": "MX",
    "latitude": "18.72889000",
    "longitude": "-98.95778000",
    "wikiDataId": null
  },
  {
    "id": 75394,
    "name": "Tepalcingo",
    "state_id": 3465,
    "state_code": "MOR",
    "country_id": 142,
    "country_code": "MX",
    "latitude": "18.60151000",
    "longitude": "-98.86942000",
    "wikiDataId": null
  },
  {
    "id": 75432,
    "name": "Tepetzingo",
    "state_id": 3465,
    "state_code": "MOR",
    "country_id": 142,
    "country_code": "MX",
    "latitude": "18.78537000",
    "longitude": "-99.17758000",
    "wikiDataId": null
  },
  {
    "id": 75453,
    "name": "Tepoztlán",
    "state_id": 3465,
    "state_code": "MOR",
    "country_id": 142,
    "country_code": "MX",
    "latitude": "18.98622000",
    "longitude": "-99.10051000",
    "wikiDataId": null
  },
  {
    "id": 75456,
    "name": "Tequesquitengo",
    "state_id": 3465,
    "state_code": "MOR",
    "country_id": 142,
    "country_code": "MX",
    "latitude": "18.61096000",
    "longitude": "-99.26025000",
    "wikiDataId": null
  },
  {
    "id": 75474,
    "name": "Tetecala",
    "state_id": 3465,
    "state_code": "MOR",
    "country_id": 142,
    "country_code": "MX",
    "latitude": "18.73009000",
    "longitude": "-99.40021000",
    "wikiDataId": null
  },
  {
    "id": 75475,
    "name": "Tetecalita",
    "state_id": 3465,
    "state_code": "MOR",
    "country_id": 142,
    "country_code": "MX",
    "latitude": "18.76823000",
    "longitude": "-99.17749000",
    "wikiDataId": null
  },
  {
    "id": 75476,
    "name": "Tetecolala",
    "state_id": 3465,
    "state_code": "MOR",
    "country_id": 142,
    "country_code": "MX",
    "latitude": "18.92250000",
    "longitude": "-99.16278000",
    "wikiDataId": null
  },
  {
    "id": 75479,
    "name": "Tetela del Volcán",
    "state_id": 3465,
    "state_code": "MOR",
    "country_id": 142,
    "country_code": "MX",
    "latitude": "18.89306000",
    "longitude": "-98.72972000",
    "wikiDataId": null
  },
  {
    "id": 75483,
    "name": "Tetelilla",
    "state_id": 3465,
    "state_code": "MOR",
    "country_id": 142,
    "country_code": "MX",
    "latitude": "18.61349000",
    "longitude": "-98.77356000",
    "wikiDataId": null
  },
  {
    "id": 75502,
    "name": "Texcala",
    "state_id": 3465,
    "state_code": "MOR",
    "country_id": 142,
    "country_code": "MX",
    "latitude": "18.93444000",
    "longitude": "-98.79472000",
    "wikiDataId": null
  },
  {
    "id": 75532,
    "name": "Tezoyuca",
    "state_id": 3465,
    "state_code": "MOR",
    "country_id": 142,
    "country_code": "MX",
    "latitude": "18.80498000",
    "longitude": "-99.20212000",
    "wikiDataId": null
  },
  {
    "id": 75538,
    "name": "Tianguistongo",
    "state_id": 3465,
    "state_code": "MOR",
    "country_id": 142,
    "country_code": "MX",
    "latitude": "20.00612000",
    "longitude": "-99.03845000",
    "wikiDataId": null
  },
  {
    "id": 75542,
    "name": "Ticumán",
    "state_id": 3465,
    "state_code": "MOR",
    "country_id": 142,
    "country_code": "MX",
    "latitude": "18.75671000",
    "longitude": "-99.11991000",
    "wikiDataId": null
  },
  {
    "id": 75552,
    "name": "Tierra Larga (Campo Nuevo)",
    "state_id": 3465,
    "state_code": "MOR",
    "country_id": 142,
    "country_code": "MX",
    "latitude": "18.86444000",
    "longitude": "-98.94806000",
    "wikiDataId": null
  },
  {
    "id": 75570,
    "name": "Tilzapotla",
    "state_id": 3465,
    "state_code": "MOR",
    "country_id": 142,
    "country_code": "MX",
    "latitude": "18.48916000",
    "longitude": "-99.27442000",
    "wikiDataId": null
  },
  {
    "id": 75598,
    "name": "Tlachaloya",
    "state_id": 3465,
    "state_code": "MOR",
    "country_id": 142,
    "country_code": "MX",
    "latitude": "19.44846000",
    "longitude": "-99.66225000",
    "wikiDataId": null
  },
  {
    "id": 75617,
    "name": "Tlacotepec",
    "state_id": 3465,
    "state_code": "MOR",
    "country_id": 142,
    "country_code": "MX",
    "latitude": "18.81444000",
    "longitude": "-98.74514000",
    "wikiDataId": null
  },
  {
    "id": 75626,
    "name": "Tlacuitlapa",
    "state_id": 3465,
    "state_code": "MOR",
    "country_id": 142,
    "country_code": "MX",
    "latitude": "19.12209000",
    "longitude": "-99.41534000",
    "wikiDataId": null
  },
  {
    "id": 75646,
    "name": "Tlalnepantla",
    "state_id": 3465,
    "state_code": "MOR",
    "country_id": 142,
    "country_code": "MX",
    "latitude": "19.00885000",
    "longitude": "-98.99613000",
    "wikiDataId": null
  },
  {
    "id": 75655,
    "name": "Tlaltenanguito",
    "state_id": 3465,
    "state_code": "MOR",
    "country_id": 142,
    "country_code": "MX",
    "latitude": "19.49822000",
    "longitude": "-99.58309000",
    "wikiDataId": null
  },
  {
    "id": 75658,
    "name": "Tlaltetelco (San Miguel Tlaltetelco)",
    "state_id": 3465,
    "state_code": "MOR",
    "country_id": 142,
    "country_code": "MX",
    "latitude": "18.95222000",
    "longitude": "-98.88806000",
    "wikiDataId": null
  },
  {
    "id": 75659,
    "name": "Tlaltizapán",
    "state_id": 3465,
    "state_code": "MOR",
    "country_id": 142,
    "country_code": "MX",
    "latitude": "18.68630000",
    "longitude": "-99.11868000",
    "wikiDataId": null
  },
  {
    "id": 75679,
    "name": "Tlapanaloya",
    "state_id": 3465,
    "state_code": "MOR",
    "country_id": 142,
    "country_code": "MX",
    "latitude": "19.93619000",
    "longitude": "-99.09664000",
    "wikiDataId": null
  },
  {
    "id": 75682,
    "name": "Tlaquiltenango",
    "state_id": 3465,
    "state_code": "MOR",
    "country_id": 142,
    "country_code": "MX",
    "latitude": "18.63429000",
    "longitude": "-99.16320000",
    "wikiDataId": null
  },
  {
    "id": 75686,
    "name": "Tlatenchi",
    "state_id": 3465,
    "state_code": "MOR",
    "country_id": 142,
    "country_code": "MX",
    "latitude": "18.59639000",
    "longitude": "-99.18639000",
    "wikiDataId": null
  },
  {
    "id": 75705,
    "name": "Tlayacapan",
    "state_id": 3465,
    "state_code": "MOR",
    "country_id": 142,
    "country_code": "MX",
    "latitude": "18.95556000",
    "longitude": "-98.98111000",
    "wikiDataId": null
  },
  {
    "id": 75752,
    "name": "Totolapan",
    "state_id": 3465,
    "state_code": "MOR",
    "country_id": 142,
    "country_code": "MX",
    "latitude": "18.98487000",
    "longitude": "-98.92073000",
    "wikiDataId": null
  },
  {
    "id": 75780,
    "name": "Tres de Mayo",
    "state_id": 3465,
    "state_code": "MOR",
    "country_id": 142,
    "country_code": "MX",
    "latitude": "18.86861000",
    "longitude": "-99.20833000",
    "wikiDataId": null
  },
  {
    "id": 75774,
    "name": "Tres Marías",
    "state_id": 3465,
    "state_code": "MOR",
    "country_id": 142,
    "country_code": "MX",
    "latitude": "19.05490000",
    "longitude": "-99.24301000",
    "wikiDataId": null
  },
  {
    "id": 75870,
    "name": "Unidad Habitacional 10 de Abril",
    "state_id": 3465,
    "state_code": "MOR",
    "country_id": 142,
    "country_code": "MX",
    "latitude": "18.75444000",
    "longitude": "-98.91611000",
    "wikiDataId": null
  },
  {
    "id": 75872,
    "name": "Unidad Habitacional José María Morelos y Pavón",
    "state_id": 3465,
    "state_code": "MOR",
    "country_id": 142,
    "country_code": "MX",
    "latitude": "18.82028000",
    "longitude": "-99.26222000",
    "wikiDataId": null
  },
  {
    "id": 75873,
    "name": "Unidad Habitacional Mariano Matamoros",
    "state_id": 3465,
    "state_code": "MOR",
    "country_id": 142,
    "country_code": "MX",
    "latitude": "18.74750000",
    "longitude": "-98.85222000",
    "wikiDataId": null
  },
  {
    "id": 75874,
    "name": "Unidad Habitacional Rinconada Acolapa",
    "state_id": 3465,
    "state_code": "MOR",
    "country_id": 142,
    "country_code": "MX",
    "latitude": "18.89722000",
    "longitude": "-99.13139000",
    "wikiDataId": null
  },
  {
    "id": 75926,
    "name": "Valle de Vázquez",
    "state_id": 3465,
    "state_code": "MOR",
    "country_id": 142,
    "country_code": "MX",
    "latitude": "18.52858000",
    "longitude": "-99.06943000",
    "wikiDataId": null
  },
  {
    "id": 76043,
    "name": "Villa Santiago",
    "state_id": 3465,
    "state_code": "MOR",
    "country_id": 142,
    "country_code": "MX",
    "latitude": "18.97972000",
    "longitude": "-99.18528000",
    "wikiDataId": null
  },
  {
    "id": 76119,
    "name": "Xalostoc",
    "state_id": 3465,
    "state_code": "MOR",
    "country_id": 142,
    "country_code": "MX",
    "latitude": "18.72251000",
    "longitude": "-98.89877000",
    "wikiDataId": null
  },
  {
    "id": 76159,
    "name": "Xochicalco (Cirenio Longares)",
    "state_id": 3465,
    "state_code": "MOR",
    "country_id": 142,
    "country_code": "MX",
    "latitude": "18.78722000",
    "longitude": "-99.29944000",
    "wikiDataId": null
  },
  {
    "id": 76172,
    "name": "Xochitepec",
    "state_id": 3465,
    "state_code": "MOR",
    "country_id": 142,
    "country_code": "MX",
    "latitude": "18.78080000",
    "longitude": "-99.23049000",
    "wikiDataId": null
  },
  {
    "id": 76177,
    "name": "Xochitlán",
    "state_id": 3465,
    "state_code": "MOR",
    "country_id": 142,
    "country_code": "MX",
    "latitude": "18.88865000",
    "longitude": "-98.81209000",
    "wikiDataId": null
  },
  {
    "id": 76201,
    "name": "Xoxocotla",
    "state_id": 3465,
    "state_code": "MOR",
    "country_id": 142,
    "country_code": "MX",
    "latitude": "18.68415000",
    "longitude": "-99.24577000",
    "wikiDataId": null
  },
  {
    "id": 76221,
    "name": "Yautepec",
    "state_id": 3465,
    "state_code": "MOR",
    "country_id": 142,
    "country_code": "MX",
    "latitude": "18.88188000",
    "longitude": "-99.06715000",
    "wikiDataId": null
  },
  {
    "id": 76228,
    "name": "Yecapixteca",
    "state_id": 3465,
    "state_code": "MOR",
    "country_id": 142,
    "country_code": "MX",
    "latitude": "18.88230000",
    "longitude": "-98.90272000",
    "wikiDataId": null
  },
  {
    "id": 76229,
    "name": "Yecapixtla",
    "state_id": 3465,
    "state_code": "MOR",
    "country_id": 142,
    "country_code": "MX",
    "latitude": "18.88333000",
    "longitude": "-98.86500000",
    "wikiDataId": null
  },
  {
    "id": 76263,
    "name": "Zacapalco",
    "state_id": 3465,
    "state_code": "MOR",
    "country_id": 142,
    "country_code": "MX",
    "latitude": "18.63917000",
    "longitude": "-98.95944000",
    "wikiDataId": null
  },
  {
    "id": 76274,
    "name": "Zacatepec",
    "state_id": 3465,
    "state_code": "MOR",
    "country_id": 142,
    "country_code": "MX",
    "latitude": "18.65409000",
    "longitude": "-99.18981000",
    "wikiDataId": null
  },
  {
    "id": 76288,
    "name": "Zacualpan de Amilpas",
    "state_id": 3465,
    "state_code": "MOR",
    "country_id": 142,
    "country_code": "MX",
    "latitude": "18.78389000",
    "longitude": "-98.76583000",
    "wikiDataId": null
  },
  {
    "id": 76322,
    "name": "Zaragoza de Guadalupe",
    "state_id": 3465,
    "state_code": "MOR",
    "country_id": 142,
    "country_code": "MX",
    "latitude": "19.14830000",
    "longitude": "-99.64405000",
    "wikiDataId": null
  }
]