[
  {
    "id": 68038,
    "name": "Acaponeta",
    "state_id": 3477,
    "state_code": "NAY",
    "country_id": 142,
    "country_code": "MX",
    "latitude": "22.49396000",
    "longitude": "-105.36369000",
    "wikiDataId": null
  },
  {
    "id": 68136,
    "name": "Ahuacatlán",
    "state_id": 3477,
    "state_code": "NAY",
    "country_id": 142,
    "country_code": "MX",
    "latitude": "21.05405000",
    "longitude": "-104.48398000",
    "wikiDataId": null
  },
  {
    "id": 68236,
    "name": "Amapa",
    "state_id": 3477,
    "state_code": "NAY",
    "country_id": 142,
    "country_code": "MX",
    "latitude": "21.78359000",
    "longitude": "-105.25482000",
    "wikiDataId": null
  },
  {
    "id": 68244,
    "name": "Amatlán de Cañas",
    "state_id": 3477,
    "state_code": "NAY",
    "country_id": 142,
    "country_code": "MX",
    "latitude": "20.80699000",
    "longitude": "-104.40408000",
    "wikiDataId": null
  },
  {
    "id": 68321,
    "name": "Aquiles Serdán",
    "state_id": 3477,
    "state_code": "NAY",
    "country_id": 142,
    "country_code": "MX",
    "latitude": "21.38198000",
    "longitude": "-104.88891000",
    "wikiDataId": null
  },
  {
    "id": 68404,
    "name": "Aticama",
    "state_id": 3477,
    "state_code": "NAY",
    "country_id": 142,
    "country_code": "MX",
    "latitude": "21.48387000",
    "longitude": "-105.19787000",
    "wikiDataId": null
  },
  {
    "id": 68427,
    "name": "Atonalisco",
    "state_id": 3477,
    "state_code": "NAY",
    "country_id": 142,
    "country_code": "MX",
    "latitude": "21.66551000",
    "longitude": "-104.83949000",
    "wikiDataId": null
  },
  {
    "id": 68447,
    "name": "Aután",
    "state_id": 3477,
    "state_code": "NAY",
    "country_id": 142,
    "country_code": "MX",
    "latitude": "21.68973000",
    "longitude": "-105.30750000",
    "wikiDataId": null
  },
  {
    "id": 68579,
    "name": "Bellavista",
    "state_id": 3477,
    "state_code": "NAY",
    "country_id": 142,
    "country_code": "MX",
    "latitude": "21.56236000",
    "longitude": "-104.88267000",
    "wikiDataId": null
  },
  {
    "id": 68656,
    "name": "Bucerías",
    "state_id": 3477,
    "state_code": "NAY",
    "country_id": 142,
    "country_code": "MX",
    "latitude": "20.75626000",
    "longitude": "-105.33438000",
    "wikiDataId": null
  },
  {
    "id": 68756,
    "name": "Camalotita",
    "state_id": 3477,
    "state_code": "NAY",
    "country_id": 142,
    "country_code": "MX",
    "latitude": "22.40453000",
    "longitude": "-105.43156000",
    "wikiDataId": null
  },
  {
    "id": 68764,
    "name": "Camichín de Jauja",
    "state_id": 3477,
    "state_code": "NAY",
    "country_id": 142,
    "country_code": "MX",
    "latitude": "21.46532000",
    "longitude": "-104.80080000",
    "wikiDataId": null
  },
  {
    "id": 68881,
    "name": "Cañada del Tabaco",
    "state_id": 3477,
    "state_code": "NAY",
    "country_id": 142,
    "country_code": "MX",
    "latitude": "21.70972000",
    "longitude": "-105.35417000",
    "wikiDataId": null
  },
  {
    "id": 68979,
    "name": "Chapalilla",
    "state_id": 3477,
    "state_code": "NAY",
    "country_id": 142,
    "country_code": "MX",
    "latitude": "21.18852000",
    "longitude": "-104.63783000",
    "wikiDataId": null
  },
  {
    "id": 69064,
    "name": "Chilapa",
    "state_id": 3477,
    "state_code": "NAY",
    "country_id": 142,
    "country_code": "MX",
    "latitude": "22.03138000",
    "longitude": "-105.23057000",
    "wikiDataId": null
  },
  {
    "id": 69295,
    "name": "Colonia Emiliano Zapata",
    "state_id": 3477,
    "state_code": "NAY",
    "country_id": 142,
    "country_code": "MX",
    "latitude": "21.82861000",
    "longitude": "-105.21972000",
    "wikiDataId": null
  },
  {
    "id": 69348,
    "name": "Colonia Paraíso Escondido",
    "state_id": 3477,
    "state_code": "NAY",
    "country_id": 142,
    "country_code": "MX",
    "latitude": "21.05333000",
    "longitude": "-105.23833000",
    "wikiDataId": null
  },
  {
    "id": 69429,
    "name": "Compostela",
    "state_id": 3477,
    "state_code": "NAY",
    "country_id": 142,
    "country_code": "MX",
    "latitude": "21.23777000",
    "longitude": "-104.90010000",
    "wikiDataId": null
  },
  {
    "id": 69489,
    "name": "Corral del Risco (Punta de Mita)",
    "state_id": 3477,
    "state_code": "NAY",
    "country_id": 142,
    "country_code": "MX",
    "latitude": "20.77361000",
    "longitude": "-105.51667000",
    "wikiDataId": null
  },
  {
    "id": 69546,
    "name": "Cruz de Huanacaxtle",
    "state_id": 3477,
    "state_code": "NAY",
    "country_id": 142,
    "country_code": "MX",
    "latitude": "20.75415000",
    "longitude": "-105.37734000",
    "wikiDataId": null
  },
  {
    "id": 69555,
    "name": "Cuamiles",
    "state_id": 3477,
    "state_code": "NAY",
    "country_id": 142,
    "country_code": "MX",
    "latitude": "21.92347000",
    "longitude": "-105.25405000",
    "wikiDataId": null
  },
  {
    "id": 69827,
    "name": "El Ahuacate",
    "state_id": 3477,
    "state_code": "NAY",
    "country_id": 142,
    "country_code": "MX",
    "latitude": "21.51535000",
    "longitude": "-104.94436000",
    "wikiDataId": null
  },
  {
    "id": 69849,
    "name": "El Botadero",
    "state_id": 3477,
    "state_code": "NAY",
    "country_id": 142,
    "country_code": "MX",
    "latitude": "21.75404000",
    "longitude": "-105.28640000",
    "wikiDataId": null
  },
  {
    "id": 69861,
    "name": "El Capomal",
    "state_id": 3477,
    "state_code": "NAY",
    "country_id": 142,
    "country_code": "MX",
    "latitude": "21.83935000",
    "longitude": "-105.12116000",
    "wikiDataId": null
  },
  {
    "id": 69928,
    "name": "El Corte",
    "state_id": 3477,
    "state_code": "NAY",
    "country_id": 142,
    "country_code": "MX",
    "latitude": "21.72025000",
    "longitude": "-105.24488000",
    "wikiDataId": null
  },
  {
    "id": 70005,
    "name": "El Jicote",
    "state_id": 3477,
    "state_code": "NAY",
    "country_id": 142,
    "country_code": "MX",
    "latitude": "21.72545000",
    "longitude": "-105.05787000",
    "wikiDataId": null
  },
  {
    "id": 70022,
    "name": "El Llano",
    "state_id": 3477,
    "state_code": "NAY",
    "country_id": 142,
    "country_code": "MX",
    "latitude": "21.41854000",
    "longitude": "-105.17963000",
    "wikiDataId": null
  },
  {
    "id": 70175,
    "name": "El Rosario",
    "state_id": 3477,
    "state_code": "NAY",
    "country_id": 142,
    "country_code": "MX",
    "latitude": "20.89195000",
    "longitude": "-104.46836000",
    "wikiDataId": null
  },
  {
    "id": 70211,
    "name": "El Tamarindo",
    "state_id": 3477,
    "state_code": "NAY",
    "country_id": 142,
    "country_code": "MX",
    "latitude": "21.95810000",
    "longitude": "-105.23220000",
    "wikiDataId": null
  },
  {
    "id": 70230,
    "name": "El Tizate",
    "state_id": 3477,
    "state_code": "NAY",
    "country_id": 142,
    "country_code": "MX",
    "latitude": "21.80179000",
    "longitude": "-105.11670000",
    "wikiDataId": null
  },
  {
    "id": 70247,
    "name": "El Vado de San Pedro",
    "state_id": 3477,
    "state_code": "NAY",
    "country_id": 142,
    "country_code": "MX",
    "latitude": "21.94742000",
    "longitude": "-105.18005000",
    "wikiDataId": null
  },
  {
    "id": 70253,
    "name": "El Venado",
    "state_id": 3477,
    "state_code": "NAY",
    "country_id": 142,
    "country_code": "MX",
    "latitude": "21.94426000",
    "longitude": "-105.00100000",
    "wikiDataId": null
  },
  {
    "id": 70283,
    "name": "Emiliano Zapata",
    "state_id": 3477,
    "state_code": "NAY",
    "country_id": 142,
    "country_code": "MX",
    "latitude": "21.36477000",
    "longitude": "-104.91283000",
    "wikiDataId": null
  },
  {
    "id": 70398,
    "name": "Felipe Carrillo Puerto",
    "state_id": 3477,
    "state_code": "NAY",
    "country_id": 142,
    "country_code": "MX",
    "latitude": "21.13200000",
    "longitude": "-104.86068000",
    "wikiDataId": null
  },
  {
    "id": 70468,
    "name": "Francisco I. Madero",
    "state_id": 3477,
    "state_code": "NAY",
    "country_id": 142,
    "country_code": "MX",
    "latitude": "21.58186000",
    "longitude": "-104.81927000",
    "wikiDataId": null
  },
  {
    "id": 70601,
    "name": "Guadalupe Victoria",
    "state_id": 3477,
    "state_code": "NAY",
    "country_id": 142,
    "country_code": "MX",
    "latitude": "21.67972000",
    "longitude": "-105.32750000",
    "wikiDataId": null
  },
  {
    "id": 70692,
    "name": "Higuera Blanca",
    "state_id": 3477,
    "state_code": "NAY",
    "country_id": 142,
    "country_code": "MX",
    "latitude": "20.79746000",
    "longitude": "-105.46747000",
    "wikiDataId": null
  },
  {
    "id": 70718,
    "name": "Huajicori",
    "state_id": 3477,
    "state_code": "NAY",
    "country_id": 142,
    "country_code": "MX",
    "latitude": "22.63667000",
    "longitude": "-105.31972000",
    "wikiDataId": null
  },
  {
    "id": 70719,
    "name": "Huajimic",
    "state_id": 3477,
    "state_code": "NAY",
    "country_id": 142,
    "country_code": "MX",
    "latitude": "21.68347000",
    "longitude": "-104.31542000",
    "wikiDataId": null
  },
  {
    "id": 70930,
    "name": "Ixtapan de la Concepción",
    "state_id": 3477,
    "state_code": "NAY",
    "country_id": 142,
    "country_code": "MX",
    "latitude": "21.30774000",
    "longitude": "-105.15773000",
    "wikiDataId": null
  },
  {
    "id": 70946,
    "name": "Ixtlán del Río",
    "state_id": 3477,
    "state_code": "NAY",
    "country_id": 142,
    "country_code": "MX",
    "latitude": "21.03907000",
    "longitude": "-104.37116000",
    "wikiDataId": null
  },
  {
    "id": 70969,
    "name": "Jalcocotán",
    "state_id": 3477,
    "state_code": "NAY",
    "country_id": 142,
    "country_code": "MX",
    "latitude": "21.48122000",
    "longitude": "-105.09851000",
    "wikiDataId": null
  },
  {
    "id": 71030,
    "name": "Jesús María",
    "state_id": 3477,
    "state_code": "NAY",
    "country_id": 142,
    "country_code": "MX",
    "latitude": "22.25056000",
    "longitude": "-104.51792000",
    "wikiDataId": null
  },
  {
    "id": 71077,
    "name": "Jomulco",
    "state_id": 3477,
    "state_code": "NAY",
    "country_id": 142,
    "country_code": "MX",
    "latitude": "21.10394000",
    "longitude": "-104.42378000",
    "wikiDataId": null
  },
  {
    "id": 71118,
    "name": "Juan Escutia (Borbollón)",
    "state_id": 3477,
    "state_code": "NAY",
    "country_id": 142,
    "country_code": "MX",
    "latitude": "21.16741000",
    "longitude": "-104.86698000",
    "wikiDataId": null
  },
  {
    "id": 71200,
    "name": "La Cantera",
    "state_id": 3477,
    "state_code": "NAY",
    "country_id": 142,
    "country_code": "MX",
    "latitude": "21.50308000",
    "longitude": "-104.82237000",
    "wikiDataId": null
  },
  {
    "id": 71246,
    "name": "La Corregidora",
    "state_id": 3477,
    "state_code": "NAY",
    "country_id": 142,
    "country_code": "MX",
    "latitude": "21.44417000",
    "longitude": "-104.81222000",
    "wikiDataId": null
  },
  {
    "id": 71295,
    "name": "La Fortuna",
    "state_id": 3477,
    "state_code": "NAY",
    "country_id": 142,
    "country_code": "MX",
    "latitude": "21.55285000",
    "longitude": "-104.95077000",
    "wikiDataId": null
  },
  {
    "id": 71312,
    "name": "La Guásima",
    "state_id": 3477,
    "state_code": "NAY",
    "country_id": 142,
    "country_code": "MX",
    "latitude": "22.40607000",
    "longitude": "-105.38767000",
    "wikiDataId": null
  },
  {
    "id": 71339,
    "name": "La Labor",
    "state_id": 3477,
    "state_code": "NAY",
    "country_id": 142,
    "country_code": "MX",
    "latitude": "21.37299000",
    "longitude": "-104.71910000",
    "wikiDataId": null
  },
  {
    "id": 71355,
    "name": "La Libertad",
    "state_id": 3477,
    "state_code": "NAY",
    "country_id": 142,
    "country_code": "MX",
    "latitude": "21.59347000",
    "longitude": "-105.17365000",
    "wikiDataId": null
  },
  {
    "id": 71422,
    "name": "La Palma",
    "state_id": 3477,
    "state_code": "NAY",
    "country_id": 142,
    "country_code": "MX",
    "latitude": "21.49172000",
    "longitude": "-105.17817000",
    "wikiDataId": null
  },
  {
    "id": 71444,
    "name": "La Peñita de Jaltomba",
    "state_id": 3477,
    "state_code": "NAY",
    "country_id": 142,
    "country_code": "MX",
    "latitude": "21.03884000",
    "longitude": "-105.24792000",
    "wikiDataId": null
  },
  {
    "id": 71457,
    "name": "La Presa",
    "state_id": 3477,
    "state_code": "NAY",
    "country_id": 142,
    "country_code": "MX",
    "latitude": "22.34358000",
    "longitude": "-105.39350000",
    "wikiDataId": null
  },
  {
    "id": 71537,
    "name": "La Yesca",
    "state_id": 3477,
    "state_code": "NAY",
    "country_id": 142,
    "country_code": "MX",
    "latitude": "21.31871000",
    "longitude": "-104.01161000",
    "wikiDataId": null
  },
  {
    "id": 71606,
    "name": "Las Jarretaderas",
    "state_id": 3477,
    "state_code": "NAY",
    "country_id": 142,
    "country_code": "MX",
    "latitude": "20.69250000",
    "longitude": "-105.27389000",
    "wikiDataId": null
  },
  {
    "id": 71648,
    "name": "Las Varas",
    "state_id": 3477,
    "state_code": "NAY",
    "country_id": 142,
    "country_code": "MX",
    "latitude": "21.18021000",
    "longitude": "-105.13595000",
    "wikiDataId": null
  },
  {
    "id": 71697,
    "name": "Llano del Tigre",
    "state_id": 3477,
    "state_code": "NAY",
    "country_id": 142,
    "country_code": "MX",
    "latitude": "22.12707000",
    "longitude": "-105.30581000",
    "wikiDataId": null
  },
  {
    "id": 71702,
    "name": "Lo de Lamedo",
    "state_id": 3477,
    "state_code": "NAY",
    "country_id": 142,
    "country_code": "MX",
    "latitude": "21.53843000",
    "longitude": "-104.93945000",
    "wikiDataId": null
  },
  {
    "id": 71703,
    "name": "Lo de Marcos",
    "state_id": 3477,
    "state_code": "NAY",
    "country_id": 142,
    "country_code": "MX",
    "latitude": "20.95509000",
    "longitude": "-105.35223000",
    "wikiDataId": null
  },
  {
    "id": 71765,
    "name": "Los Aguajes",
    "state_id": 3477,
    "state_code": "NAY",
    "country_id": 142,
    "country_code": "MX",
    "latitude": "21.10729000",
    "longitude": "-104.35447000",
    "wikiDataId": null
  },
  {
    "id": 71826,
    "name": "Los Otates",
    "state_id": 3477,
    "state_code": "NAY",
    "country_id": 142,
    "country_code": "MX",
    "latitude": "21.70427000",
    "longitude": "-105.37622000",
    "wikiDataId": null
  },
  {
    "id": 72057,
    "name": "Mecatán",
    "state_id": 3477,
    "state_code": "NAY",
    "country_id": 142,
    "country_code": "MX",
    "latitude": "21.53643000",
    "longitude": "-105.11946000",
    "wikiDataId": null
  },
  {
    "id": 72082,
    "name": "Mesa del Nayar",
    "state_id": 3477,
    "state_code": "NAY",
    "country_id": 142,
    "country_code": "MX",
    "latitude": "22.21770000",
    "longitude": "-104.65352000",
    "wikiDataId": null
  },
  {
    "id": 72263,
    "name": "Méxpan",
    "state_id": 3477,
    "state_code": "NAY",
    "country_id": 142,
    "country_code": "MX",
    "latitude": "21.03567000",
    "longitude": "-104.41479000",
    "wikiDataId": null
  },
  {
    "id": 72106,
    "name": "Mezcales",
    "state_id": 3477,
    "state_code": "NAY",
    "country_id": 142,
    "country_code": "MX",
    "latitude": "20.73072000",
    "longitude": "-105.28257000",
    "wikiDataId": null
  },
  {
    "id": 72139,
    "name": "Milpas Viejas",
    "state_id": 3477,
    "state_code": "NAY",
    "country_id": 142,
    "country_code": "MX",
    "latitude": "22.36478000",
    "longitude": "-105.47549000",
    "wikiDataId": null
  },
  {
    "id": 72180,
    "name": "Mojarras",
    "state_id": 3477,
    "state_code": "NAY",
    "country_id": 142,
    "country_code": "MX",
    "latitude": "21.42592000",
    "longitude": "-104.60851000",
    "wikiDataId": null
  },
  {
    "id": 72220,
    "name": "Monteón",
    "state_id": 3477,
    "state_code": "NAY",
    "country_id": 142,
    "country_code": "MX",
    "latitude": "20.99108000",
    "longitude": "-105.29988000",
    "wikiDataId": null
  },
  {
    "id": 72295,
    "name": "Navarrete",
    "state_id": 3477,
    "state_code": "NAY",
    "country_id": 142,
    "country_code": "MX",
    "latitude": "21.64841000",
    "longitude": "-105.11539000",
    "wikiDataId": null
  },
  {
    "id": 72418,
    "name": "Nuevo Vallarta",
    "state_id": 3477,
    "state_code": "NAY",
    "country_id": 142,
    "country_code": "MX",
    "latitude": "20.70169000",
    "longitude": "-105.29417000",
    "wikiDataId": null
  },
  {
    "id": 72585,
    "name": "Palma Grande",
    "state_id": 3477,
    "state_code": "NAY",
    "country_id": 142,
    "country_code": "MX",
    "latitude": "21.99333000",
    "longitude": "-105.38944000",
    "wikiDataId": null
  },
  {
    "id": 72592,
    "name": "Palmar de Cuautla",
    "state_id": 3477,
    "state_code": "NAY",
    "country_id": 142,
    "country_code": "MX",
    "latitude": "22.21972000",
    "longitude": "-105.64750000",
    "wikiDataId": null
  },
  {
    "id": 72624,
    "name": "Pantanal",
    "state_id": 3477,
    "state_code": "NAY",
    "country_id": 142,
    "country_code": "MX",
    "latitude": "21.42824000",
    "longitude": "-104.86122000",
    "wikiDataId": null
  },
  {
    "id": 72734,
    "name": "Pericos",
    "state_id": 3477,
    "state_code": "NAY",
    "country_id": 142,
    "country_code": "MX",
    "latitude": "22.04925000",
    "longitude": "-105.35402000",
    "wikiDataId": null
  },
  {
    "id": 72872,
    "name": "Pozo de Ibarra",
    "state_id": 3477,
    "state_code": "NAY",
    "country_id": 142,
    "country_code": "MX",
    "latitude": "21.86692000",
    "longitude": "-105.27949000",
    "wikiDataId": null
  },
  {
    "id": 72961,
    "name": "Puerta de Mangos",
    "state_id": 3477,
    "state_code": "NAY",
    "country_id": 142,
    "country_code": "MX",
    "latitude": "21.71853000",
    "longitude": "-105.33534000",
    "wikiDataId": null
  },
  {
    "id": 72982,
    "name": "Puga",
    "state_id": 3477,
    "state_code": "NAY",
    "country_id": 142,
    "country_code": "MX",
    "latitude": "21.58443000",
    "longitude": "-104.82318000",
    "wikiDataId": null
  },
  {
    "id": 73032,
    "name": "Quimichis",
    "state_id": 3477,
    "state_code": "NAY",
    "country_id": 142,
    "country_code": "MX",
    "latitude": "22.36122000",
    "longitude": "-105.53913000",
    "wikiDataId": null
  },
  {
    "id": 73128,
    "name": "Rincón de Guayabitos",
    "state_id": 3477,
    "state_code": "NAY",
    "country_id": 142,
    "country_code": "MX",
    "latitude": "21.02315000",
    "longitude": "-105.27054000",
    "wikiDataId": null
  },
  {
    "id": 73158,
    "name": "Rosa Blanca",
    "state_id": 3477,
    "state_code": "NAY",
    "country_id": 142,
    "country_code": "MX",
    "latitude": "21.12454000",
    "longitude": "-104.35811000",
    "wikiDataId": null
  },
  {
    "id": 73161,
    "name": "Rosamorada",
    "state_id": 3477,
    "state_code": "NAY",
    "country_id": 142,
    "country_code": "MX",
    "latitude": "22.12208000",
    "longitude": "-105.20640000",
    "wikiDataId": null
  },
  {
    "id": 73166,
    "name": "Ruíz",
    "state_id": 3477,
    "state_code": "NAY",
    "country_id": 142,
    "country_code": "MX",
    "latitude": "21.95107000",
    "longitude": "-105.14380000",
    "wikiDataId": null
  },
  {
    "id": 73445,
    "name": "San Blas",
    "state_id": 3477,
    "state_code": "NAY",
    "country_id": 142,
    "country_code": "MX",
    "latitude": "21.54333000",
    "longitude": "-105.28558000",
    "wikiDataId": null
  },
  {
    "id": 73464,
    "name": "San Cayetano",
    "state_id": 3477,
    "state_code": "NAY",
    "country_id": 142,
    "country_code": "MX",
    "latitude": "21.44949000",
    "longitude": "-104.81702000",
    "wikiDataId": null
  },
  {
    "id": 73469,
    "name": "San Clemente de Lima",
    "state_id": 3477,
    "state_code": "NAY",
    "country_id": 142,
    "country_code": "MX",
    "latitude": "20.73722000",
    "longitude": "-105.27083000",
    "wikiDataId": null
  },
  {
    "id": 73513,
    "name": "San Felipe Aztatán",
    "state_id": 3477,
    "state_code": "NAY",
    "country_id": 142,
    "country_code": "MX",
    "latitude": "22.38374000",
    "longitude": "-105.41980000",
    "wikiDataId": null
  },
  {
    "id": 73541,
    "name": "San Francisco",
    "state_id": 3477,
    "state_code": "NAY",
    "country_id": 142,
    "country_code": "MX",
    "latitude": "20.90196000",
    "longitude": "-105.41279000",
    "wikiDataId": null
  },
  {
    "id": 73818,
    "name": "San José de Gracia",
    "state_id": 3477,
    "state_code": "NAY",
    "country_id": 142,
    "country_code": "MX",
    "latitude": "22.48105000",
    "longitude": "-105.37869000",
    "wikiDataId": null
  },
  {
    "id": 73870,
    "name": "San Juan Bautista",
    "state_id": 3477,
    "state_code": "NAY",
    "country_id": 142,
    "country_code": "MX",
    "latitude": "22.14359000",
    "longitude": "-105.09750000",
    "wikiDataId": null
  },
  {
    "id": 73958,
    "name": "San Juan de Abajo",
    "state_id": 3477,
    "state_code": "NAY",
    "country_id": 142,
    "country_code": "MX",
    "latitude": "20.81484000",
    "longitude": "-105.19154000",
    "wikiDataId": null
  },
  {
    "id": 74059,
    "name": "San Luis de Lozada",
    "state_id": 3477,
    "state_code": "NAY",
    "country_id": 142,
    "country_code": "MX",
    "latitude": "21.50297000",
    "longitude": "-104.70552000",
    "wikiDataId": null
  },
  {
    "id": 74349,
    "name": "San Pedro Lagunillas",
    "state_id": 3477,
    "state_code": "NAY",
    "country_id": 142,
    "country_code": "MX",
    "latitude": "21.21920000",
    "longitude": "-104.75228000",
    "wikiDataId": null
  },
  {
    "id": 74493,
    "name": "San Vicente",
    "state_id": 3477,
    "state_code": "NAY",
    "country_id": 142,
    "country_code": "MX",
    "latitude": "21.95043000",
    "longitude": "-105.29710000",
    "wikiDataId": null
  },
  {
    "id": 74611,
    "name": "Santa Cruz",
    "state_id": 3477,
    "state_code": "NAY",
    "country_id": 142,
    "country_code": "MX",
    "latitude": "21.98118000",
    "longitude": "-105.60169000",
    "wikiDataId": null
  },
  {
    "id": 74672,
    "name": "Santa Isabel",
    "state_id": 3477,
    "state_code": "NAY",
    "country_id": 142,
    "country_code": "MX",
    "latitude": "21.16304000",
    "longitude": "-104.62374000",
    "wikiDataId": null
  },
  {
    "id": 74815,
    "name": "Santa María del Oro",
    "state_id": 3477,
    "state_code": "NAY",
    "country_id": 142,
    "country_code": "MX",
    "latitude": "21.33390000",
    "longitude": "-104.58696000",
    "wikiDataId": null
  },
  {
    "id": 74859,
    "name": "Santa Teresa",
    "state_id": 3477,
    "state_code": "NAY",
    "country_id": 142,
    "country_code": "MX",
    "latitude": "22.49730000",
    "longitude": "-104.76547000",
    "wikiDataId": null
  },
  {
    "id": 74984,
    "name": "Santiago de Pochotitán",
    "state_id": 3477,
    "state_code": "NAY",
    "country_id": 142,
    "country_code": "MX",
    "latitude": "21.58159000",
    "longitude": "-104.69858000",
    "wikiDataId": null
  },
  {
    "id": 74907,
    "name": "Santiago Ixcuintla",
    "state_id": 3477,
    "state_code": "NAY",
    "country_id": 142,
    "country_code": "MX",
    "latitude": "21.81295000",
    "longitude": "-105.20844000",
    "wikiDataId": null
  },
  {
    "id": 75045,
    "name": "Sauta",
    "state_id": 3477,
    "state_code": "NAY",
    "country_id": 142,
    "country_code": "MX",
    "latitude": "21.72116000",
    "longitude": "-105.14249000",
    "wikiDataId": null
  },
  {
    "id": 75048,
    "name": "Sayulilla",
    "state_id": 3477,
    "state_code": "NAY",
    "country_id": 142,
    "country_code": "MX",
    "latitude": "22.43822000",
    "longitude": "-105.39137000",
    "wikiDataId": null
  },
  {
    "id": 75049,
    "name": "Sayulita",
    "state_id": 3477,
    "state_code": "NAY",
    "country_id": 142,
    "country_code": "MX",
    "latitude": "20.87006000",
    "longitude": "-105.43992000",
    "wikiDataId": null
  },
  {
    "id": 75060,
    "name": "Sentispac",
    "state_id": 3477,
    "state_code": "NAY",
    "country_id": 142,
    "country_code": "MX",
    "latitude": "21.80478000",
    "longitude": "-105.34593000",
    "wikiDataId": null
  },
  {
    "id": 75289,
    "name": "Tecuala",
    "state_id": 3477,
    "state_code": "NAY",
    "country_id": 142,
    "country_code": "MX",
    "latitude": "22.39815000",
    "longitude": "-105.45808000",
    "wikiDataId": null
  },
  {
    "id": 75447,
    "name": "Tepic",
    "state_id": 3477,
    "state_code": "NAY",
    "country_id": 142,
    "country_code": "MX",
    "latitude": "21.50951000",
    "longitude": "-104.89569000",
    "wikiDataId": null
  },
  {
    "id": 75455,
    "name": "Tequepexpan",
    "state_id": 3477,
    "state_code": "NAY",
    "country_id": 142,
    "country_code": "MX",
    "latitude": "21.21571000",
    "longitude": "-104.56958000",
    "wikiDataId": null
  },
  {
    "id": 75473,
    "name": "Testerazo",
    "state_id": 3477,
    "state_code": "NAY",
    "country_id": 142,
    "country_code": "MX",
    "latitude": "21.40242000",
    "longitude": "-104.89420000",
    "wikiDataId": null
  },
  {
    "id": 75488,
    "name": "Tetitlán",
    "state_id": 3477,
    "state_code": "NAY",
    "country_id": 142,
    "country_code": "MX",
    "latitude": "21.12903000",
    "longitude": "-104.61613000",
    "wikiDataId": null
  },
  {
    "id": 75887,
    "name": "Unión de Corrientes",
    "state_id": 3477,
    "state_code": "NAY",
    "country_id": 142,
    "country_code": "MX",
    "latitude": "21.97644000",
    "longitude": "-105.43026000",
    "wikiDataId": null
  },
  {
    "id": 75904,
    "name": "Uzeta",
    "state_id": 3477,
    "state_code": "NAY",
    "country_id": 142,
    "country_code": "MX",
    "latitude": "21.11497000",
    "longitude": "-104.60171000",
    "wikiDataId": null
  },
  {
    "id": 75920,
    "name": "Valle de Banderas",
    "state_id": 3477,
    "state_code": "NAY",
    "country_id": 142,
    "country_code": "MX",
    "latitude": "20.80792000",
    "longitude": "-105.24813000",
    "wikiDataId": null
  },
  {
    "id": 76013,
    "name": "Villa Hidalgo",
    "state_id": 3477,
    "state_code": "NAY",
    "country_id": 142,
    "country_code": "MX",
    "latitude": "21.74185000",
    "longitude": "-105.23096000",
    "wikiDataId": null
  },
  {
    "id": 76020,
    "name": "Villa Juárez",
    "state_id": 3477,
    "state_code": "NAY",
    "country_id": 142,
    "country_code": "MX",
    "latitude": "21.68917000",
    "longitude": "-105.38972000",
    "wikiDataId": null
  },
  {
    "id": 76209,
    "name": "Yago",
    "state_id": 3477,
    "state_code": "NAY",
    "country_id": 142,
    "country_code": "MX",
    "latitude": "21.83601000",
    "longitude": "-105.06451000",
    "wikiDataId": null
  },
  {
    "id": 76284,
    "name": "Zacualpan",
    "state_id": 3477,
    "state_code": "NAY",
    "country_id": 142,
    "country_code": "MX",
    "latitude": "21.24715000",
    "longitude": "-105.16570000",
    "wikiDataId": null
  },
  {
    "id": 76313,
    "name": "Zapotán",
    "state_id": 3477,
    "state_code": "NAY",
    "country_id": 142,
    "country_code": "MX",
    "latitude": "21.08936000",
    "longitude": "-104.86246000",
    "wikiDataId": null
  },
  {
    "id": 76301,
    "name": "Zapotanito",
    "state_id": 3477,
    "state_code": "NAY",
    "country_id": 142,
    "country_code": "MX",
    "latitude": "21.30533000",
    "longitude": "-104.60899000",
    "wikiDataId": null
  }
]