[
  {
    "id": 155081,
    "name": "Bač",
    "state_id": 3711,
    "state_code": "06",
    "country_id": 196,
    "country_code": "RS",
    "latitude": "45.35619150",
    "longitude": "19.14208630",
    "wikiDataId": null
  },
  {
    "id": 97161,
    "name": "Bačka Palanka",
    "state_id": 3711,
    "state_code": "06",
    "country_id": 196,
    "country_code": "RS",
    "latitude": "45.24966000",
    "longitude": "19.39664000",
    "wikiDataId": null
  },
  {
    "id": 97164,
    "name": "Bački Petrovac",
    "state_id": 3711,
    "state_code": "06",
    "country_id": 196,
    "country_code": "RS",
    "latitude": "45.36056000",
    "longitude": "19.59167000",
    "wikiDataId": null
  },
  {
    "id": 97165,
    "name": "Bačko Gradište",
    "state_id": 3711,
    "state_code": "06",
    "country_id": 196,
    "country_code": "RS",
    "latitude": "45.53271000",
    "longitude": "20.03082000",
    "wikiDataId": null
  },
  {
    "id": 97166,
    "name": "Bačko Petrovo Selo",
    "state_id": 3711,
    "state_code": "06",
    "country_id": 196,
    "country_code": "RS",
    "latitude": "45.70681000",
    "longitude": "20.07928000",
    "wikiDataId": null
  },
  {
    "id": 97173,
    "name": "Bečej",
    "state_id": 3711,
    "state_code": "06",
    "country_id": 196,
    "country_code": "RS",
    "latitude": "45.61632000",
    "longitude": "20.03331000",
    "wikiDataId": null
  },
  {
    "id": 155082,
    "name": "Beočin",
    "state_id": 3711,
    "state_code": "06",
    "country_id": 196,
    "country_code": "RS",
    "latitude": "45.19420630",
    "longitude": "19.68125510",
    "wikiDataId": null
  },
  {
    "id": 97458,
    "name": "Čelarevo",
    "state_id": 3711,
    "state_code": "06",
    "country_id": 196,
    "country_code": "RS",
    "latitude": "45.26999000",
    "longitude": "19.52484000",
    "wikiDataId": null
  },
  {
    "id": 97464,
    "name": "Čurug",
    "state_id": 3711,
    "state_code": "06",
    "country_id": 196,
    "country_code": "RS",
    "latitude": "45.47221000",
    "longitude": "20.06861000",
    "wikiDataId": null
  },
  {
    "id": 97192,
    "name": "Despotovo",
    "state_id": 3711,
    "state_code": "06",
    "country_id": 196,
    "country_code": "RS",
    "latitude": "45.45983000",
    "longitude": "19.52653000",
    "wikiDataId": null
  },
  {
    "id": 97453,
    "name": "Ðurđevo",
    "state_id": 3711,
    "state_code": "06",
    "country_id": 196,
    "country_code": "RS",
    "latitude": "45.32591000",
    "longitude": "20.06532000",
    "wikiDataId": null
  },
  {
    "id": 97207,
    "name": "Gardinovci",
    "state_id": 3711,
    "state_code": "06",
    "country_id": 196,
    "country_code": "RS",
    "latitude": "45.20359000",
    "longitude": "20.13558000",
    "wikiDataId": null
  },
  {
    "id": 97208,
    "name": "Gložan",
    "state_id": 3711,
    "state_code": "06",
    "country_id": 196,
    "country_code": "RS",
    "latitude": "45.27954000",
    "longitude": "19.56838000",
    "wikiDataId": null
  },
  {
    "id": 97242,
    "name": "Kisač",
    "state_id": 3711,
    "state_code": "06",
    "country_id": 196,
    "country_code": "RS",
    "latitude": "45.35421000",
    "longitude": "19.72975000",
    "wikiDataId": null
  },
  {
    "id": 97252,
    "name": "Kovilj",
    "state_id": 3711,
    "state_code": "06",
    "country_id": 196,
    "country_code": "RS",
    "latitude": "45.23422000",
    "longitude": "20.02327000",
    "wikiDataId": null
  },
  {
    "id": 97263,
    "name": "Kulpin",
    "state_id": 3711,
    "state_code": "06",
    "country_id": 196,
    "country_code": "RS",
    "latitude": "45.40240000",
    "longitude": "19.58814000",
    "wikiDataId": null
  },
  {
    "id": 97279,
    "name": "Lok",
    "state_id": 3711,
    "state_code": "06",
    "country_id": 196,
    "country_code": "RS",
    "latitude": "45.21583000",
    "longitude": "20.21222000",
    "wikiDataId": null
  },
  {
    "id": 97283,
    "name": "Maglić",
    "state_id": 3711,
    "state_code": "06",
    "country_id": 196,
    "country_code": "RS",
    "latitude": "45.36248000",
    "longitude": "19.53211000",
    "wikiDataId": null
  },
  {
    "id": 97299,
    "name": "Mošorin",
    "state_id": 3711,
    "state_code": "06",
    "country_id": 196,
    "country_code": "RS",
    "latitude": "45.30196000",
    "longitude": "20.16919000",
    "wikiDataId": null
  },
  {
    "id": 97315,
    "name": "Novi Sad",
    "state_id": 3711,
    "state_code": "06",
    "country_id": 196,
    "country_code": "RS",
    "latitude": "45.25167000",
    "longitude": "19.83694000",
    "wikiDataId": null
  },
  {
    "id": 97320,
    "name": "Obrovac",
    "state_id": 3711,
    "state_code": "06",
    "country_id": 196,
    "country_code": "RS",
    "latitude": "45.32106000",
    "longitude": "19.35048000",
    "wikiDataId": null
  },
  {
    "id": 97335,
    "name": "Petrovaradin",
    "state_id": 3711,
    "state_code": "06",
    "country_id": 196,
    "country_code": "RS",
    "latitude": "45.24667000",
    "longitude": "19.87944000",
    "wikiDataId": null
  },
  {
    "id": 97360,
    "name": "Ravno Selo",
    "state_id": 3711,
    "state_code": "06",
    "country_id": 196,
    "country_code": "RS",
    "latitude": "45.44967000",
    "longitude": "19.62097000",
    "wikiDataId": null
  },
  {
    "id": 97365,
    "name": "Rumenka",
    "state_id": 3711,
    "state_code": "06",
    "country_id": 196,
    "country_code": "RS",
    "latitude": "45.29400000",
    "longitude": "19.74306000",
    "wikiDataId": null
  },
  {
    "id": 97466,
    "name": "Šajkaš",
    "state_id": 3711,
    "state_code": "06",
    "country_id": 196,
    "country_code": "RS",
    "latitude": "45.27315000",
    "longitude": "20.09051000",
    "wikiDataId": null
  },
  {
    "id": 155083,
    "name": "Srbobran",
    "state_id": 3711,
    "state_code": "06",
    "country_id": 196,
    "country_code": "RS",
    "latitude": "45.59515130",
    "longitude": "19.71831060",
    "wikiDataId": null
  },
  {
    "id": 97389,
    "name": "Sremski Karlovci",
    "state_id": 3711,
    "state_code": "06",
    "country_id": 196,
    "country_code": "RS",
    "latitude": "45.20285000",
    "longitude": "19.93373000",
    "wikiDataId": null
  },
  {
    "id": 97398,
    "name": "Stepanovićevo",
    "state_id": 3711,
    "state_code": "06",
    "country_id": 196,
    "country_code": "RS",
    "latitude": "45.41369000",
    "longitude": "19.70000000",
    "wikiDataId": null
  },
  {
    "id": 155084,
    "name": "Temerin",
    "state_id": 3711,
    "state_code": "06",
    "country_id": 196,
    "country_code": "RS",
    "latitude": "45.42817430",
    "longitude": "19.81379480",
    "wikiDataId": null
  },
  {
    "id": 97409,
    "name": "Titel",
    "state_id": 3711,
    "state_code": "06",
    "country_id": 196,
    "country_code": "RS",
    "latitude": "45.20611000",
    "longitude": "20.29444000",
    "wikiDataId": null
  },
  {
    "id": 97417,
    "name": "Turija",
    "state_id": 3711,
    "state_code": "06",
    "country_id": 196,
    "country_code": "RS",
    "latitude": "44.52273000",
    "longitude": "21.63945000",
    "wikiDataId": null
  },
  {
    "id": 97431,
    "name": "Veternik",
    "state_id": 3711,
    "state_code": "06",
    "country_id": 196,
    "country_code": "RS",
    "latitude": "45.25446000",
    "longitude": "19.75880000",
    "wikiDataId": null
  },
  {
    "id": 97432,
    "name": "Vilovo",
    "state_id": 3711,
    "state_code": "06",
    "country_id": 196,
    "country_code": "RS",
    "latitude": "45.24859000",
    "longitude": "20.15521000",
    "wikiDataId": null
  },
  {
    "id": 97441,
    "name": "Vrbas",
    "state_id": 3711,
    "state_code": "06",
    "country_id": 196,
    "country_code": "RS",
    "latitude": "45.57139000",
    "longitude": "19.64083000",
    "wikiDataId": null
  },
  {
    "id": 97473,
    "name": "Žabalj",
    "state_id": 3711,
    "state_code": "06",
    "country_id": 196,
    "country_code": "RS",
    "latitude": "45.37222000",
    "longitude": "20.06389000",
    "wikiDataId": null
  },
  {
    "id": 97448,
    "name": "Zmajevo",
    "state_id": 3711,
    "state_code": "06",
    "country_id": 196,
    "country_code": "RS",
    "latitude": "45.45408000",
    "longitude": "19.69050000",
    "wikiDataId": null
  }
]