[
  {
    "id": 65860,
    "name": "Champasak",
    "state_id": 996,
    "state_code": "CH",
    "country_id": 119,
    "country_code": "LA",
    "latitude": "14.89204000",
    "longitude": "105.87787000",
    "wikiDataId": null
  },
  {
    "id": 65868,
    "name": "Muang Bachiangchaleunsook",
    "state_id": 996,
    "state_code": "CH",
    "country_id": 119,
    "country_code": "LA",
    "latitude": "15.24426000",
    "longitude": "105.96716000",
    "wikiDataId": null
  },
  {
    "id": 65869,
    "name": "Muang Champasak",
    "state_id": 996,
    "state_code": "CH",
    "country_id": 119,
    "country_code": "LA",
    "latitude": "14.85704000",
    "longitude": "105.75334000",
    "wikiDataId": null
  },
  {
    "id": 65874,
    "name": "Muang Không",
    "state_id": 996,
    "state_code": "CH",
    "country_id": 119,
    "country_code": "LA",
    "latitude": "14.14696000",
    "longitude": "105.95938000",
    "wikiDataId": null
  },
  {
    "id": 65882,
    "name": "Muang Mounlapamôk",
    "state_id": 996,
    "state_code": "CH",
    "country_id": 119,
    "country_code": "LA",
    "latitude": "14.28922000",
    "longitude": "105.56832000",
    "wikiDataId": null
  },
  {
    "id": 65887,
    "name": "Muang Pakxé",
    "state_id": 996,
    "state_code": "CH",
    "country_id": 119,
    "country_code": "LA",
    "latitude": "15.13139000",
    "longitude": "105.81612000",
    "wikiDataId": null
  },
  {
    "id": 65886,
    "name": "Muang Pakxong",
    "state_id": 996,
    "state_code": "CH",
    "country_id": 119,
    "country_code": "LA",
    "latitude": "15.09810000",
    "longitude": "106.43398000",
    "wikiDataId": null
  },
  {
    "id": 65888,
    "name": "Muang Pathoumphon",
    "state_id": 996,
    "state_code": "CH",
    "country_id": 119,
    "country_code": "LA",
    "latitude": "14.68453000",
    "longitude": "106.06357000",
    "wikiDataId": null
  },
  {
    "id": 65894,
    "name": "Muang Phônthong",
    "state_id": 996,
    "state_code": "CH",
    "country_id": 119,
    "country_code": "LA",
    "latitude": "15.10669000",
    "longitude": "105.64890000",
    "wikiDataId": null
  },
  {
    "id": 65901,
    "name": "Muang Soukhouma",
    "state_id": 996,
    "state_code": "CH",
    "country_id": 119,
    "country_code": "LA",
    "latitude": "14.62560000",
    "longitude": "105.67520000",
    "wikiDataId": null
  },
  {
    "id": 65913,
    "name": "Muang Xanasômboun",
    "state_id": 996,
    "state_code": "CH",
    "country_id": 119,
    "country_code": "LA",
    "latitude": "15.34107000",
    "longitude": "105.73703000",
    "wikiDataId": null
  },
  {
    "id": 65917,
    "name": "Pakse",
    "state_id": 996,
    "state_code": "CH",
    "country_id": 119,
    "country_code": "LA",
    "latitude": "15.12022000",
    "longitude": "105.79898000",
    "wikiDataId": null
  },
  {
    "id": 65919,
    "name": "Pakxong",
    "state_id": 996,
    "state_code": "CH",
    "country_id": 119,
    "country_code": "LA",
    "latitude": "15.18154000",
    "longitude": "106.23038000",
    "wikiDataId": null
  }
]