[
  {
    "id": 1561,
    "name": "Akmenė",
    "country_id": 126,
    "country_code": "LT",
    "state_code": "01",
    "type": "district municipality",
    "latitude": "56.24550290",
    "longitude": "22.74711690",
    "iso3166_2": "LT-01",
    "native": "Akmenė",
    "timezone": "Europe/Vilnius"
  },
  {
    "id": 1605,
    "name": "Alytus",
    "country_id": 126,
    "country_code": "LT",
    "state_code": "02",
    "type": "district municipality",
    "latitude": "54.39246770",
    "longitude": "24.10876070",
    "iso3166_2": "LT-02",
    "native": "Alytus",
    "timezone": "Europe/Vilnius"
  },
  {
    "id": 1574,
    "name": "Alytus",
    "country_id": 126,
    "country_code": "LT",
    "state_code": "AL",
    "type": "county",
    "latitude": "54.39246770",
    "longitude": "24.10876070",
    "iso3166_2": "LT-AL",
    "native": "Alytus",
    "timezone": "Europe/Vilnius"
  },
  {
    "id": 5346,
    "name": "Anykščiai",
    "country_id": 126,
    "country_code": "LT",
    "state_code": "04",
    "type": "district municipality",
    "latitude": "55.52579350",
    "longitude": "25.10612470",
    "iso3166_2": "LT-04",
    "native": "Anykščiai",
    "timezone": "Europe/Vilnius"
  },
  {
    "id": 1603,
    "name": "Birštonas",
    "country_id": 126,
    "country_code": "LT",
    "state_code": "05",
    "type": "municipality",
    "latitude": "54.58641940",
    "longitude": "24.04217360",
    "iso3166_2": "LT-05",
    "native": "Birštonas",
    "timezone": "Europe/Vilnius"
  },
  {
    "id": 1566,
    "name": "Biržai",
    "country_id": 126,
    "country_code": "LT",
    "state_code": "06",
    "type": "district municipality",
    "latitude": "56.20177190",
    "longitude": "24.75601180",
    "iso3166_2": "LT-06",
    "native": "Biržai",
    "timezone": "Europe/Vilnius"
  },
  {
    "id": 1579,
    "name": "Druskininkai",
    "country_id": 126,
    "country_code": "LT",
    "state_code": "07",
    "type": "municipality",
    "latitude": "54.01719320",
    "longitude": "23.97722820",
    "iso3166_2": "LT-07",
    "native": "Druskininkai",
    "timezone": "Europe/Vilnius"
  },
  {
    "id": 1559,
    "name": "Elektrėnai",
    "country_id": 126,
    "country_code": "LT",
    "state_code": "08",
    "type": "municipality",
    "latitude": "54.78665700",
    "longitude": "24.67083980",
    "iso3166_2": "LT-08",
    "native": "Elektrėnai",
    "timezone": "Europe/Vilnius"
  },
  {
    "id": 1562,
    "name": "Ignalina",
    "country_id": 126,
    "country_code": "LT",
    "state_code": "09",
    "type": "district municipality",
    "latitude": "55.33989750",
    "longitude": "26.16140430",
    "iso3166_2": "LT-09",
    "native": "Ignalina",
    "timezone": "Europe/Vilnius"
  },
  {
    "id": 1567,
    "name": "Jonava",
    "country_id": 126,
    "country_code": "LT",
    "state_code": "10",
    "type": "district municipality",
    "latitude": "55.07272420",
    "longitude": "24.27933370",
    "iso3166_2": "LT-10",
    "native": "Jonava",
    "timezone": "Europe/Vilnius"
  },
  {
    "id": 1581,
    "name": "Joniškis",
    "country_id": 126,
    "country_code": "LT",
    "state_code": "11",
    "type": "district municipality",
    "latitude": "56.23607300",
    "longitude": "23.61365790",
    "iso3166_2": "LT-11",
    "native": "Joniškis",
    "timezone": "Europe/Vilnius"
  },
  {
    "id": 1555,
    "name": "Jurbarkas",
    "country_id": 126,
    "country_code": "LT",
    "state_code": "12",
    "type": "district municipality",
    "latitude": "55.07770770",
    "longitude": "22.76469450",
    "iso3166_2": "LT-12",
    "native": "Jurbarkas",
    "timezone": "Europe/Vilnius"
  },
  {
    "id": 1583,
    "name": "Kaišiadorys",
    "country_id": 126,
    "country_code": "LT",
    "state_code": "13",
    "type": "district municipality",
    "latitude": "54.86023370",
    "longitude": "24.45447850",
    "iso3166_2": "LT-13",
    "native": "Kaišiadorys",
    "timezone": "Europe/Vilnius"
  },
  {
    "id": 1591,
    "name": "Kalvarija",
    "country_id": 126,
    "country_code": "LT",
    "state_code": "14",
    "type": "municipality",
    "latitude": "54.37616740",
    "longitude": "23.19203210",
    "iso3166_2": "LT-14",
    "native": "Kalvarija",
    "timezone": "Europe/Vilnius"
  },
  {
    "id": 1580,
    "name": "Kaunas",
    "country_id": 126,
    "country_code": "LT",
    "state_code": "15",
    "type": "district municipality",
    "latitude": "54.89821390",
    "longitude": "23.90448170",
    "iso3166_2": "LT-15",
    "native": "Kaunas",
    "timezone": "Europe/Vilnius"
  },
  {
    "id": 1556,
    "name": "Kaunas",
    "country_id": 126,
    "country_code": "LT",
    "state_code": "KU",
    "type": "county",
    "latitude": "54.89821390",
    "longitude": "23.90448170",
    "iso3166_2": "LT-KU",
    "native": "Kaunas",
    "timezone": "Europe/Vilnius"
  },
  {
    "id": 1575,
    "name": "Kazlų Rūda",
    "country_id": 126,
    "country_code": "LT",
    "state_code": "17",
    "type": "municipality",
    "latitude": "54.75206690",
    "longitude": "23.49851410",
    "iso3166_2": "LT-17",
    "native": "Kazlų Rūda",
    "timezone": "Europe/Vilnius"
  },
  {
    "id": 1584,
    "name": "Kėdainiai",
    "country_id": 126,
    "country_code": "LT",
    "state_code": "18",
    "type": "district municipality",
    "latitude": "55.28873220",
    "longitude": "23.97583590",
    "iso3166_2": "LT-18",
    "native": "Kėdainiai",
    "timezone": "Europe/Vilnius"
  },
  {
    "id": 1618,
    "name": "Kelmė",
    "country_id": 126,
    "country_code": "LT",
    "state_code": "19",
    "type": "district municipality",
    "latitude": "55.62946790",
    "longitude": "22.93130950",
    "iso3166_2": "LT-19",
    "native": "Kelmė",
    "timezone": "Europe/Vilnius"
  },
  {
    "id": 1600,
    "name": "Klaipėda",
    "country_id": 126,
    "country_code": "LT",
    "state_code": "KL",
    "type": "county",
    "latitude": "55.71275290",
    "longitude": "21.13504690",
    "iso3166_2": "LT-KL",
    "native": "Klaipėda",
    "timezone": "Europe/Vilnius"
  },
  {
    "id": 1604,
    "name": "Klaipėda",
    "country_id": 126,
    "country_code": "LT",
    "state_code": "21",
    "type": "district municipality",
    "latitude": "55.71275290",
    "longitude": "21.13504690",
    "iso3166_2": "LT-21",
    "native": "Klaipėda",
    "timezone": "Europe/Vilnius"
  },
  {
    "id": 1571,
    "name": "Kretinga",
    "country_id": 126,
    "country_code": "LT",
    "state_code": "22",
    "type": "district municipality",
    "latitude": "55.88384200",
    "longitude": "21.23509190",
    "iso3166_2": "LT-22",
    "native": "Kretinga",
    "timezone": "Europe/Vilnius"
  },
  {
    "id": 1585,
    "name": "Kupiškis",
    "country_id": 126,
    "country_code": "LT",
    "state_code": "23",
    "type": "district municipality",
    "latitude": "55.83889090",
    "longitude": "24.97604310",
    "iso3166_2": "LT-23",
    "native": "Kupiškis",
    "timezone": "Europe/Vilnius"
  },
  {
    "id": 1611,
    "name": "Lazdijai",
    "country_id": 126,
    "country_code": "LT",
    "state_code": "24",
    "type": "district municipality",
    "latitude": "54.23432670",
    "longitude": "23.51565050",
    "iso3166_2": "LT-24",
    "native": "Lazdijai",
    "timezone": "Europe/Vilnius"
  },
  {
    "id": 1610,
    "name": "Marijampolė",
    "country_id": 126,
    "country_code": "LT",
    "state_code": "25",
    "type": "district municipality",
    "latitude": "54.55625360",
    "longitude": "23.35036650",
    "iso3166_2": "LT-25",
    "native": "Marijampolė",
    "timezone": "Europe/Vilnius"
  },
  {
    "id": 1570,
    "name": "Marijampolė",
    "country_id": 126,
    "country_code": "LT",
    "state_code": "MR",
    "type": "county",
    "latitude": "54.55625360",
    "longitude": "23.35036650",
    "iso3166_2": "LT-MR",
    "native": "Marijampolė",
    "timezone": "Europe/Vilnius"
  },
  {
    "id": 1557,
    "name": "Mažeikiai",
    "country_id": 126,
    "country_code": "LT",
    "state_code": "26",
    "type": "district municipality",
    "latitude": "56.30924390",
    "longitude": "22.34146800",
    "iso3166_2": "LT-26",
    "native": "Mažeikiai",
    "timezone": "Europe/Vilnius"
  },
  {
    "id": 1582,
    "name": "Molėtai",
    "country_id": 126,
    "country_code": "LT",
    "state_code": "27",
    "type": "district municipality",
    "latitude": "55.22653090",
    "longitude": "25.41800110",
    "iso3166_2": "LT-27",
    "native": "Molėtai",
    "timezone": "Europe/Vilnius"
  },
  {
    "id": 1563,
    "name": "Neringa",
    "country_id": 126,
    "country_code": "LT",
    "state_code": "28",
    "type": "municipality",
    "latitude": "55.47568280",
    "longitude": "21.09258700",
    "iso3166_2": "LT-28",
    "native": "Neringa",
    "timezone": "Europe/Vilnius"
  },
  {
    "id": 1612,
    "name": "Pagėgiai",
    "country_id": 126,
    "country_code": "LT",
    "state_code": "29",
    "type": "municipality",
    "latitude": "55.13325200",
    "longitude": "21.91043980",
    "iso3166_2": "LT-29",
    "native": "Pagėgiai",
    "timezone": "Europe/Vilnius"
  },
  {
    "id": 1595,
    "name": "Pakruojis",
    "country_id": 126,
    "country_code": "LT",
    "state_code": "30",
    "type": "district municipality",
    "latitude": "55.97770840",
    "longitude": "23.84517970",
    "iso3166_2": "LT-30",
    "native": "Pakruojis",
    "timezone": "Europe/Vilnius"
  },
  {
    "id": 1588,
    "name": "Palanga",
    "country_id": 126,
    "country_code": "LT",
    "state_code": "31",
    "type": "district municipality",
    "latitude": "55.92019800",
    "longitude": "21.06776140",
    "iso3166_2": "LT-31",
    "native": "Palanga",
    "timezone": "Europe/Vilnius"
  },
  {
    "id": 1558,
    "name": "Panevėžys",
    "country_id": 126,
    "country_code": "LT",
    "state_code": "PN",
    "type": "county",
    "latitude": "55.73449850",
    "longitude": "24.35780550",
    "iso3166_2": "LT-PN",
    "native": "Panevėžys",
    "timezone": "Europe/Vilnius"
  },
  {
    "id": 1614,
    "name": "Panevėžys",
    "country_id": 126,
    "country_code": "LT",
    "state_code": "33",
    "type": "district municipality",
    "latitude": "55.73449850",
    "longitude": "24.35780550",
    "iso3166_2": "LT-33",
    "native": "Panevėžys",
    "timezone": "Europe/Vilnius"
  },
  {
    "id": 1616,
    "name": "Pasvalys",
    "country_id": 126,
    "country_code": "LT",
    "state_code": "34",
    "type": "district municipality",
    "latitude": "56.06046190",
    "longitude": "24.39629100",
    "iso3166_2": "LT-34",
    "native": "Pasvalys",
    "timezone": "Europe/Vilnius"
  },
  {
    "id": 1553,
    "name": "Plungė",
    "country_id": 126,
    "country_code": "LT",
    "state_code": "35",
    "type": "district municipality",
    "latitude": "55.91078400",
    "longitude": "21.84540690",
    "iso3166_2": "LT-35",
    "native": "Plungė",
    "timezone": "Europe/Vilnius"
  },
  {
    "id": 1578,
    "name": "Prienai",
    "country_id": 126,
    "country_code": "LT",
    "state_code": "36",
    "type": "district municipality",
    "latitude": "54.63835800",
    "longitude": "23.94680090",
    "iso3166_2": "LT-36",
    "native": "Prienai",
    "timezone": "Europe/Vilnius"
  },
  {
    "id": 1568,
    "name": "Radviliškis",
    "country_id": 126,
    "country_code": "LT",
    "state_code": "37",
    "type": "district municipality",
    "latitude": "55.81083990",
    "longitude": "23.54648700",
    "iso3166_2": "LT-37",
    "native": "Radviliškis",
    "timezone": "Europe/Vilnius"
  },
  {
    "id": 1587,
    "name": "Raseiniai",
    "country_id": 126,
    "country_code": "LT",
    "state_code": "38",
    "type": "district municipality",
    "latitude": "55.38194990",
    "longitude": "23.11561290",
    "iso3166_2": "LT-38",
    "native": "Raseiniai",
    "timezone": "Europe/Vilnius"
  },
  {
    "id": 1590,
    "name": "Rietavas",
    "country_id": 126,
    "country_code": "LT",
    "state_code": "39",
    "type": "municipality",
    "latitude": "55.72294080",
    "longitude": "21.92708040",
    "iso3166_2": "LT-39",
    "native": "Rietavas",
    "timezone": "Europe/Vilnius"
  },
  {
    "id": 1615,
    "name": "Rokiškis",
    "country_id": 126,
    "country_code": "LT",
    "state_code": "40",
    "type": "district municipality",
    "latitude": "55.95550390",
    "longitude": "25.58592490",
    "iso3166_2": "LT-40",
    "native": "Rokiškis",
    "timezone": "Europe/Vilnius"
  },
  {
    "id": 1576,
    "name": "Šakiai",
    "country_id": 126,
    "country_code": "LT",
    "state_code": "41",
    "type": "district municipality",
    "latitude": "54.95267100",
    "longitude": "23.04801990",
    "iso3166_2": "LT-41",
    "native": "Šakiai",
    "timezone": "Europe/Vilnius"
  },
  {
    "id": 1577,
    "name": "Šalčininkai",
    "country_id": 126,
    "country_code": "LT",
    "state_code": "42",
    "type": "district municipality",
    "latitude": "54.30976700",
    "longitude": "25.38756400",
    "iso3166_2": "LT-42",
    "native": "Šalčininkai",
    "timezone": "Europe/Vilnius"
  },
  {
    "id": 1586,
    "name": "Šiauliai",
    "country_id": 126,
    "country_code": "LT",
    "state_code": "SA",
    "type": "county",
    "latitude": "55.93408230",
    "longitude": "23.31577750",
    "iso3166_2": "LT-SA",
    "native": "Šiauliai",
    "timezone": "Europe/Vilnius"
  },
  {
    "id": 1609,
    "name": "Šiauliai",
    "country_id": 126,
    "country_code": "LT",
    "state_code": "43",
    "type": "district municipality",
    "latitude": "55.93408230",
    "longitude": "23.31577750",
    "iso3166_2": "LT-43",
    "native": "Šiauliai",
    "timezone": "Europe/Vilnius"
  },
  {
    "id": 1613,
    "name": "Šilalė ",
    "country_id": 126,
    "country_code": "LT",
    "state_code": "45",
    "type": "district municipality",
    "latitude": "55.49268000",
    "longitude": "22.18455590",
    "iso3166_2": "LT-45",
    "native": "Šilalė",
    "timezone": "Europe/Vilnius"
  },
  {
    "id": 1607,
    "name": "Šilutė",
    "country_id": 126,
    "country_code": "LT",
    "state_code": "46",
    "type": "district municipality",
    "latitude": "55.34137470",
    "longitude": "21.46056970",
    "iso3166_2": "LT-46",
    "native": "Šilutė",
    "timezone": "Europe/Vilnius"
  },
  {
    "id": 1594,
    "name": "Širvintos",
    "country_id": 126,
    "country_code": "LT",
    "state_code": "47",
    "type": "district municipality",
    "latitude": "55.04310200",
    "longitude": "24.95698100",
    "iso3166_2": "LT-47",
    "native": "Širvintos",
    "timezone": "Europe/Vilnius"
  },
  {
    "id": 1617,
    "name": "Skuodas",
    "country_id": 126,
    "country_code": "LT",
    "state_code": "48",
    "type": "district municipality",
    "latitude": "56.27021690",
    "longitude": "21.52143310",
    "iso3166_2": "LT-48",
    "native": "Skuodas",
    "timezone": "Europe/Vilnius"
  },
  {
    "id": 1560,
    "name": "Švenčionys",
    "country_id": 126,
    "country_code": "LT",
    "state_code": "49",
    "type": "district municipality",
    "latitude": "55.13368650",
    "longitude": "26.16301460",
    "iso3166_2": "LT-49",
    "native": "Švenčionys",
    "timezone": "Europe/Vilnius"
  },
  {
    "id": 1573,
    "name": "Tauragė",
    "country_id": 126,
    "country_code": "LT",
    "state_code": "TA",
    "type": "county",
    "latitude": "55.30725860",
    "longitude": "22.35729390",
    "iso3166_2": "LT-TA",
    "native": "Tauragė",
    "timezone": "Europe/Vilnius"
  },
  {
    "id": 1572,
    "name": "Tauragė",
    "country_id": 126,
    "country_code": "LT",
    "state_code": "50",
    "type": "district municipality",
    "latitude": "55.25036600",
    "longitude": "22.29095000",
    "iso3166_2": "LT-50",
    "native": "Tauragė",
    "timezone": "Europe/Vilnius"
  },
  {
    "id": 1608,
    "name": "Telšiai",
    "country_id": 126,
    "country_code": "LT",
    "state_code": "51",
    "type": "district municipality",
    "latitude": "55.98461350",
    "longitude": "22.24907530",
    "iso3166_2": "LT-51",
    "native": "Telšiai",
    "timezone": "Europe/Vilnius"
  },
  {
    "id": 1569,
    "name": "Telšiai",
    "country_id": 126,
    "country_code": "LT",
    "state_code": "TE",
    "type": "county",
    "latitude": "55.98461350",
    "longitude": "22.24907530",
    "iso3166_2": "LT-TE",
    "native": "Telšiai",
    "timezone": "Europe/Vilnius"
  },
  {
    "id": 1593,
    "name": "Trakai",
    "country_id": 126,
    "country_code": "LT",
    "state_code": "52",
    "type": "district municipality",
    "latitude": "54.63791130",
    "longitude": "24.93468940",
    "iso3166_2": "LT-52",
    "native": "Trakai",
    "timezone": "Europe/Vilnius"
  },
  {
    "id": 1596,
    "name": "Ukmergė",
    "country_id": 126,
    "country_code": "LT",
    "state_code": "53",
    "type": "district municipality",
    "latitude": "55.24772930",
    "longitude": "24.75997140",
    "iso3166_2": "LT-53",
    "native": "Ukmergė",
    "timezone": "Europe/Vilnius"
  },
  {
    "id": 1598,
    "name": "Utena",
    "country_id": 126,
    "country_code": "LT",
    "state_code": "54",
    "type": "district municipality",
    "latitude": "55.48718330",
    "longitude": "25.63862210",
    "iso3166_2": "LT-54",
    "native": "Utena",
    "timezone": "Europe/Vilnius"
  },
  {
    "id": 1621,
    "name": "Utena",
    "country_id": 126,
    "country_code": "LT",
    "state_code": "UT",
    "type": "county",
    "latitude": "55.48718330",
    "longitude": "25.63862210",
    "iso3166_2": "LT-UT",
    "native": "Utena",
    "timezone": "Europe/Vilnius"
  },
  {
    "id": 1602,
    "name": "Varėna",
    "country_id": 126,
    "country_code": "LT",
    "state_code": "55",
    "type": "district municipality",
    "latitude": "54.21217640",
    "longitude": "24.56737240",
    "iso3166_2": "LT-55",
    "native": "Varėna",
    "timezone": "Europe/Vilnius"
  },
  {
    "id": 1620,
    "name": "Vilkaviškis",
    "country_id": 126,
    "country_code": "LT",
    "state_code": "56",
    "type": "district municipality",
    "latitude": "54.65194500",
    "longitude": "23.03515500",
    "iso3166_2": "LT-56",
    "native": "Vilkaviškis",
    "timezone": "Europe/Vilnius"
  },
  {
    "id": 1606,
    "name": "Vilnius",
    "country_id": 126,
    "country_code": "LT",
    "state_code": "57",
    "type": "district municipality",
    "latitude": "54.68704580",
    "longitude": "25.28291110",
    "iso3166_2": "LT-57",
    "native": "Vilnius",
    "timezone": "Europe/Vilnius"
  },
  {
    "id": 1601,
    "name": "Vilnius",
    "country_id": 126,
    "country_code": "LT",
    "state_code": "VL",
    "type": "county",
    "latitude": "54.68704580",
    "longitude": "25.28291110",
    "iso3166_2": "LT-VL",
    "native": "Vilnius",
    "timezone": "Europe/Vilnius"
  },
  {
    "id": 1564,
    "name": "Visaginas",
    "country_id": 126,
    "country_code": "LT",
    "state_code": "59",
    "type": "municipality",
    "latitude": "55.59411800",
    "longitude": "26.43079540",
    "iso3166_2": "LT-59",
    "native": "Visaginas",
    "timezone": "Europe/Vilnius"
  },
  {
    "id": 1619,
    "name": "Zarasai",
    "country_id": 126,
    "country_code": "LT",
    "state_code": "60",
    "type": "district municipality",
    "latitude": "55.73096090",
    "longitude": "26.24529500",
    "iso3166_2": "LT-60",
    "native": "Zarasai",
    "timezone": "Europe/Vilnius"
  }
]