[
  {
    "id": 31024,
    "name": "Azua",
    "state_id": 4114,
    "state_code": "02",
    "country_id": 62,
    "country_code": "DO",
    "latitude": "18.45319000",
    "longitude": "-70.73490000",
    "wikiDataId": null
  },
  {
    "id": 31060,
    "name": "El Guayabal",
    "state_id": 4114,
    "state_code": "02",
    "country_id": 62,
    "country_code": "DO",
    "latitude": "18.74960000",
    "longitude": "-70.83690000",
    "wikiDataId": null
  },
  {
    "id": 31070,
    "name": "Estebanía",
    "state_id": 4114,
    "state_code": "02",
    "country_id": 62,
    "country_code": "DO",
    "latitude": "18.45770000",
    "longitude": "-70.64350000",
    "wikiDataId": null
  },
  {
    "id": 31111,
    "name": "Las Charcas",
    "state_id": 4114,
    "state_code": "02",
    "country_id": 62,
    "country_code": "DO",
    "latitude": "18.45026000",
    "longitude": "-70.61724000",
    "wikiDataId": null
  },
  {
    "id": 31142,
    "name": "Padre Las Casas",
    "state_id": 4114,
    "state_code": "02",
    "country_id": 62,
    "country_code": "DO",
    "latitude": "18.75000000",
    "longitude": "-70.88333000",
    "wikiDataId": null
  },
  {
    "id": 31144,
    "name": "Palmar de Ocoa",
    "state_id": 4114,
    "state_code": "02",
    "country_id": 62,
    "country_code": "DO",
    "latitude": "18.29656000",
    "longitude": "-70.58635000",
    "wikiDataId": null
  },
  {
    "id": 31153,
    "name": "Peralta",
    "state_id": 4114,
    "state_code": "02",
    "country_id": 62,
    "country_code": "DO",
    "latitude": "18.58164000",
    "longitude": "-70.77029000",
    "wikiDataId": null
  },
  {
    "id": 31160,
    "name": "Pueblo Viejo",
    "state_id": 4114,
    "state_code": "02",
    "country_id": 62,
    "country_code": "DO",
    "latitude": "18.40000000",
    "longitude": "-70.76765000",
    "wikiDataId": null
  },
  {
    "id": 31174,
    "name": "Sabana Yegua",
    "state_id": 4114,
    "state_code": "02",
    "country_id": 62,
    "country_code": "DO",
    "latitude": "18.71667000",
    "longitude": "-71.01667000",
    "wikiDataId": null
  },
  {
    "id": 31207,
    "name": "Tábara Arriba",
    "state_id": 4114,
    "state_code": "02",
    "country_id": 62,
    "country_code": "DO",
    "latitude": "18.56999000",
    "longitude": "-70.87978000",
    "wikiDataId": null
  },
  {
    "id": 31222,
    "name": "Villarpando",
    "state_id": 4114,
    "state_code": "02",
    "country_id": 62,
    "country_code": "DO",
    "latitude": "18.65860000",
    "longitude": "-71.03916000",
    "wikiDataId": null
  },
  {
    "id": 31225,
    "name": "Yayas de Viajama",
    "state_id": 4114,
    "state_code": "02",
    "country_id": 62,
    "country_code": "DO",
    "latitude": "18.60710000",
    "longitude": "-70.92753000",
    "wikiDataId": null
  }
]