[
  {
    "id": 104001,
    "name": "Åkarp",
    "state_id": 1547,
    "state_code": "O",
    "country_id": 213,
    "country_code": "SE",
    "latitude": "58.23333000",
    "longitude": "13.65000000",
    "wikiDataId": null
  },
  {
    "id": 102987,
    "name": "Alafors",
    "state_id": 1547,
    "state_code": "O",
    "country_id": 213,
    "country_code": "SE",
    "latitude": "57.92579000",
    "longitude": "12.07835000",
    "wikiDataId": null
  },
  {
    "id": 102991,
    "name": "Alingsås",
    "state_id": 1547,
    "state_code": "O",
    "country_id": 213,
    "country_code": "SE",
    "latitude": "57.93033000",
    "longitude": "12.53345000",
    "wikiDataId": null
  },
  {
    "id": 103995,
    "name": "Älvängen",
    "state_id": 1547,
    "state_code": "O",
    "country_id": 213,
    "country_code": "SE",
    "latitude": "57.95872000",
    "longitude": "12.12350000",
    "wikiDataId": null
  },
  {
    "id": 104007,
    "name": "Åmål",
    "state_id": 1547,
    "state_code": "O",
    "country_id": 213,
    "country_code": "SE",
    "latitude": "59.05100000",
    "longitude": "12.70492000",
    "wikiDataId": null
  },
  {
    "id": 102997,
    "name": "Andalen",
    "state_id": 1547,
    "state_code": "O",
    "country_id": 213,
    "country_code": "SE",
    "latitude": "57.70039000",
    "longitude": "11.76136000",
    "wikiDataId": null
  },
  {
    "id": 103000,
    "name": "Anderstorp",
    "state_id": 1547,
    "state_code": "O",
    "country_id": 213,
    "country_code": "SE",
    "latitude": "58.88333000",
    "longitude": "14.28333000",
    "wikiDataId": null
  },
  {
    "id": 103003,
    "name": "Angered",
    "state_id": 1547,
    "state_code": "O",
    "country_id": 213,
    "country_code": "SE",
    "latitude": "57.78628000",
    "longitude": "12.09852000",
    "wikiDataId": null
  },
  {
    "id": 103006,
    "name": "Annelund",
    "state_id": 1547,
    "state_code": "O",
    "country_id": 213,
    "country_code": "SE",
    "latitude": "57.98843000",
    "longitude": "13.07483000",
    "wikiDataId": null
  },
  {
    "id": 103024,
    "name": "Axvall",
    "state_id": 1547,
    "state_code": "O",
    "country_id": 213,
    "country_code": "SE",
    "latitude": "58.38333000",
    "longitude": "13.56667000",
    "wikiDataId": null
  },
  {
    "id": 103030,
    "name": "Bengtsfors",
    "state_id": 1547,
    "state_code": "O",
    "country_id": 213,
    "country_code": "SE",
    "latitude": "59.02912000",
    "longitude": "12.23207000",
    "wikiDataId": null
  },
  {
    "id": 103040,
    "name": "Billdal",
    "state_id": 1547,
    "state_code": "O",
    "country_id": 213,
    "country_code": "SE",
    "latitude": "57.56667000",
    "longitude": "11.93333000",
    "wikiDataId": null
  },
  {
    "id": 103043,
    "name": "Billingsfors",
    "state_id": 1547,
    "state_code": "O",
    "country_id": 213,
    "country_code": "SE",
    "latitude": "58.98333000",
    "longitude": "12.25000000",
    "wikiDataId": null
  },
  {
    "id": 103052,
    "name": "Björboholm",
    "state_id": 1547,
    "state_code": "O",
    "country_id": 213,
    "country_code": "SE",
    "latitude": "57.87096000",
    "longitude": "12.32546000",
    "wikiDataId": null
  },
  {
    "id": 103055,
    "name": "Björkö",
    "state_id": 1547,
    "state_code": "O",
    "country_id": 213,
    "country_code": "SE",
    "latitude": "57.73221000",
    "longitude": "11.67916000",
    "wikiDataId": null
  },
  {
    "id": 103056,
    "name": "Björlanda",
    "state_id": 1547,
    "state_code": "O",
    "country_id": 213,
    "country_code": "SE",
    "latitude": "57.76667000",
    "longitude": "11.83333000",
    "wikiDataId": null
  },
  {
    "id": 103064,
    "name": "Bollebygd",
    "state_id": 1547,
    "state_code": "O",
    "country_id": 213,
    "country_code": "SE",
    "latitude": "57.66866000",
    "longitude": "12.57272000",
    "wikiDataId": null
  },
  {
    "id": 103077,
    "name": "Borås",
    "state_id": 1547,
    "state_code": "O",
    "country_id": 213,
    "country_code": "SE",
    "latitude": "57.73783000",
    "longitude": "12.94076000",
    "wikiDataId": null
  },
  {
    "id": 103095,
    "name": "Brålanda",
    "state_id": 1547,
    "state_code": "O",
    "country_id": 213,
    "country_code": "SE",
    "latitude": "58.56344000",
    "longitude": "12.34923000",
    "wikiDataId": null
  },
  {
    "id": 103081,
    "name": "Brastad",
    "state_id": 1547,
    "state_code": "O",
    "country_id": 213,
    "country_code": "SE",
    "latitude": "58.38333000",
    "longitude": "11.48333000",
    "wikiDataId": null
  },
  {
    "id": 103110,
    "name": "Dals Långed",
    "state_id": 1547,
    "state_code": "O",
    "country_id": 213,
    "country_code": "SE",
    "latitude": "58.92555000",
    "longitude": "12.30865000",
    "wikiDataId": null
  },
  {
    "id": 103112,
    "name": "Dalsjöfors",
    "state_id": 1547,
    "state_code": "O",
    "country_id": 213,
    "country_code": "SE",
    "latitude": "57.71667000",
    "longitude": "13.08333000",
    "wikiDataId": null
  },
  {
    "id": 103120,
    "name": "Diseröd",
    "state_id": 1547,
    "state_code": "O",
    "country_id": 213,
    "country_code": "SE",
    "latitude": "57.92636000",
    "longitude": "12.02598000",
    "wikiDataId": null
  },
  {
    "id": 103124,
    "name": "Donsö",
    "state_id": 1547,
    "state_code": "O",
    "country_id": 213,
    "country_code": "SE",
    "latitude": "57.60000000",
    "longitude": "11.79917000",
    "wikiDataId": null
  },
  {
    "id": 103127,
    "name": "Ed",
    "state_id": 1547,
    "state_code": "O",
    "country_id": 213,
    "country_code": "SE",
    "latitude": "58.91247000",
    "longitude": "11.93308000",
    "wikiDataId": null
  },
  {
    "id": 103139,
    "name": "Ellös",
    "state_id": 1547,
    "state_code": "O",
    "country_id": 213,
    "country_code": "SE",
    "latitude": "58.18333000",
    "longitude": "11.46667000",
    "wikiDataId": null
  },
  {
    "id": 103148,
    "name": "Eriksbo",
    "state_id": 1547,
    "state_code": "O",
    "country_id": 213,
    "country_code": "SE",
    "latitude": "57.77141000",
    "longitude": "12.04183000",
    "wikiDataId": null
  },
  {
    "id": 103159,
    "name": "Falköping",
    "state_id": 1547,
    "state_code": "O",
    "country_id": 213,
    "country_code": "SE",
    "latitude": "58.17347000",
    "longitude": "13.55068000",
    "wikiDataId": null
  },
  {
    "id": 103191,
    "name": "Färgelanda",
    "state_id": 1547,
    "state_code": "O",
    "country_id": 213,
    "country_code": "SE",
    "latitude": "58.56816000",
    "longitude": "11.99235000",
    "wikiDataId": null
  },
  {
    "id": 103175,
    "name": "Floby",
    "state_id": 1547,
    "state_code": "O",
    "country_id": 213,
    "country_code": "SE",
    "latitude": "58.13333000",
    "longitude": "13.33333000",
    "wikiDataId": null
  },
  {
    "id": 103183,
    "name": "Fristad",
    "state_id": 1547,
    "state_code": "O",
    "country_id": 213,
    "country_code": "SE",
    "latitude": "57.82483000",
    "longitude": "13.01064000",
    "wikiDataId": null
  },
  {
    "id": 103184,
    "name": "Fritsla",
    "state_id": 1547,
    "state_code": "O",
    "country_id": 213,
    "country_code": "SE",
    "latitude": "57.55655000",
    "longitude": "12.78457000",
    "wikiDataId": null
  },
  {
    "id": 103189,
    "name": "Furulund",
    "state_id": 1547,
    "state_code": "O",
    "country_id": 213,
    "country_code": "SE",
    "latitude": "57.71667000",
    "longitude": "12.13333000",
    "wikiDataId": null
  },
  {
    "id": 103242,
    "name": "Gånghester",
    "state_id": 1547,
    "state_code": "O",
    "country_id": 213,
    "country_code": "SE",
    "latitude": "57.70000000",
    "longitude": "13.01667000",
    "wikiDataId": null
  },
  {
    "id": 103243,
    "name": "Gårdsten",
    "state_id": 1547,
    "state_code": "O",
    "country_id": 213,
    "country_code": "SE",
    "latitude": "57.80480000",
    "longitude": "12.02883000",
    "wikiDataId": null
  },
  {
    "id": 103244,
    "name": "Göta",
    "state_id": 1547,
    "state_code": "O",
    "country_id": 213,
    "country_code": "SE",
    "latitude": "58.10617000",
    "longitude": "12.15254000",
    "wikiDataId": null
  },
  {
    "id": 103245,
    "name": "Göteborg",
    "state_id": 1547,
    "state_code": "O",
    "country_id": 213,
    "country_code": "SE",
    "latitude": "57.70716000",
    "longitude": "11.96679000",
    "wikiDataId": null
  },
  {
    "id": 103246,
    "name": "Göteborgs stad",
    "state_id": 1547,
    "state_code": "O",
    "country_id": 213,
    "country_code": "SE",
    "latitude": "57.72288000",
    "longitude": "11.94577000",
    "wikiDataId": null
  },
  {
    "id": 103247,
    "name": "Götene",
    "state_id": 1547,
    "state_code": "O",
    "country_id": 213,
    "country_code": "SE",
    "latitude": "58.52824000",
    "longitude": "13.49458000",
    "wikiDataId": null
  },
  {
    "id": 103230,
    "name": "Gråbo",
    "state_id": 1547,
    "state_code": "O",
    "country_id": 213,
    "country_code": "SE",
    "latitude": "57.83625000",
    "longitude": "12.29954000",
    "wikiDataId": null
  },
  {
    "id": 103228,
    "name": "Grästorp",
    "state_id": 1547,
    "state_code": "O",
    "country_id": 213,
    "country_code": "SE",
    "latitude": "58.33219000",
    "longitude": "12.68122000",
    "wikiDataId": null
  },
  {
    "id": 103220,
    "name": "Grebbestad",
    "state_id": 1547,
    "state_code": "O",
    "country_id": 213,
    "country_code": "SE",
    "latitude": "58.70248000",
    "longitude": "11.25738000",
    "wikiDataId": null
  },
  {
    "id": 103232,
    "name": "Gullspång",
    "state_id": 1547,
    "state_code": "O",
    "country_id": 213,
    "country_code": "SE",
    "latitude": "58.98615000",
    "longitude": "14.09644000",
    "wikiDataId": null
  },
  {
    "id": 103261,
    "name": "Hammarkullen",
    "state_id": 1547,
    "state_code": "O",
    "country_id": 213,
    "country_code": "SE",
    "latitude": "57.78049000",
    "longitude": "12.03604000",
    "wikiDataId": null
  },
  {
    "id": 103280,
    "name": "Henån",
    "state_id": 1547,
    "state_code": "O",
    "country_id": 213,
    "country_code": "SE",
    "latitude": "58.23848000",
    "longitude": "11.67598000",
    "wikiDataId": null
  },
  {
    "id": 103282,
    "name": "Herrljunga",
    "state_id": 1547,
    "state_code": "O",
    "country_id": 213,
    "country_code": "SE",
    "latitude": "58.07739000",
    "longitude": "13.02662000",
    "wikiDataId": null
  },
  {
    "id": 103286,
    "name": "Hindås",
    "state_id": 1547,
    "state_code": "O",
    "country_id": 213,
    "country_code": "SE",
    "latitude": "57.70338000",
    "longitude": "12.44657000",
    "wikiDataId": null
  },
  {
    "id": 103288,
    "name": "Hjo",
    "state_id": 1547,
    "state_code": "O",
    "country_id": 213,
    "country_code": "SE",
    "latitude": "58.30133000",
    "longitude": "14.28784000",
    "wikiDataId": null
  },
  {
    "id": 103290,
    "name": "Hjuvik",
    "state_id": 1547,
    "state_code": "O",
    "country_id": 213,
    "country_code": "SE",
    "latitude": "57.70167000",
    "longitude": "11.71639000",
    "wikiDataId": null
  },
  {
    "id": 103337,
    "name": "Hönö",
    "state_id": 1547,
    "state_code": "O",
    "country_id": 213,
    "country_code": "SE",
    "latitude": "57.68972000",
    "longitude": "11.64972000",
    "wikiDataId": null
  },
  {
    "id": 103298,
    "name": "Horred",
    "state_id": 1547,
    "state_code": "O",
    "country_id": 213,
    "country_code": "SE",
    "latitude": "57.35475000",
    "longitude": "12.47777000",
    "wikiDataId": null
  },
  {
    "id": 103300,
    "name": "Hova",
    "state_id": 1547,
    "state_code": "O",
    "country_id": 213,
    "country_code": "SE",
    "latitude": "58.85363000",
    "longitude": "14.21914000",
    "wikiDataId": null
  },
  {
    "id": 103341,
    "name": "Höviksnäs",
    "state_id": 1547,
    "state_code": "O",
    "country_id": 213,
    "country_code": "SE",
    "latitude": "58.03333000",
    "longitude": "11.76667000",
    "wikiDataId": null
  },
  {
    "id": 103309,
    "name": "Hunnebostrand",
    "state_id": 1547,
    "state_code": "O",
    "country_id": 213,
    "country_code": "SE",
    "latitude": "58.44127000",
    "longitude": "11.30320000",
    "wikiDataId": null
  },
  {
    "id": 103345,
    "name": "Ingared",
    "state_id": 1547,
    "state_code": "O",
    "country_id": 213,
    "country_code": "SE",
    "latitude": "57.85989000",
    "longitude": "12.45161000",
    "wikiDataId": null
  },
  {
    "id": 103355,
    "name": "Jonstorp",
    "state_id": 1547,
    "state_code": "O",
    "country_id": 213,
    "country_code": "SE",
    "latitude": "58.00000000",
    "longitude": "12.71667000",
    "wikiDataId": null
  },
  {
    "id": 103368,
    "name": "Jörlanda",
    "state_id": 1547,
    "state_code": "O",
    "country_id": 213,
    "country_code": "SE",
    "latitude": "57.98630000",
    "longitude": "11.82943000",
    "wikiDataId": null
  },
  {
    "id": 103436,
    "name": "Källby",
    "state_id": 1547,
    "state_code": "O",
    "country_id": 213,
    "country_code": "SE",
    "latitude": "58.50999000",
    "longitude": "13.30582000",
    "wikiDataId": null
  },
  {
    "id": 103441,
    "name": "Kållered",
    "state_id": 1547,
    "state_code": "O",
    "country_id": 213,
    "country_code": "SE",
    "latitude": "57.60992000",
    "longitude": "12.05106000",
    "wikiDataId": null
  },
  {
    "id": 103375,
    "name": "Karlsborg",
    "state_id": 1547,
    "state_code": "O",
    "country_id": 213,
    "country_code": "SE",
    "latitude": "58.53724000",
    "longitude": "14.50470000",
    "wikiDataId": null
  },
  {
    "id": 103393,
    "name": "Kinna",
    "state_id": 1547,
    "state_code": "O",
    "country_id": 213,
    "country_code": "SE",
    "latitude": "57.50728000",
    "longitude": "12.69463000",
    "wikiDataId": null
  },
  {
    "id": 103406,
    "name": "Kode",
    "state_id": 1547,
    "state_code": "O",
    "country_id": 213,
    "country_code": "SE",
    "latitude": "57.94263000",
    "longitude": "11.85051000",
    "wikiDataId": null
  },
  {
    "id": 103430,
    "name": "Kungälv",
    "state_id": 1547,
    "state_code": "O",
    "country_id": 213,
    "country_code": "SE",
    "latitude": "57.87096000",
    "longitude": "11.98054000",
    "wikiDataId": null
  },
  {
    "id": 103425,
    "name": "Kungshamn",
    "state_id": 1547,
    "state_code": "O",
    "country_id": 213,
    "country_code": "SE",
    "latitude": "58.36305000",
    "longitude": "11.25938000",
    "wikiDataId": null
  },
  {
    "id": 103435,
    "name": "Kvänum",
    "state_id": 1547,
    "state_code": "O",
    "country_id": 213,
    "country_code": "SE",
    "latitude": "58.30000000",
    "longitude": "13.18333000",
    "wikiDataId": null
  },
  {
    "id": 103452,
    "name": "Landvetter",
    "state_id": 1547,
    "state_code": "O",
    "country_id": 213,
    "country_code": "SE",
    "latitude": "57.68665000",
    "longitude": "12.21169000",
    "wikiDataId": null
  },
  {
    "id": 103501,
    "name": "Länghem",
    "state_id": 1547,
    "state_code": "O",
    "country_id": 213,
    "country_code": "SE",
    "latitude": "57.60000000",
    "longitude": "13.23333000",
    "wikiDataId": null
  },
  {
    "id": 103459,
    "name": "Lerum",
    "state_id": 1547,
    "state_code": "O",
    "country_id": 213,
    "country_code": "SE",
    "latitude": "57.77051000",
    "longitude": "12.26904000",
    "wikiDataId": null
  },
  {
    "id": 103464,
    "name": "Lidköping",
    "state_id": 1547,
    "state_code": "O",
    "country_id": 213,
    "country_code": "SE",
    "latitude": "58.50517000",
    "longitude": "13.15765000",
    "wikiDataId": null
  },
  {
    "id": 103466,
    "name": "Lilla Edet",
    "state_id": 1547,
    "state_code": "O",
    "country_id": 213,
    "country_code": "SE",
    "latitude": "58.13333000",
    "longitude": "12.13333000",
    "wikiDataId": null
  },
  {
    "id": 103468,
    "name": "Limmared",
    "state_id": 1547,
    "state_code": "O",
    "country_id": 213,
    "country_code": "SE",
    "latitude": "57.53592000",
    "longitude": "13.35566000",
    "wikiDataId": null
  },
  {
    "id": 103472,
    "name": "Lindome",
    "state_id": 1547,
    "state_code": "O",
    "country_id": 213,
    "country_code": "SE",
    "latitude": "57.56667000",
    "longitude": "12.08333000",
    "wikiDataId": null
  },
  {
    "id": 103484,
    "name": "Ljungskile",
    "state_id": 1547,
    "state_code": "O",
    "country_id": 213,
    "country_code": "SE",
    "latitude": "58.22452000",
    "longitude": "11.92014000",
    "wikiDataId": null
  },
  {
    "id": 103508,
    "name": "Lödöse",
    "state_id": 1547,
    "state_code": "O",
    "country_id": 213,
    "country_code": "SE",
    "latitude": "58.02994000",
    "longitude": "12.15934000",
    "wikiDataId": null
  },
  {
    "id": 103510,
    "name": "Lövgärdet",
    "state_id": 1547,
    "state_code": "O",
    "country_id": 213,
    "country_code": "SE",
    "latitude": "57.81555000",
    "longitude": "12.03861000",
    "wikiDataId": null
  },
  {
    "id": 103499,
    "name": "Lysekil",
    "state_id": 1547,
    "state_code": "O",
    "country_id": 213,
    "country_code": "SE",
    "latitude": "58.27429000",
    "longitude": "11.43576000",
    "wikiDataId": null
  },
  {
    "id": 103512,
    "name": "Majorna",
    "state_id": 1547,
    "state_code": "O",
    "country_id": 213,
    "country_code": "SE",
    "latitude": "57.69195000",
    "longitude": "11.91605000",
    "wikiDataId": null
  },
  {
    "id": 103529,
    "name": "Mariestad",
    "state_id": 1547,
    "state_code": "O",
    "country_id": 213,
    "country_code": "SE",
    "latitude": "58.70971000",
    "longitude": "13.82367000",
    "wikiDataId": null
  },
  {
    "id": 103536,
    "name": "Mellerud",
    "state_id": 1547,
    "state_code": "O",
    "country_id": 213,
    "country_code": "SE",
    "latitude": "58.69979000",
    "longitude": "12.45312000",
    "wikiDataId": null
  },
  {
    "id": 103560,
    "name": "Mölltorp",
    "state_id": 1547,
    "state_code": "O",
    "country_id": 213,
    "country_code": "SE",
    "latitude": "58.50000000",
    "longitude": "14.40000000",
    "wikiDataId": null
  },
  {
    "id": 103562,
    "name": "Mölndal",
    "state_id": 1547,
    "state_code": "O",
    "country_id": 213,
    "country_code": "SE",
    "latitude": "57.65540000",
    "longitude": "12.01378000",
    "wikiDataId": null
  },
  {
    "id": 103564,
    "name": "Mölnlycke",
    "state_id": 1547,
    "state_code": "O",
    "country_id": 213,
    "country_code": "SE",
    "latitude": "57.65893000",
    "longitude": "12.11792000",
    "wikiDataId": null
  },
  {
    "id": 103553,
    "name": "Munkedal",
    "state_id": 1547,
    "state_code": "O",
    "country_id": 213,
    "country_code": "SE",
    "latitude": "58.46634000",
    "longitude": "11.67345000",
    "wikiDataId": null
  },
  {
    "id": 103557,
    "name": "Myggenäs",
    "state_id": 1547,
    "state_code": "O",
    "country_id": 213,
    "country_code": "SE",
    "latitude": "58.06176000",
    "longitude": "11.74936000",
    "wikiDataId": null
  },
  {
    "id": 103576,
    "name": "Nolvik",
    "state_id": 1547,
    "state_code": "O",
    "country_id": 213,
    "country_code": "SE",
    "latitude": "57.77500000",
    "longitude": "11.83333000",
    "wikiDataId": null
  },
  {
    "id": 103592,
    "name": "Nossebro",
    "state_id": 1547,
    "state_code": "O",
    "country_id": 213,
    "country_code": "SE",
    "latitude": "58.18808000",
    "longitude": "12.71599000",
    "wikiDataId": null
  },
  {
    "id": 104025,
    "name": "Öckerö",
    "state_id": 1547,
    "state_code": "O",
    "country_id": 213,
    "country_code": "SE",
    "latitude": "57.70814000",
    "longitude": "11.65585000",
    "wikiDataId": null
  },
  {
    "id": 104029,
    "name": "Ödsmål",
    "state_id": 1547,
    "state_code": "O",
    "country_id": 213,
    "country_code": "SE",
    "latitude": "58.10000000",
    "longitude": "11.85000000",
    "wikiDataId": null
  },
  {
    "id": 104031,
    "name": "Öjersjö",
    "state_id": 1547,
    "state_code": "O",
    "country_id": 213,
    "country_code": "SE",
    "latitude": "57.69882000",
    "longitude": "12.13448000",
    "wikiDataId": null
  },
  {
    "id": 103611,
    "name": "Olofstorp",
    "state_id": 1547,
    "state_code": "O",
    "country_id": 213,
    "country_code": "SE",
    "latitude": "57.80444000",
    "longitude": "12.17131000",
    "wikiDataId": null
  },
  {
    "id": 103615,
    "name": "Olstorp",
    "state_id": 1547,
    "state_code": "O",
    "country_id": 213,
    "country_code": "SE",
    "latitude": "57.82277000",
    "longitude": "12.27696000",
    "wikiDataId": null
  },
  {
    "id": 103620,
    "name": "Orust",
    "state_id": 1547,
    "state_code": "O",
    "country_id": 213,
    "country_code": "SE",
    "latitude": "58.18025000",
    "longitude": "11.63419000",
    "wikiDataId": null
  },
  {
    "id": 103632,
    "name": "Partille",
    "state_id": 1547,
    "state_code": "O",
    "country_id": 213,
    "country_code": "SE",
    "latitude": "57.73950000",
    "longitude": "12.10642000",
    "wikiDataId": null
  },
  {
    "id": 103643,
    "name": "Rannebergen",
    "state_id": 1547,
    "state_code": "O",
    "country_id": 213,
    "country_code": "SE",
    "latitude": "57.80236000",
    "longitude": "12.07131000",
    "wikiDataId": null
  },
  {
    "id": 103667,
    "name": "Rävlanda",
    "state_id": 1547,
    "state_code": "O",
    "country_id": 213,
    "country_code": "SE",
    "latitude": "57.65338000",
    "longitude": "12.49791000",
    "wikiDataId": null
  },
  {
    "id": 103674,
    "name": "Rönnäng",
    "state_id": 1547,
    "state_code": "O",
    "country_id": 213,
    "country_code": "SE",
    "latitude": "57.93333000",
    "longitude": "11.58333000",
    "wikiDataId": null
  },
  {
    "id": 103816,
    "name": "Sålanda",
    "state_id": 1547,
    "state_code": "O",
    "country_id": 213,
    "country_code": "SE",
    "latitude": "57.98333000",
    "longitude": "12.21667000",
    "wikiDataId": null
  },
  {
    "id": 103679,
    "name": "Sandared",
    "state_id": 1547,
    "state_code": "O",
    "country_id": 213,
    "country_code": "SE",
    "latitude": "57.70992000",
    "longitude": "12.79238000",
    "wikiDataId": null
  },
  {
    "id": 103809,
    "name": "Sätila",
    "state_id": 1547,
    "state_code": "O",
    "country_id": 213,
    "country_code": "SE",
    "latitude": "57.54172000",
    "longitude": "12.43429000",
    "wikiDataId": null
  },
  {
    "id": 103694,
    "name": "Sjömarken",
    "state_id": 1547,
    "state_code": "O",
    "country_id": 213,
    "country_code": "SE",
    "latitude": "57.71533000",
    "longitude": "12.83495000",
    "wikiDataId": null
  },
  {
    "id": 103691,
    "name": "Sjuntorp",
    "state_id": 1547,
    "state_code": "O",
    "country_id": 213,
    "country_code": "SE",
    "latitude": "58.20000000",
    "longitude": "12.21667000",
    "wikiDataId": null
  },
  {
    "id": 103696,
    "name": "Skara",
    "state_id": 1547,
    "state_code": "O",
    "country_id": 213,
    "country_code": "SE",
    "latitude": "58.38659000",
    "longitude": "13.43836000",
    "wikiDataId": null
  },
  {
    "id": 103720,
    "name": "Skärhamn",
    "state_id": 1547,
    "state_code": "O",
    "country_id": 213,
    "country_code": "SE",
    "latitude": "57.98665000",
    "longitude": "11.55742000",
    "wikiDataId": null
  },
  {
    "id": 103703,
    "name": "Skepplanda",
    "state_id": 1547,
    "state_code": "O",
    "country_id": 213,
    "country_code": "SE",
    "latitude": "57.98333000",
    "longitude": "12.20000000",
    "wikiDataId": null
  },
  {
    "id": 103724,
    "name": "Skövde",
    "state_id": 1547,
    "state_code": "O",
    "country_id": 213,
    "country_code": "SE",
    "latitude": "58.39118000",
    "longitude": "13.84506000",
    "wikiDataId": null
  },
  {
    "id": 103712,
    "name": "Skultorp",
    "state_id": 1547,
    "state_code": "O",
    "country_id": 213,
    "country_code": "SE",
    "latitude": "58.35000000",
    "longitude": "13.83333000",
    "wikiDataId": null
  },
  {
    "id": 103733,
    "name": "Smögen",
    "state_id": 1547,
    "state_code": "O",
    "country_id": 213,
    "country_code": "SE",
    "latitude": "58.35593000",
    "longitude": "11.22411000",
    "wikiDataId": null
  },
  {
    "id": 103734,
    "name": "Sollebrunn",
    "state_id": 1547,
    "state_code": "O",
    "country_id": 213,
    "country_code": "SE",
    "latitude": "58.11667000",
    "longitude": "12.53333000",
    "wikiDataId": null
  },
  {
    "id": 103751,
    "name": "Stenkullen",
    "state_id": 1547,
    "state_code": "O",
    "country_id": 213,
    "country_code": "SE",
    "latitude": "57.79476000",
    "longitude": "12.31688000",
    "wikiDataId": null
  },
  {
    "id": 103753,
    "name": "Stenstorp",
    "state_id": 1547,
    "state_code": "O",
    "country_id": 213,
    "country_code": "SE",
    "latitude": "58.27254000",
    "longitude": "13.71454000",
    "wikiDataId": null
  },
  {
    "id": 103754,
    "name": "Stenungsund",
    "state_id": 1547,
    "state_code": "O",
    "country_id": 213,
    "country_code": "SE",
    "latitude": "58.07046000",
    "longitude": "11.81810000",
    "wikiDataId": null
  },
  {
    "id": 103782,
    "name": "Stöpen",
    "state_id": 1547,
    "state_code": "O",
    "country_id": 213,
    "country_code": "SE",
    "latitude": "58.47802000",
    "longitude": "13.86611000",
    "wikiDataId": null
  },
  {
    "id": 103761,
    "name": "Stora Höga",
    "state_id": 1547,
    "state_code": "O",
    "country_id": 213,
    "country_code": "SE",
    "latitude": "58.01667000",
    "longitude": "11.83333000",
    "wikiDataId": null
  },
  {
    "id": 103775,
    "name": "Strömstad",
    "state_id": 1547,
    "state_code": "O",
    "country_id": 213,
    "country_code": "SE",
    "latitude": "58.93945000",
    "longitude": "11.17120000",
    "wikiDataId": null
  },
  {
    "id": 103780,
    "name": "Styrsö",
    "state_id": 1547,
    "state_code": "O",
    "country_id": 213,
    "country_code": "SE",
    "latitude": "57.61639000",
    "longitude": "11.78556000",
    "wikiDataId": null
  },
  {
    "id": 103792,
    "name": "Surte",
    "state_id": 1547,
    "state_code": "O",
    "country_id": 213,
    "country_code": "SE",
    "latitude": "57.82533000",
    "longitude": "12.01604000",
    "wikiDataId": null
  },
  {
    "id": 103796,
    "name": "Svanesund",
    "state_id": 1547,
    "state_code": "O",
    "country_id": 213,
    "country_code": "SE",
    "latitude": "58.14292000",
    "longitude": "11.81821000",
    "wikiDataId": null
  },
  {
    "id": 103799,
    "name": "Svenljunga",
    "state_id": 1547,
    "state_code": "O",
    "country_id": 213,
    "country_code": "SE",
    "latitude": "57.49551000",
    "longitude": "13.11078000",
    "wikiDataId": null
  },
  {
    "id": 103838,
    "name": "Tanumshede",
    "state_id": 1547,
    "state_code": "O",
    "country_id": 213,
    "country_code": "SE",
    "latitude": "58.72385000",
    "longitude": "11.32587000",
    "wikiDataId": null
  },
  {
    "id": 103842,
    "name": "Tibro",
    "state_id": 1547,
    "state_code": "O",
    "country_id": 213,
    "country_code": "SE",
    "latitude": "58.42453000",
    "longitude": "14.16162000",
    "wikiDataId": null
  },
  {
    "id": 103844,
    "name": "Tidaholm",
    "state_id": 1547,
    "state_code": "O",
    "country_id": 213,
    "country_code": "SE",
    "latitude": "58.18035000",
    "longitude": "13.95824000",
    "wikiDataId": null
  },
  {
    "id": 103854,
    "name": "Tjuvkil",
    "state_id": 1547,
    "state_code": "O",
    "country_id": 213,
    "country_code": "SE",
    "latitude": "57.90000000",
    "longitude": "11.73333000",
    "wikiDataId": null
  },
  {
    "id": 103892,
    "name": "Töreboda",
    "state_id": 1547,
    "state_code": "O",
    "country_id": 213,
    "country_code": "SE",
    "latitude": "58.70739000",
    "longitude": "14.12597000",
    "wikiDataId": null
  },
  {
    "id": 103865,
    "name": "Torslanda",
    "state_id": 1547,
    "state_code": "O",
    "country_id": 213,
    "country_code": "SE",
    "latitude": "57.72432000",
    "longitude": "11.77013000",
    "wikiDataId": null
  },
  {
    "id": 103869,
    "name": "Tranemo",
    "state_id": 1547,
    "state_code": "O",
    "country_id": 213,
    "country_code": "SE",
    "latitude": "57.48333000",
    "longitude": "13.35000000",
    "wikiDataId": null
  },
  {
    "id": 103876,
    "name": "Trollhättan",
    "state_id": 1547,
    "state_code": "O",
    "country_id": 213,
    "country_code": "SE",
    "latitude": "58.21208000",
    "longitude": "12.35033000",
    "wikiDataId": null
  },
  {
    "id": 103894,
    "name": "Uddevalla",
    "state_id": 1547,
    "state_code": "O",
    "country_id": 213,
    "country_code": "SE",
    "latitude": "58.34784000",
    "longitude": "11.94240000",
    "wikiDataId": null
  },
  {
    "id": 103896,
    "name": "Ulricehamn",
    "state_id": 1547,
    "state_code": "O",
    "country_id": 213,
    "country_code": "SE",
    "latitude": "57.79159000",
    "longitude": "13.41422000",
    "wikiDataId": null
  },
  {
    "id": 103962,
    "name": "Vänersborg",
    "state_id": 1547,
    "state_code": "O",
    "country_id": 213,
    "country_code": "SE",
    "latitude": "58.38075000",
    "longitude": "12.32340000",
    "wikiDataId": null
  },
  {
    "id": 103922,
    "name": "Vara",
    "state_id": 1547,
    "state_code": "O",
    "country_id": 213,
    "country_code": "SE",
    "latitude": "58.26234000",
    "longitude": "12.95413000",
    "wikiDataId": null
  },
  {
    "id": 103979,
    "name": "Vårgårda",
    "state_id": 1547,
    "state_code": "O",
    "country_id": 213,
    "country_code": "SE",
    "latitude": "58.03706000",
    "longitude": "12.80907000",
    "wikiDataId": null
  },
  {
    "id": 103926,
    "name": "Vargön",
    "state_id": 1547,
    "state_code": "O",
    "country_id": 213,
    "country_code": "SE",
    "latitude": "58.35599000",
    "longitude": "12.39060000",
    "wikiDataId": null
  },
  {
    "id": 103973,
    "name": "Västra Frölunda",
    "state_id": 1547,
    "state_code": "O",
    "country_id": 213,
    "country_code": "SE",
    "latitude": "57.64667000",
    "longitude": "11.92944000",
    "wikiDataId": null
  },
  {
    "id": 103953,
    "name": "Vinninga",
    "state_id": 1547,
    "state_code": "O",
    "country_id": 213,
    "country_code": "SE",
    "latitude": "58.45000000",
    "longitude": "13.26667000",
    "wikiDataId": null
  },
  {
    "id": 103958,
    "name": "Viskafors",
    "state_id": 1547,
    "state_code": "O",
    "country_id": 213,
    "country_code": "SE",
    "latitude": "57.62941000",
    "longitude": "12.84890000",
    "wikiDataId": null
  }
]