[
  {
    "id": 169,
    "name": "Bashkia Kurbin",
    "state_id": 609,
    "state_code": "08",
    "country_id": 3,
    "country_code": "AL",
    "latitude": "41.62215000",
    "longitude": "19.70734000",
    "wikiDataId": null
  },
  {
    "id": 171,
    "name": "Bashkia Lezhë",
    "state_id": 609,
    "state_code": "08",
    "country_id": 3,
    "country_code": "AL",
    "latitude": "41.81320000",
    "longitude": "19.64121000",
    "wikiDataId": null
  },
  {
    "id": 178,
    "name": "Bashkia Mirditë",
    "state_id": 609,
    "state_code": "08",
    "country_id": 3,
    "country_code": "AL",
    "latitude": "41.80953000",
    "longitude": "19.99024000",
    "wikiDataId": null
  },
  {
    "id": 157051,
    "name": "Kurbin",
    "state_id": 609,
    "state_code": "08",
    "country_id": 3,
    "country_code": "AL",
    "latitude": "41.63891890",
    "longitude": "19.69333630",
    "wikiDataId": null
  },
  {
    "id": 218,
    "name": "Kurbnesh",
    "state_id": 609,
    "state_code": "08",
    "country_id": 3,
    "country_code": "AL",
    "latitude": "41.77972000",
    "longitude": "20.08361000",
    "wikiDataId": null
  },
  {
    "id": 222,
    "name": "Laç",
    "state_id": 609,
    "state_code": "08",
    "country_id": 3,
    "country_code": "AL",
    "latitude": "41.63556000",
    "longitude": "19.71306000",
    "wikiDataId": null
  },
  {
    "id": 224,
    "name": "Lezhë",
    "state_id": 609,
    "state_code": "08",
    "country_id": 3,
    "country_code": "AL",
    "latitude": "41.78361000",
    "longitude": "19.64361000",
    "wikiDataId": null
  },
  {
    "id": 229,
    "name": "Mamurras",
    "state_id": 609,
    "state_code": "08",
    "country_id": 3,
    "country_code": "AL",
    "latitude": "41.57750000",
    "longitude": "19.69222000",
    "wikiDataId": null
  },
  {
    "id": 232,
    "name": "Milot",
    "state_id": 609,
    "state_code": "08",
    "country_id": 3,
    "country_code": "AL",
    "latitude": "41.68389000",
    "longitude": "19.71556000",
    "wikiDataId": null
  },
  {
    "id": 157049,
    "name": "Mirditë",
    "state_id": 609,
    "state_code": "08",
    "country_id": 3,
    "country_code": "AL",
    "latitude": "41.86072800",
    "longitude": "19.66757220",
    "wikiDataId": null
  },
  {
    "id": 261,
    "name": "Rrëshen",
    "state_id": 609,
    "state_code": "08",
    "country_id": 3,
    "country_code": "AL",
    "latitude": "41.76750000",
    "longitude": "19.87556000",
    "wikiDataId": null
  },
  {
    "id": 252,
    "name": "Rrethi i Kurbinit",
    "state_id": 609,
    "state_code": "08",
    "country_id": 3,
    "country_code": "AL",
    "latitude": "41.63333000",
    "longitude": "19.71667000",
    "wikiDataId": null
  },
  {
    "id": 262,
    "name": "Rubik",
    "state_id": 609,
    "state_code": "08",
    "country_id": 3,
    "country_code": "AL",
    "latitude": "41.77444000",
    "longitude": "19.78611000",
    "wikiDataId": null
  },
  {
    "id": 267,
    "name": "Shëngjin",
    "state_id": 609,
    "state_code": "08",
    "country_id": 3,
    "country_code": "AL",
    "latitude": "41.81361000",
    "longitude": "19.59389000",
    "wikiDataId": null
  }
]