[
  {
    "id": 64936,
    "name": "Bakan",
    "state_id": 3977,
    "state_code": "15",
    "country_id": 37,
    "country_code": "KH",
    "latitude": "12.78000000",
    "longitude": "103.79000000",
    "wikiDataId": null
  },
  {
    "id": 64959,
    "name": "Krakor",
    "state_id": 3977,
    "state_code": "15",
    "country_id": 37,
    "country_code": "KH",
    "latitude": "12.48000000",
    "longitude": "104.19000000",
    "wikiDataId": null
  },
  {
    "id": 64973,
    "name": "Pursat",
    "state_id": 3977,
    "state_code": "15",
    "country_id": 37,
    "country_code": "KH",
    "latitude": "12.53878000",
    "longitude": "103.91920000",
    "wikiDataId": null
  },
  {
    "id": 64975,
    "name": "Sampov Meas",
    "state_id": 3977,
    "state_code": "15",
    "country_id": 37,
    "country_code": "KH",
    "latitude": "12.47055000",
    "longitude": "103.91817000",
    "wikiDataId": null
  },
  {
    "id": 65007,
    "name": "Srŏk Kândiĕng",
    "state_id": 3977,
    "state_code": "15",
    "country_id": 37,
    "country_code": "KH",
    "latitude": "12.71245000",
    "longitude": "104.02592000",
    "wikiDataId": null
  },
  {
    "id": 65027,
    "name": "Srŏk Véal Vêng",
    "state_id": 3977,
    "state_code": "15",
    "country_id": 37,
    "country_code": "KH",
    "latitude": "12.24230000",
    "longitude": "103.13444000",
    "wikiDataId": null
  }
]