[
  {
    "id": 148287,
    "name": "Achi",
    "state_id": 4924,
    "state_code": "39",
    "country_id": 109,
    "country_code": "JP",
    "latitude": "35.44388889",
    "longitude": "137.74750000",
    "wikiDataId": null
  },
  {
    "id": 148214,
    "name": "Agematsu",
    "state_id": 4924,
    "state_code": "39",
    "country_id": 109,
    "country_code": "JP",
    "latitude": "35.78388889",
    "longitude": "137.69416667",
    "wikiDataId": null
  },
  {
    "id": 148213,
    "name": "Aki",
    "state_id": 4924,
    "state_code": "39",
    "country_id": 109,
    "country_code": "JP",
    "latitude": "33.50250000",
    "longitude": "133.90722222",
    "wikiDataId": null
  },
  {
    "id": 148279,
    "name": "Anan",
    "state_id": 4924,
    "state_code": "39",
    "country_id": 109,
    "country_code": "JP",
    "latitude": "35.32361111",
    "longitude": "137.81611111",
    "wikiDataId": null
  },
  {
    "id": 148259,
    "name": "Aoki",
    "state_id": 4924,
    "state_code": "39",
    "country_id": 109,
    "country_code": "JP",
    "latitude": "36.37000000",
    "longitude": "138.12861111",
    "wikiDataId": null
  },
  {
    "id": 148261,
    "name": "Asahi",
    "state_id": 4924,
    "state_code": "39",
    "country_id": 109,
    "country_code": "JP",
    "latitude": "36.12361111",
    "longitude": "137.86638889",
    "wikiDataId": null
  },
  {
    "id": 148299,
    "name": "Azumino",
    "state_id": 4924,
    "state_code": "39",
    "country_id": 109,
    "country_code": "JP",
    "latitude": "36.30388889",
    "longitude": "137.90555556",
    "wikiDataId": null
  },
  {
    "id": 148293,
    "name": "Chikuhoku",
    "state_id": 4924,
    "state_code": "39",
    "country_id": 109,
    "country_code": "JP",
    "latitude": "36.42120000",
    "longitude": "138.04011000",
    "wikiDataId": null
  },
  {
    "id": 148304,
    "name": "Chino",
    "state_id": 4924,
    "state_code": "39",
    "country_id": 109,
    "country_code": "JP",
    "latitude": "35.99555556",
    "longitude": "138.15888889",
    "wikiDataId": null
  },
  {
    "id": 148225,
    "name": "Fujimi",
    "state_id": 4924,
    "state_code": "39",
    "country_id": 109,
    "country_code": "JP",
    "latitude": "35.91472222",
    "longitude": "138.24083333",
    "wikiDataId": null
  },
  {
    "id": 148257,
    "name": "Geisei",
    "state_id": 4924,
    "state_code": "39",
    "country_id": 109,
    "country_code": "JP",
    "latitude": "33.52694444",
    "longitude": "133.80916667",
    "wikiDataId": null
  },
  {
    "id": 148269,
    "name": "Hakuba",
    "state_id": 4924,
    "state_code": "39",
    "country_id": 109,
    "country_code": "JP",
    "latitude": "36.70000000",
    "longitude": "137.86666667",
    "wikiDataId": null
  },
  {
    "id": 148274,
    "name": "Hara",
    "state_id": 4924,
    "state_code": "39",
    "country_id": 109,
    "country_code": "JP",
    "latitude": "35.96444444",
    "longitude": "138.21750000",
    "wikiDataId": null
  },
  {
    "id": 148276,
    "name": "Hidaka",
    "state_id": 4924,
    "state_code": "39",
    "country_id": 109,
    "country_code": "JP",
    "latitude": "33.53472222",
    "longitude": "133.37333333",
    "wikiDataId": null
  },
  {
    "id": 148286,
    "name": "Hiraya",
    "state_id": 4924,
    "state_code": "39",
    "country_id": 109,
    "country_code": "JP",
    "latitude": "35.32333333",
    "longitude": "137.63027778",
    "wikiDataId": null
  },
  {
    "id": 148315,
    "name": "Iida",
    "state_id": 4924,
    "state_code": "39",
    "country_id": 109,
    "country_code": "JP",
    "latitude": "35.51472222",
    "longitude": "137.82194444",
    "wikiDataId": null
  },
  {
    "id": 148236,
    "name": "Iijima",
    "state_id": 4924,
    "state_code": "39",
    "country_id": 109,
    "country_code": "JP",
    "latitude": "35.67638889",
    "longitude": "137.91944444",
    "wikiDataId": null
  },
  {
    "id": 148312,
    "name": "Iiyama",
    "state_id": 4924,
    "state_code": "39",
    "country_id": 109,
    "country_code": "JP",
    "latitude": "36.85166667",
    "longitude": "138.36555556",
    "wikiDataId": null
  },
  {
    "id": 148290,
    "name": "Iizuna",
    "state_id": 4924,
    "state_code": "39",
    "country_id": 109,
    "country_code": "JP",
    "latitude": "36.75500000",
    "longitude": "138.23555556",
    "wikiDataId": null
  },
  {
    "id": 148284,
    "name": "Ikeda",
    "state_id": 4924,
    "state_code": "39",
    "country_id": 109,
    "country_code": "JP",
    "latitude": "36.42138889",
    "longitude": "137.87472222",
    "wikiDataId": null
  },
  {
    "id": 148267,
    "name": "Ikusaka",
    "state_id": 4924,
    "state_code": "39",
    "country_id": 109,
    "country_code": "JP",
    "latitude": "36.42527778",
    "longitude": "137.92750000",
    "wikiDataId": null
  },
  {
    "id": 148313,
    "name": "Ina",
    "state_id": 4924,
    "state_code": "39",
    "country_id": 109,
    "country_code": "JP",
    "latitude": "35.82750000",
    "longitude": "137.95388889",
    "wikiDataId": null
  },
  {
    "id": 148305,
    "name": "Ino",
    "state_id": 4924,
    "state_code": "39",
    "country_id": 109,
    "country_code": "JP",
    "latitude": "33.55000000",
    "longitude": "133.43333333",
    "wikiDataId": null
  },
  {
    "id": 148237,
    "name": "Karuizawa",
    "state_id": 4924,
    "state_code": "39",
    "country_id": 109,
    "country_code": "JP",
    "latitude": "36.34833333",
    "longitude": "138.59694444",
    "wikiDataId": null
  },
  {
    "id": 148288,
    "name": "Kawakami",
    "state_id": 4924,
    "state_code": "39",
    "country_id": 109,
    "country_code": "JP",
    "latitude": "35.97555556",
    "longitude": "138.57833333",
    "wikiDataId": null
  },
  {
    "id": 148264,
    "name": "Kijimadaira",
    "state_id": 4924,
    "state_code": "39",
    "country_id": 109,
    "country_code": "JP",
    "latitude": "36.85861111",
    "longitude": "138.40666667",
    "wikiDataId": null
  },
  {
    "id": 148217,
    "name": "Kiso",
    "state_id": 4924,
    "state_code": "39",
    "country_id": 109,
    "country_code": "JP",
    "latitude": "35.93638889",
    "longitude": "137.78305556",
    "wikiDataId": null
  },
  {
    "id": 148281,
    "name": "Kitaaiki",
    "state_id": 4924,
    "state_code": "39",
    "country_id": 109,
    "country_code": "JP",
    "latitude": "36.05916667",
    "longitude": "138.55111111",
    "wikiDataId": null
  },
  {
    "id": 148289,
    "name": "Kitagawa",
    "state_id": 4924,
    "state_code": "39",
    "country_id": 109,
    "country_code": "JP",
    "latitude": "33.44777778",
    "longitude": "134.04222222",
    "wikiDataId": null
  },
  {
    "id": 148317,
    "name": "Kōchi",
    "state_id": 4924,
    "state_code": "39",
    "country_id": 109,
    "country_code": "JP",
    "latitude": "33.55888889",
    "longitude": "133.53138889",
    "wikiDataId": null
  },
  {
    "id": 148306,
    "name": "Komoro",
    "state_id": 4924,
    "state_code": "39",
    "country_id": 109,
    "country_code": "JP",
    "latitude": "36.32750000",
    "longitude": "138.42583333",
    "wikiDataId": null
  },
  {
    "id": 148300,
    "name": "Kōnan",
    "state_id": 4924,
    "state_code": "39",
    "country_id": 109,
    "country_code": "JP",
    "latitude": "33.56416667",
    "longitude": "133.70055556",
    "wikiDataId": null
  },
  {
    "id": 148280,
    "name": "Kuroshio",
    "state_id": 4924,
    "state_code": "39",
    "country_id": 109,
    "country_code": "JP",
    "latitude": "33.02500000",
    "longitude": "133.01083333",
    "wikiDataId": null
  },
  {
    "id": 148252,
    "name": "Matsukawa",
    "state_id": 4924,
    "state_code": "39",
    "country_id": 109,
    "country_code": "JP",
    "latitude": "35.59722222",
    "longitude": "137.90972222",
    "wikiDataId": null
  },
  {
    "id": 148292,
    "name": "Matsumoto",
    "state_id": 4924,
    "state_code": "39",
    "country_id": 109,
    "country_code": "JP",
    "latitude": "36.23805556",
    "longitude": "137.97194444",
    "wikiDataId": null
  },
  {
    "id": 148227,
    "name": "Mihara",
    "state_id": 4924,
    "state_code": "39",
    "country_id": 109,
    "country_code": "JP",
    "latitude": "32.90611111",
    "longitude": "132.84722222",
    "wikiDataId": null
  },
  {
    "id": 148256,
    "name": "Minamiaiki",
    "state_id": 4924,
    "state_code": "39",
    "country_id": 109,
    "country_code": "JP",
    "latitude": "36.03611111",
    "longitude": "138.54694444",
    "wikiDataId": null
  },
  {
    "id": 148228,
    "name": "Minamimaki",
    "state_id": 4924,
    "state_code": "39",
    "country_id": 109,
    "country_code": "JP",
    "latitude": "36.02083333",
    "longitude": "138.49222222",
    "wikiDataId": null
  },
  {
    "id": 148235,
    "name": "Minamiminowa",
    "state_id": 4924,
    "state_code": "39",
    "country_id": 109,
    "country_code": "JP",
    "latitude": "35.87277778",
    "longitude": "137.97527778",
    "wikiDataId": null
  },
  {
    "id": 148254,
    "name": "Minowa",
    "state_id": 4924,
    "state_code": "39",
    "country_id": 109,
    "country_code": "JP",
    "latitude": "35.91500000",
    "longitude": "137.98194444",
    "wikiDataId": null
  },
  {
    "id": 148247,
    "name": "Mitsushima",
    "state_id": 4924,
    "state_code": "39",
    "country_id": 109,
    "country_code": "JP",
    "latitude": "35.27525100",
    "longitude": "137.85213700",
    "wikiDataId": null
  },
  {
    "id": 148265,
    "name": "Miyada",
    "state_id": 4924,
    "state_code": "39",
    "country_id": 109,
    "country_code": "JP",
    "latitude": "35.76888889",
    "longitude": "137.94422222",
    "wikiDataId": null
  },
  {
    "id": 148291,
    "name": "Miyota",
    "state_id": 4924,
    "state_code": "39",
    "country_id": 109,
    "country_code": "JP",
    "latitude": "36.32138889",
    "longitude": "138.50888889",
    "wikiDataId": null
  },
  {
    "id": 148215,
    "name": "Motoyama",
    "state_id": 4924,
    "state_code": "39",
    "country_id": 109,
    "country_code": "JP",
    "latitude": "35.16402778",
    "longitude": "136.96361111",
    "wikiDataId": null
  },
  {
    "id": 148314,
    "name": "Muroto",
    "state_id": 4924,
    "state_code": "39",
    "country_id": 109,
    "country_code": "JP",
    "latitude": "33.29000000",
    "longitude": "134.15194444",
    "wikiDataId": null
  },
  {
    "id": 148310,
    "name": "Nagano",
    "state_id": 4924,
    "state_code": "39",
    "country_id": 109,
    "country_code": "JP",
    "latitude": "36.64861111",
    "longitude": "138.19277778",
    "wikiDataId": null
  },
  {
    "id": 148238,
    "name": "Nagawa",
    "state_id": 4924,
    "state_code": "39",
    "country_id": 109,
    "country_code": "JP",
    "latitude": "36.25611111",
    "longitude": "138.26777778",
    "wikiDataId": null
  },
  {
    "id": 148263,
    "name": "Nagiso",
    "state_id": 4924,
    "state_code": "39",
    "country_id": 109,
    "country_code": "JP",
    "latitude": "35.60361111",
    "longitude": "137.60888889",
    "wikiDataId": null
  },
  {
    "id": 148270,
    "name": "Nahari",
    "state_id": 4924,
    "state_code": "39",
    "country_id": 109,
    "country_code": "JP",
    "latitude": "33.42416667",
    "longitude": "134.02111111",
    "wikiDataId": null
  },
  {
    "id": 148224,
    "name": "Nakagawa",
    "state_id": 4924,
    "state_code": "39",
    "country_id": 109,
    "country_code": "JP",
    "latitude": "35.63444444",
    "longitude": "137.94611111",
    "wikiDataId": null
  },
  {
    "id": 148243,
    "name": "Nakajō",
    "state_id": 4924,
    "state_code": "39",
    "country_id": 109,
    "country_code": "JP",
    "latitude": "36.61222222",
    "longitude": "138.03652778",
    "wikiDataId": null
  },
  {
    "id": 148245,
    "name": "Nakamura",
    "state_id": 4924,
    "state_code": "39",
    "country_id": 109,
    "country_code": "JP",
    "latitude": "32.99138889",
    "longitude": "132.93375000",
    "wikiDataId": null
  },
  {
    "id": 148249,
    "name": "Nakano",
    "state_id": 4924,
    "state_code": "39",
    "country_id": 109,
    "country_code": "JP",
    "latitude": "36.74194444",
    "longitude": "138.36944444",
    "wikiDataId": null
  },
  {
    "id": 148231,
    "name": "Nakatosa",
    "state_id": 4924,
    "state_code": "39",
    "country_id": 109,
    "country_code": "JP",
    "latitude": "33.32750000",
    "longitude": "133.22833333",
    "wikiDataId": null
  },
  {
    "id": 148302,
    "name": "Nankoku",
    "state_id": 4924,
    "state_code": "39",
    "country_id": 109,
    "country_code": "JP",
    "latitude": "33.57555556",
    "longitude": "133.64138889",
    "wikiDataId": null
  },
  {
    "id": 148297,
    "name": "Neba",
    "state_id": 4924,
    "state_code": "39",
    "country_id": 109,
    "country_code": "JP",
    "latitude": "35.25305556",
    "longitude": "137.58111111",
    "wikiDataId": null
  },
  {
    "id": 148271,
    "name": "Niyodogawa",
    "state_id": 4924,
    "state_code": "39",
    "country_id": 109,
    "country_code": "JP",
    "latitude": "33.57527778",
    "longitude": "133.16833333",
    "wikiDataId": null
  },
  {
    "id": 148240,
    "name": "Nozawaonsen",
    "state_id": 4924,
    "state_code": "39",
    "country_id": 109,
    "country_code": "JP",
    "latitude": "36.92277778",
    "longitude": "138.44055556",
    "wikiDataId": null
  },
  {
    "id": 148233,
    "name": "Obuse",
    "state_id": 4924,
    "state_code": "39",
    "country_id": 109,
    "country_code": "JP",
    "latitude": "36.69777778",
    "longitude": "138.31222222",
    "wikiDataId": null
  },
  {
    "id": 148266,
    "name": "Ochi",
    "state_id": 4924,
    "state_code": "39",
    "country_id": 109,
    "country_code": "JP",
    "latitude": "33.53277778",
    "longitude": "133.25194444",
    "wikiDataId": null
  },
  {
    "id": 148303,
    "name": "Ogawa",
    "state_id": 4924,
    "state_code": "39",
    "country_id": 109,
    "country_code": "JP",
    "latitude": "36.61694444",
    "longitude": "137.97444444",
    "wikiDataId": null
  },
  {
    "id": 148262,
    "name": "Ōkawa",
    "state_id": 4924,
    "state_code": "39",
    "country_id": 109,
    "country_code": "JP",
    "latitude": "33.78361111",
    "longitude": "133.46666667",
    "wikiDataId": null
  },
  {
    "id": 148307,
    "name": "Okaya",
    "state_id": 4924,
    "state_code": "39",
    "country_id": 109,
    "country_code": "JP",
    "latitude": "36.06694444",
    "longitude": "138.04944444",
    "wikiDataId": null
  },
  {
    "id": 148251,
    "name": "Ōkuwa",
    "state_id": 4924,
    "state_code": "39",
    "country_id": 109,
    "country_code": "JP",
    "latitude": "35.68277778",
    "longitude": "137.66500000",
    "wikiDataId": null
  },
  {
    "id": 148321,
    "name": "Ōmachi",
    "state_id": 4924,
    "state_code": "39",
    "country_id": 109,
    "country_code": "JP",
    "latitude": "36.50000000",
    "longitude": "137.85000000",
    "wikiDataId": null
  },
  {
    "id": 148241,
    "name": "Omi",
    "state_id": 4924,
    "state_code": "39",
    "country_id": 109,
    "country_code": "JP",
    "latitude": "36.45611111",
    "longitude": "138.04527778",
    "wikiDataId": null
  },
  {
    "id": 148260,
    "name": "Ōshika",
    "state_id": 4924,
    "state_code": "39",
    "country_id": 109,
    "country_code": "JP",
    "latitude": "35.57833333",
    "longitude": "138.03416667",
    "wikiDataId": null
  },
  {
    "id": 148250,
    "name": "Ōtaki",
    "state_id": 4924,
    "state_code": "39",
    "country_id": 109,
    "country_code": "JP",
    "latitude": "35.80944444",
    "longitude": "137.55111111",
    "wikiDataId": null
  },
  {
    "id": 148242,
    "name": "Otari",
    "state_id": 4924,
    "state_code": "39",
    "country_id": 109,
    "country_code": "JP",
    "latitude": "36.77916667",
    "longitude": "137.90833333",
    "wikiDataId": null
  },
  {
    "id": 148218,
    "name": "Ōtoyo",
    "state_id": 4924,
    "state_code": "39",
    "country_id": 109,
    "country_code": "JP",
    "latitude": "33.76416667",
    "longitude": "133.66416667",
    "wikiDataId": null
  },
  {
    "id": 148223,
    "name": "Ōtsuki",
    "state_id": 4924,
    "state_code": "39",
    "country_id": 109,
    "country_code": "JP",
    "latitude": "32.84138889",
    "longitude": "132.70694444",
    "wikiDataId": null
  },
  {
    "id": 148275,
    "name": "Sakae",
    "state_id": 4924,
    "state_code": "39",
    "country_id": 109,
    "country_code": "JP",
    "latitude": "36.98750000",
    "longitude": "138.57750000",
    "wikiDataId": null
  },
  {
    "id": 148216,
    "name": "Sakaki",
    "state_id": 4924,
    "state_code": "39",
    "country_id": 109,
    "country_code": "JP",
    "latitude": "36.46194444",
    "longitude": "138.18027778",
    "wikiDataId": null
  },
  {
    "id": 148255,
    "name": "Sakawa",
    "state_id": 4924,
    "state_code": "39",
    "country_id": 109,
    "country_code": "JP",
    "latitude": "33.50083333",
    "longitude": "133.28666667",
    "wikiDataId": null
  },
  {
    "id": 148316,
    "name": "Saku",
    "state_id": 4924,
    "state_code": "39",
    "country_id": 109,
    "country_code": "JP",
    "latitude": "36.24888889",
    "longitude": "138.47694444",
    "wikiDataId": null
  },
  {
    "id": 148239,
    "name": "Sakuho",
    "state_id": 4924,
    "state_code": "39",
    "country_id": 109,
    "country_code": "JP",
    "latitude": "36.16111111",
    "longitude": "138.48333333",
    "wikiDataId": null
  },
  {
    "id": 148294,
    "name": "Sanada",
    "state_id": 4924,
    "state_code": "39",
    "country_id": 109,
    "country_code": "JP",
    "latitude": "36.44088889",
    "longitude": "138.30361111",
    "wikiDataId": null
  },
  {
    "id": 148273,
    "name": "Shimanto",
    "state_id": 4924,
    "state_code": "39",
    "country_id": 109,
    "country_code": "JP",
    "latitude": "33.20833333",
    "longitude": "133.13555556",
    "wikiDataId": null
  },
  {
    "id": 148277,
    "name": "Shimojō",
    "state_id": 4924,
    "state_code": "39",
    "country_id": 109,
    "country_code": "JP",
    "latitude": "35.39750000",
    "longitude": "137.78611111",
    "wikiDataId": null
  },
  {
    "id": 148272,
    "name": "Shimosuwa",
    "state_id": 4924,
    "state_code": "39",
    "country_id": 109,
    "country_code": "JP",
    "latitude": "36.06972222",
    "longitude": "138.08027778",
    "wikiDataId": null
  },
  {
    "id": 148278,
    "name": "Shinano",
    "state_id": 4924,
    "state_code": "39",
    "country_id": 109,
    "country_code": "JP",
    "latitude": "36.80638889",
    "longitude": "138.20694444",
    "wikiDataId": null
  },
  {
    "id": 148301,
    "name": "Shiojiri",
    "state_id": 4924,
    "state_code": "39",
    "country_id": 109,
    "country_code": "JP",
    "latitude": "36.11666667",
    "longitude": "137.95000000",
    "wikiDataId": null
  },
  {
    "id": 148308,
    "name": "Sukumo",
    "state_id": 4924,
    "state_code": "39",
    "country_id": 109,
    "country_code": "JP",
    "latitude": "32.93888889",
    "longitude": "132.72611111",
    "wikiDataId": null
  },
  {
    "id": 148318,
    "name": "Susaki",
    "state_id": 4924,
    "state_code": "39",
    "country_id": 109,
    "country_code": "JP",
    "latitude": "33.40083333",
    "longitude": "133.28305556",
    "wikiDataId": null
  },
  {
    "id": 148309,
    "name": "Suwa",
    "state_id": 4924,
    "state_code": "39",
    "country_id": 109,
    "country_code": "JP",
    "latitude": "36.03916667",
    "longitude": "138.11416667",
    "wikiDataId": null
  },
  {
    "id": 148226,
    "name": "Takagi",
    "state_id": 4924,
    "state_code": "39",
    "country_id": 109,
    "country_code": "JP",
    "latitude": "35.51388889",
    "longitude": "137.87388889",
    "wikiDataId": null
  },
  {
    "id": 148222,
    "name": "Takamori",
    "state_id": 4924,
    "state_code": "39",
    "country_id": 109,
    "country_code": "JP",
    "latitude": "35.55138889",
    "longitude": "137.87861111",
    "wikiDataId": null
  },
  {
    "id": 148283,
    "name": "Takayama",
    "state_id": 4924,
    "state_code": "39",
    "country_id": 109,
    "country_code": "JP",
    "latitude": "36.67972222",
    "longitude": "138.36305556",
    "wikiDataId": null
  },
  {
    "id": 148232,
    "name": "Tano",
    "state_id": 4924,
    "state_code": "39",
    "country_id": 109,
    "country_code": "JP",
    "latitude": "33.42777778",
    "longitude": "134.00833333",
    "wikiDataId": null
  },
  {
    "id": 148285,
    "name": "Tateshina",
    "state_id": 4924,
    "state_code": "39",
    "country_id": 109,
    "country_code": "JP",
    "latitude": "36.27194444",
    "longitude": "138.31611111",
    "wikiDataId": null
  },
  {
    "id": 148295,
    "name": "Tatsuno",
    "state_id": 4924,
    "state_code": "39",
    "country_id": 109,
    "country_code": "JP",
    "latitude": "35.98250000",
    "longitude": "137.98750000",
    "wikiDataId": null
  },
  {
    "id": 148244,
    "name": "Togari",
    "state_id": 4924,
    "state_code": "39",
    "country_id": 109,
    "country_code": "JP",
    "latitude": "36.91666667",
    "longitude": "138.38333333",
    "wikiDataId": null
  },
  {
    "id": 148212,
    "name": "Tōmi",
    "state_id": 4924,
    "state_code": "39",
    "country_id": 109,
    "country_code": "JP",
    "latitude": "36.35944444",
    "longitude": "138.33055556",
    "wikiDataId": null
  },
  {
    "id": 148320,
    "name": "Tosa",
    "state_id": 4924,
    "state_code": "39",
    "country_id": 109,
    "country_code": "JP",
    "latitude": "33.49611111",
    "longitude": "133.42527778",
    "wikiDataId": null
  },
  {
    "id": 148319,
    "name": "Tosashimizu",
    "state_id": 4924,
    "state_code": "39",
    "country_id": 109,
    "country_code": "JP",
    "latitude": "32.78138889",
    "longitude": "132.95500000",
    "wikiDataId": null
  },
  {
    "id": 148296,
    "name": "Tōyō",
    "state_id": 4924,
    "state_code": "39",
    "country_id": 109,
    "country_code": "JP",
    "latitude": "33.52805556",
    "longitude": "134.28000000",
    "wikiDataId": null
  },
  {
    "id": 148268,
    "name": "Toyooka",
    "state_id": 4924,
    "state_code": "39",
    "country_id": 109,
    "country_code": "JP",
    "latitude": "35.55138889",
    "longitude": "137.89583333",
    "wikiDataId": null
  },
  {
    "id": 148221,
    "name": "Tsuno",
    "state_id": 4924,
    "state_code": "39",
    "country_id": 109,
    "country_code": "JP",
    "latitude": "33.44666667",
    "longitude": "133.19944444",
    "wikiDataId": null
  },
  {
    "id": 148246,
    "name": "Ueda",
    "state_id": 4924,
    "state_code": "39",
    "country_id": 109,
    "country_code": "JP",
    "latitude": "36.40194444",
    "longitude": "138.24916667",
    "wikiDataId": null
  },
  {
    "id": 148258,
    "name": "Umaji",
    "state_id": 4924,
    "state_code": "39",
    "country_id": 109,
    "country_code": "JP",
    "latitude": "33.55527778",
    "longitude": "134.04805556",
    "wikiDataId": null
  },
  {
    "id": 148220,
    "name": "Urugi",
    "state_id": 4924,
    "state_code": "39",
    "country_id": 109,
    "country_code": "JP",
    "latitude": "35.27111111",
    "longitude": "137.71111111",
    "wikiDataId": null
  },
  {
    "id": 148248,
    "name": "Usa",
    "state_id": 4924,
    "state_code": "39",
    "country_id": 109,
    "country_code": "JP",
    "latitude": "33.44936111",
    "longitude": "133.43711111",
    "wikiDataId": null
  },
  {
    "id": 148219,
    "name": "Yamagata",
    "state_id": 4924,
    "state_code": "39",
    "country_id": 109,
    "country_code": "JP",
    "latitude": "36.16805556",
    "longitude": "137.87888889",
    "wikiDataId": null
  },
  {
    "id": 148234,
    "name": "Yamanouchi",
    "state_id": 4924,
    "state_code": "39",
    "country_id": 109,
    "country_code": "JP",
    "latitude": "36.74472222",
    "longitude": "138.41250000",
    "wikiDataId": null
  },
  {
    "id": 148282,
    "name": "Yasuda",
    "state_id": 4924,
    "state_code": "39",
    "country_id": 109,
    "country_code": "JP",
    "latitude": "33.43833333",
    "longitude": "133.98111111",
    "wikiDataId": null
  },
  {
    "id": 148229,
    "name": "Yasuoka",
    "state_id": 4924,
    "state_code": "39",
    "country_id": 109,
    "country_code": "JP",
    "latitude": "35.37722222",
    "longitude": "137.84583333",
    "wikiDataId": null
  },
  {
    "id": 148253,
    "name": "Yawata",
    "state_id": 4924,
    "state_code": "39",
    "country_id": 109,
    "country_code": "JP",
    "latitude": "36.51666667",
    "longitude": "138.10000000",
    "wikiDataId": null
  },
  {
    "id": 148230,
    "name": "Yusuhara",
    "state_id": 4924,
    "state_code": "39",
    "country_id": 109,
    "country_code": "JP",
    "latitude": "33.39194444",
    "longitude": "132.92694444",
    "wikiDataId": null
  }
]