[
  {
    "id": 38735,
    "name": "Anjala",
    "state_id": 1512,
    "state_code": "09",
    "country_id": 74,
    "country_code": "FI",
    "latitude": "60.68333000",
    "longitude": "26.83333000",
    "wikiDataId": null
  },
  {
    "id": 38744,
    "name": "Elimäki",
    "state_id": 1512,
    "state_code": "09",
    "country_id": 74,
    "country_code": "FI",
    "latitude": "60.71667000",
    "longitude": "26.46667000",
    "wikiDataId": null
  },
  {
    "id": 38759,
    "name": "Hamina",
    "state_id": 1512,
    "state_code": "09",
    "country_id": 74,
    "country_code": "FI",
    "latitude": "60.56974000",
    "longitude": "27.19794000",
    "wikiDataId": null
  },
  {
    "id": 38784,
    "name": "Iitti",
    "state_id": 1512,
    "state_code": "09",
    "country_id": 74,
    "country_code": "FI",
    "latitude": "60.89488000",
    "longitude": "26.33869000",
    "wikiDataId": null
  },
  {
    "id": 38794,
    "name": "Jaala",
    "state_id": 1512,
    "state_code": "09",
    "country_id": 74,
    "country_code": "FI",
    "latitude": "61.05251000",
    "longitude": "26.48117000",
    "wikiDataId": null
  },
  {
    "id": 38825,
    "name": "Karhula",
    "state_id": 1512,
    "state_code": "09",
    "country_id": 74,
    "country_code": "FI",
    "latitude": "60.52156000",
    "longitude": "26.93125000",
    "wikiDataId": null
  },
  {
    "id": 38872,
    "name": "Kotka",
    "state_id": 1512,
    "state_code": "09",
    "country_id": 74,
    "country_code": "FI",
    "latitude": "60.46640000",
    "longitude": "26.94582000",
    "wikiDataId": null
  },
  {
    "id": 38874,
    "name": "Kouvola",
    "state_id": 1512,
    "state_code": "09",
    "country_id": 74,
    "country_code": "FI",
    "latitude": "60.86667000",
    "longitude": "26.70000000",
    "wikiDataId": null
  },
  {
    "id": 38935,
    "name": "Miehikkälä",
    "state_id": 1512,
    "state_code": "09",
    "country_id": 74,
    "country_code": "FI",
    "latitude": "60.66667000",
    "longitude": "27.70000000",
    "wikiDataId": null
  },
  {
    "id": 39001,
    "name": "Pyhtää",
    "state_id": 1512,
    "state_code": "09",
    "country_id": 74,
    "country_code": "FI",
    "latitude": "60.49349000",
    "longitude": "26.54346000",
    "wikiDataId": null
  },
  {
    "id": 39112,
    "name": "Virojoki",
    "state_id": 1512,
    "state_code": "09",
    "country_id": 74,
    "country_code": "FI",
    "latitude": "60.57940000",
    "longitude": "27.70354000",
    "wikiDataId": null
  }
]