[
  {
    "id": 48253,
    "name": "Annahilt",
    "state_id": 2460,
    "state_code": "LBC",
    "country_id": 232,
    "country_code": "GB",
    "latitude": "54.43333000",
    "longitude": "-6.00000000",
    "wikiDataId": null
  },
  {
    "id": 48269,
    "name": "Ardglass",
    "state_id": 2460,
    "state_code": "LBC",
    "country_id": 232,
    "country_code": "GB",
    "latitude": "54.26312000",
    "longitude": "-5.60981000",
    "wikiDataId": null
  },
  {
    "id": 48357,
    "name": "Ballynahinch",
    "state_id": 2460,
    "state_code": "LBC",
    "country_id": 232,
    "country_code": "GB",
    "latitude": "54.40230000",
    "longitude": "-5.89717000",
    "wikiDataId": null
  },
  {
    "id": 49139,
    "name": "Craigavon",
    "state_id": 2460,
    "state_code": "LBC",
    "country_id": 232,
    "country_code": "GB",
    "latitude": "54.44709000",
    "longitude": "-6.38700000",
    "wikiDataId": null
  },
  {
    "id": 49175,
    "name": "Crossgar",
    "state_id": 2460,
    "state_code": "LBC",
    "country_id": 232,
    "country_code": "GB",
    "latitude": "54.39675000",
    "longitude": "-5.76061000",
    "wikiDataId": null
  },
  {
    "id": 49321,
    "name": "Downpatrick",
    "state_id": 2460,
    "state_code": "LBC",
    "country_id": 232,
    "country_code": "GB",
    "latitude": "54.32814000",
    "longitude": "-5.71529000",
    "wikiDataId": null
  },
  {
    "id": 49350,
    "name": "Dundrum",
    "state_id": 2460,
    "state_code": "LBC",
    "country_id": 232,
    "country_code": "GB",
    "latitude": "54.25750000",
    "longitude": "-5.84455000",
    "wikiDataId": null
  },
  {
    "id": 49940,
    "name": "Hillsborough",
    "state_id": 2460,
    "state_code": "LBC",
    "country_id": 232,
    "country_code": "GB",
    "latitude": "54.46345000",
    "longitude": "-6.07664000",
    "wikiDataId": null
  },
  {
    "id": 50148,
    "name": "Killyleagh",
    "state_id": 2460,
    "state_code": "LBC",
    "country_id": 232,
    "country_code": "GB",
    "latitude": "54.40135000",
    "longitude": "-5.64800000",
    "wikiDataId": null
  },
  {
    "id": 50317,
    "name": "Lisburn",
    "state_id": 2460,
    "state_code": "LBC",
    "country_id": 232,
    "country_code": "GB",
    "latitude": "54.52337000",
    "longitude": "-6.03527000",
    "wikiDataId": null
  },
  {
    "id": 50318,
    "name": "Lisburn and Castlereagh",
    "state_id": 2460,
    "state_code": "LBC",
    "country_id": 232,
    "country_code": "GB",
    "latitude": "54.50824000",
    "longitude": "-6.05246000",
    "wikiDataId": null
  },
  {
    "id": 50468,
    "name": "Magheralin",
    "state_id": 2460,
    "state_code": "LBC",
    "country_id": 232,
    "country_code": "GB",
    "latitude": "54.46695000",
    "longitude": "-6.25980000",
    "wikiDataId": null
  },
  {
    "id": 50612,
    "name": "Moira",
    "state_id": 2460,
    "state_code": "LBC",
    "country_id": 232,
    "country_code": "GB",
    "latitude": "54.48021000",
    "longitude": "-6.22822000",
    "wikiDataId": null
  },
  {
    "id": 51178,
    "name": "Saintfield",
    "state_id": 2460,
    "state_code": "LBC",
    "country_id": 232,
    "country_code": "GB",
    "latitude": "54.46046000",
    "longitude": "-5.83065000",
    "wikiDataId": null
  },
  {
    "id": 51751,
    "name": "Waringstown",
    "state_id": 2460,
    "state_code": "LBC",
    "country_id": 232,
    "country_code": "GB",
    "latitude": "54.43431000",
    "longitude": "-6.29929000",
    "wikiDataId": null
  }
]