[
  {
    "id": 153850,
    "name": "Balfai",
    "state_id": 236,
    "state_code": "41",
    "country_id": 26,
    "country_code": "BT",
    "latitude": "27.21670320",
    "longitude": "91.47940030",
    "wikiDataId": null
  },
  {
    "id": 153846,
    "name": "Ghunkarah",
    "state_id": 236,
    "state_code": "41",
    "country_id": 26,
    "country_code": "BT",
    "latitude": "27.40000000",
    "longitude": "91.56670000",
    "wikiDataId": null
  },
  {
    "id": 153845,
    "name": "Ngalangkang",
    "state_id": 236,
    "state_code": "41",
    "country_id": 26,
    "country_code": "BT",
    "latitude": "27.45282330",
    "longitude": "91.56477710",
    "wikiDataId": null
  },
  {
    "id": 153847,
    "name": "Rungzyung",
    "state_id": 236,
    "state_code": "41",
    "country_id": 26,
    "country_code": "BT",
    "latitude": "27.35000000",
    "longitude": "91.66670000",
    "wikiDataId": null
  },
  {
    "id": 153851,
    "name": "Sassi",
    "state_id": 236,
    "state_code": "41",
    "country_id": 26,
    "country_code": "BT",
    "latitude": "27.13330000",
    "longitude": "91.43330000",
    "wikiDataId": null
  },
  {
    "id": 153849,
    "name": "Thrimshing",
    "state_id": 236,
    "state_code": "41",
    "country_id": 26,
    "country_code": "BT",
    "latitude": "27.13330000",
    "longitude": "91.61670000",
    "wikiDataId": null
  },
  {
    "id": 15724,
    "name": "Trashigang",
    "state_id": 236,
    "state_code": "41",
    "country_id": 26,
    "country_code": "BT",
    "latitude": "27.33310000",
    "longitude": "91.55424000",
    "wikiDataId": null
  },
  {
    "id": 153848,
    "name": "Wamrong",
    "state_id": 236,
    "state_code": "41",
    "country_id": 26,
    "country_code": "BT",
    "latitude": "27.13784530",
    "longitude": "91.56044470",
    "wikiDataId": null
  }
]