[
  {
    "id": 68025,
    "name": "Acahuasco",
    "state_id": 3470,
    "state_code": "HID",
    "country_id": 142,
    "country_code": "MX",
    "latitude": "20.96254000",
    "longitude": "-98.59656000",
    "wikiDataId": null
  },
  {
    "id": 68043,
    "name": "Acatepec",
    "state_id": 3470,
    "state_code": "HID",
    "country_id": 142,
    "country_code": "MX",
    "latitude": "20.95367000",
    "longitude": "-98.27373000",
    "wikiDataId": null
  },
  {
    "id": 68047,
    "name": "Acatlán",
    "state_id": 3470,
    "state_code": "HID",
    "country_id": 142,
    "country_code": "MX",
    "latitude": "20.14562000",
    "longitude": "-98.43959000",
    "wikiDataId": null
  },
  {
    "id": 68055,
    "name": "Acaxochitlán",
    "state_id": 3470,
    "state_code": "HID",
    "country_id": 142,
    "country_code": "MX",
    "latitude": "20.16674000",
    "longitude": "-98.18971000",
    "wikiDataId": null
  },
  {
    "id": 68057,
    "name": "Acayuca",
    "state_id": 3470,
    "state_code": "HID",
    "country_id": 142,
    "country_code": "MX",
    "latitude": "20.02567000",
    "longitude": "-98.84110000",
    "wikiDataId": null
  },
  {
    "id": 68062,
    "name": "Acoapa",
    "state_id": 3470,
    "state_code": "HID",
    "country_id": 142,
    "country_code": "MX",
    "latitude": "21.12116000",
    "longitude": "-98.48701000",
    "wikiDataId": null
  },
  {
    "id": 68067,
    "name": "Acoxcatlán",
    "state_id": 3470,
    "state_code": "HID",
    "country_id": 142,
    "country_code": "MX",
    "latitude": "20.97343000",
    "longitude": "-98.77793000",
    "wikiDataId": null
  },
  {
    "id": 68068,
    "name": "Acoyotla",
    "state_id": 3470,
    "state_code": "HID",
    "country_id": 142,
    "country_code": "MX",
    "latitude": "21.12551000",
    "longitude": "-98.77729000",
    "wikiDataId": null
  },
  {
    "id": 68073,
    "name": "Actopan",
    "state_id": 3470,
    "state_code": "HID",
    "country_id": 142,
    "country_code": "MX",
    "latitude": "20.28451000",
    "longitude": "-98.91525000",
    "wikiDataId": null
  },
  {
    "id": 68148,
    "name": "Ahuatitla",
    "state_id": 3470,
    "state_code": "HID",
    "country_id": 142,
    "country_code": "MX",
    "latitude": "21.16495000",
    "longitude": "-98.66594000",
    "wikiDataId": null
  },
  {
    "id": 68154,
    "name": "Ahuehuetitla",
    "state_id": 3470,
    "state_code": "HID",
    "country_id": 142,
    "country_code": "MX",
    "latitude": "20.08444000",
    "longitude": "-98.41667000",
    "wikiDataId": null
  },
  {
    "id": 68163,
    "name": "Ajacuba",
    "state_id": 3470,
    "state_code": "HID",
    "country_id": 142,
    "country_code": "MX",
    "latitude": "20.14326000",
    "longitude": "-99.06141000",
    "wikiDataId": null
  },
  {
    "id": 68190,
    "name": "Alfajayucan",
    "state_id": 3470,
    "state_code": "HID",
    "country_id": 142,
    "country_code": "MX",
    "latitude": "20.41183000",
    "longitude": "-99.38388000",
    "wikiDataId": null
  },
  {
    "id": 68214,
    "name": "Almoloya",
    "state_id": 3470,
    "state_code": "HID",
    "country_id": 142,
    "country_code": "MX",
    "latitude": "19.74335000",
    "longitude": "-98.33939000",
    "wikiDataId": null
  },
  {
    "id": 76396,
    "name": "Álvaro Obregón",
    "state_id": 3470,
    "state_code": "HID",
    "country_id": 142,
    "country_code": "MX",
    "latitude": "20.70662000",
    "longitude": "-99.37323000",
    "wikiDataId": null
  },
  {
    "id": 68288,
    "name": "Apan",
    "state_id": 3470,
    "state_code": "HID",
    "country_id": 142,
    "country_code": "MX",
    "latitude": "19.71128000",
    "longitude": "-98.45086000",
    "wikiDataId": null
  },
  {
    "id": 68399,
    "name": "Atengo",
    "state_id": 3470,
    "state_code": "HID",
    "country_id": 142,
    "country_code": "MX",
    "latitude": "20.17526000",
    "longitude": "-99.32714000",
    "wikiDataId": null
  },
  {
    "id": 68406,
    "name": "Atitalaquia",
    "state_id": 3470,
    "state_code": "HID",
    "country_id": 142,
    "country_code": "MX",
    "latitude": "20.05691000",
    "longitude": "-99.21779000",
    "wikiDataId": null
  },
  {
    "id": 68416,
    "name": "Atlapexco",
    "state_id": 3470,
    "state_code": "HID",
    "country_id": 142,
    "country_code": "MX",
    "latitude": "21.02507000",
    "longitude": "-98.36834000",
    "wikiDataId": null
  },
  {
    "id": 68431,
    "name": "Atotonilco de Tula",
    "state_id": 3470,
    "state_code": "HID",
    "country_id": 142,
    "country_code": "MX",
    "latitude": "19.97025000",
    "longitude": "-99.23866000",
    "wikiDataId": null
  },
  {
    "id": 68432,
    "name": "Atotonilco el Grande",
    "state_id": 3470,
    "state_code": "HID",
    "country_id": 142,
    "country_code": "MX",
    "latitude": "20.28632000",
    "longitude": "-98.66850000",
    "wikiDataId": null
  },
  {
    "id": 68515,
    "name": "Bangandhó",
    "state_id": 3470,
    "state_code": "HID",
    "country_id": 142,
    "country_code": "MX",
    "latitude": "20.48277000",
    "longitude": "-99.14901000",
    "wikiDataId": null
  },
  {
    "id": 68524,
    "name": "Barrio Aztlán",
    "state_id": 3470,
    "state_code": "HID",
    "country_id": 142,
    "country_code": "MX",
    "latitude": "20.46562000",
    "longitude": "-98.08553000",
    "wikiDataId": null
  },
  {
    "id": 68590,
    "name": "Benito Juárez",
    "state_id": 3470,
    "state_code": "HID",
    "country_id": 142,
    "country_code": "MX",
    "latitude": "20.16047000",
    "longitude": "-98.82606000",
    "wikiDataId": null
  },
  {
    "id": 68632,
    "name": "Bomanxotha",
    "state_id": 3470,
    "state_code": "HID",
    "country_id": 142,
    "country_code": "MX",
    "latitude": "20.51542000",
    "longitude": "-99.66679000",
    "wikiDataId": null
  },
  {
    "id": 68633,
    "name": "Bomintzha",
    "state_id": 3470,
    "state_code": "HID",
    "country_id": 142,
    "country_code": "MX",
    "latitude": "20.01400000",
    "longitude": "-99.27277000",
    "wikiDataId": null
  },
  {
    "id": 68634,
    "name": "Bondojito",
    "state_id": 3470,
    "state_code": "HID",
    "country_id": 142,
    "country_code": "MX",
    "latitude": "20.44395000",
    "longitude": "-99.70022000",
    "wikiDataId": null
  },
  {
    "id": 68744,
    "name": "Calnali",
    "state_id": 3470,
    "state_code": "HID",
    "country_id": 142,
    "country_code": "MX",
    "latitude": "20.90221000",
    "longitude": "-98.57029000",
    "wikiDataId": null
  },
  {
    "id": 68748,
    "name": "Caltimacan",
    "state_id": 3470,
    "state_code": "HID",
    "country_id": 142,
    "country_code": "MX",
    "latitude": "20.53672000",
    "longitude": "-99.37000000",
    "wikiDataId": null
  },
  {
    "id": 68761,
    "name": "Camelia (Barrio la Camelia)",
    "state_id": 3470,
    "state_code": "HID",
    "country_id": 142,
    "country_code": "MX",
    "latitude": "20.14917000",
    "longitude": "-98.72222000",
    "wikiDataId": null
  },
  {
    "id": 68773,
    "name": "Campestre Villas del Álamo",
    "state_id": 3470,
    "state_code": "HID",
    "country_id": 142,
    "country_code": "MX",
    "latitude": "20.10167000",
    "longitude": "-98.70722000",
    "wikiDataId": null
  },
  {
    "id": 68873,
    "name": "Cañada",
    "state_id": 3470,
    "state_code": "HID",
    "country_id": 142,
    "country_code": "MX",
    "latitude": "19.99798000",
    "longitude": "-99.23947000",
    "wikiDataId": null
  },
  {
    "id": 68878,
    "name": "Cañada de Madero",
    "state_id": 3470,
    "state_code": "HID",
    "country_id": 142,
    "country_code": "MX",
    "latitude": "19.96528000",
    "longitude": "-99.39389000",
    "wikiDataId": null
  },
  {
    "id": 68795,
    "name": "Cantera de Villagrán",
    "state_id": 3470,
    "state_code": "HID",
    "country_id": 142,
    "country_code": "MX",
    "latitude": "19.84083000",
    "longitude": "-99.30917000",
    "wikiDataId": null
  },
  {
    "id": 68796,
    "name": "Cantinela",
    "state_id": 3470,
    "state_code": "HID",
    "country_id": 142,
    "country_code": "MX",
    "latitude": "20.45778000",
    "longitude": "-99.21028000",
    "wikiDataId": null
  },
  {
    "id": 68819,
    "name": "Carboneras",
    "state_id": 3470,
    "state_code": "HID",
    "country_id": 142,
    "country_code": "MX",
    "latitude": "20.09000000",
    "longitude": "-98.70528000",
    "wikiDataId": null
  },
  {
    "id": 68821,
    "name": "Cardonal",
    "state_id": 3470,
    "state_code": "HID",
    "country_id": 142,
    "country_code": "MX",
    "latitude": "20.05689000",
    "longitude": "-99.23025000",
    "wikiDataId": null
  },
  {
    "id": 68832,
    "name": "Carpinteros",
    "state_id": 3470,
    "state_code": "HID",
    "country_id": 142,
    "country_code": "MX",
    "latitude": "20.58606000",
    "longitude": "-98.53964000",
    "wikiDataId": null
  },
  {
    "id": 68870,
    "name": "Caxuxi",
    "state_id": 3470,
    "state_code": "HID",
    "country_id": 142,
    "country_code": "MX",
    "latitude": "20.30522000",
    "longitude": "-98.99067000",
    "wikiDataId": null
  },
  {
    "id": 68917,
    "name": "Cerritos",
    "state_id": 3470,
    "state_code": "HID",
    "country_id": 142,
    "country_code": "MX",
    "latitude": "20.35306000",
    "longitude": "-99.01222000",
    "wikiDataId": null
  },
  {
    "id": 68948,
    "name": "Chachahuantla",
    "state_id": 3470,
    "state_code": "HID",
    "country_id": 142,
    "country_code": "MX",
    "latitude": "20.20182000",
    "longitude": "-98.13261000",
    "wikiDataId": null
  },
  {
    "id": 68954,
    "name": "Chalahuiyapa",
    "state_id": 3470,
    "state_code": "HID",
    "country_id": 142,
    "country_code": "MX",
    "latitude": "21.15088000",
    "longitude": "-98.36429000",
    "wikiDataId": null
  },
  {
    "id": 68981,
    "name": "Chapantongo",
    "state_id": 3470,
    "state_code": "HID",
    "country_id": 142,
    "country_code": "MX",
    "latitude": "20.28635000",
    "longitude": "-99.41319000",
    "wikiDataId": null
  },
  {
    "id": 68988,
    "name": "Chapulhuacán",
    "state_id": 3470,
    "state_code": "HID",
    "country_id": 142,
    "country_code": "MX",
    "latitude": "21.15731000",
    "longitude": "-98.90361000",
    "wikiDataId": null
  },
  {
    "id": 68987,
    "name": "Chapulhuacanito",
    "state_id": 3470,
    "state_code": "HID",
    "country_id": 142,
    "country_code": "MX",
    "latitude": "21.20911000",
    "longitude": "-98.67016000",
    "wikiDataId": null
  },
  {
    "id": 68999,
    "name": "Chatipán",
    "state_id": 3470,
    "state_code": "HID",
    "country_id": 142,
    "country_code": "MX",
    "latitude": "21.02006000",
    "longitude": "-98.52731000",
    "wikiDataId": null
  },
  {
    "id": 69018,
    "name": "Chicavasco",
    "state_id": 3470,
    "state_code": "HID",
    "country_id": 142,
    "country_code": "MX",
    "latitude": "20.19715000",
    "longitude": "-98.95386000",
    "wikiDataId": null
  },
  {
    "id": 69020,
    "name": "Chichatla",
    "state_id": 3470,
    "state_code": "HID",
    "country_id": 142,
    "country_code": "MX",
    "latitude": "20.95833000",
    "longitude": "-98.62946000",
    "wikiDataId": null
  },
  {
    "id": 69069,
    "name": "Chilcuautla",
    "state_id": 3470,
    "state_code": "HID",
    "country_id": 142,
    "country_code": "MX",
    "latitude": "20.33059000",
    "longitude": "-99.23117000",
    "wikiDataId": null
  },
  {
    "id": 69070,
    "name": "Chililico",
    "state_id": 3470,
    "state_code": "HID",
    "country_id": 142,
    "country_code": "MX",
    "latitude": "21.13444000",
    "longitude": "-98.43556000",
    "wikiDataId": null
  },
  {
    "id": 69076,
    "name": "Chimalapa",
    "state_id": 3470,
    "state_code": "HID",
    "country_id": 142,
    "country_code": "MX",
    "latitude": "20.18806000",
    "longitude": "-98.16000000",
    "wikiDataId": null
  },
  {
    "id": 69078,
    "name": "Chimalpa y Tlalayote",
    "state_id": 3470,
    "state_code": "HID",
    "country_id": 142,
    "country_code": "MX",
    "latitude": "19.66522000",
    "longitude": "-98.51224000",
    "wikiDataId": null
  },
  {
    "id": 69138,
    "name": "Cipreses",
    "state_id": 3470,
    "state_code": "HID",
    "country_id": 142,
    "country_code": "MX",
    "latitude": "20.05889000",
    "longitude": "-98.76750000",
    "wikiDataId": null
  },
  {
    "id": 69178,
    "name": "Ciudad Sahagun",
    "state_id": 3470,
    "state_code": "HID",
    "country_id": 142,
    "country_code": "MX",
    "latitude": "19.77557000",
    "longitude": "-98.57471000",
    "wikiDataId": null
  },
  {
    "id": 69211,
    "name": "Coacuilco",
    "state_id": 3470,
    "state_code": "HID",
    "country_id": 142,
    "country_code": "MX",
    "latitude": "21.10377000",
    "longitude": "-98.58643000",
    "wikiDataId": null
  },
  {
    "id": 69257,
    "name": "Colinas de Plata",
    "state_id": 3470,
    "state_code": "HID",
    "country_id": 142,
    "country_code": "MX",
    "latitude": "20.07833000",
    "longitude": "-98.72667000",
    "wikiDataId": null
  },
  {
    "id": 69267,
    "name": "Colonia 28 de Mayo (Santa Rosa)",
    "state_id": 3470,
    "state_code": "HID",
    "country_id": 142,
    "country_code": "MX",
    "latitude": "20.16611000",
    "longitude": "-98.39000000",
    "wikiDataId": null
  },
  {
    "id": 69285,
    "name": "Colonia Benito Juárez",
    "state_id": 3470,
    "state_code": "HID",
    "country_id": 142,
    "country_code": "MX",
    "latitude": "19.88985000",
    "longitude": "-98.80661000",
    "wikiDataId": null
  },
  {
    "id": 69301,
    "name": "Colonia Felipe Ángeles",
    "state_id": 3470,
    "state_code": "HID",
    "country_id": 142,
    "country_code": "MX",
    "latitude": "20.05417000",
    "longitude": "-98.41861000",
    "wikiDataId": null
  },
  {
    "id": 69305,
    "name": "Colonia Guadalupe",
    "state_id": 3470,
    "state_code": "HID",
    "country_id": 142,
    "country_code": "MX",
    "latitude": "19.93917000",
    "longitude": "-98.76556000",
    "wikiDataId": null
  },
  {
    "id": 69330,
    "name": "Colonia Militar",
    "state_id": 3470,
    "state_code": "HID",
    "country_id": 142,
    "country_code": "MX",
    "latitude": "20.11139000",
    "longitude": "-98.70306000",
    "wikiDataId": null
  },
  {
    "id": 69334,
    "name": "Colonia Morelos",
    "state_id": 3470,
    "state_code": "HID",
    "country_id": 142,
    "country_code": "MX",
    "latitude": "19.89056000",
    "longitude": "-98.81667000",
    "wikiDataId": null
  },
  {
    "id": 69335,
    "name": "Colonia Morelos (El Nueve)",
    "state_id": 3470,
    "state_code": "HID",
    "country_id": 142,
    "country_code": "MX",
    "latitude": "20.22500000",
    "longitude": "-99.14111000",
    "wikiDataId": null
  },
  {
    "id": 69365,
    "name": "Colonia San Juan",
    "state_id": 3470,
    "state_code": "HID",
    "country_id": 142,
    "country_code": "MX",
    "latitude": "20.19028000",
    "longitude": "-99.28278000",
    "wikiDataId": null
  },
  {
    "id": 69370,
    "name": "Colonia Sesenta y Dos",
    "state_id": 3470,
    "state_code": "HID",
    "country_id": 142,
    "country_code": "MX",
    "latitude": "20.00528000",
    "longitude": "-99.34583000",
    "wikiDataId": null
  },
  {
    "id": 69372,
    "name": "Colonia Teñhe",
    "state_id": 3470,
    "state_code": "HID",
    "country_id": 142,
    "country_code": "MX",
    "latitude": "20.19291000",
    "longitude": "-99.17866000",
    "wikiDataId": null
  },
  {
    "id": 69449,
    "name": "Conejos",
    "state_id": 3470,
    "state_code": "HID",
    "country_id": 142,
    "country_code": "MX",
    "latitude": "19.97570000",
    "longitude": "-99.24337000",
    "wikiDataId": null
  },
  {
    "id": 69523,
    "name": "Coyotillos",
    "state_id": 3470,
    "state_code": "HID",
    "country_id": 142,
    "country_code": "MX",
    "latitude": "19.99980000",
    "longitude": "-99.15817000",
    "wikiDataId": null
  },
  {
    "id": 69560,
    "name": "Cuapaxtitla",
    "state_id": 3470,
    "state_code": "HID",
    "country_id": 142,
    "country_code": "MX",
    "latitude": "21.13292000",
    "longitude": "-98.55264000",
    "wikiDataId": null
  },
  {
    "id": 69567,
    "name": "Cuatolol",
    "state_id": 3470,
    "state_code": "HID",
    "country_id": 142,
    "country_code": "MX",
    "latitude": "21.11967000",
    "longitude": "-98.82563000",
    "wikiDataId": null
  },
  {
    "id": 69588,
    "name": "Cuautepec de Hinojosa",
    "state_id": 3470,
    "state_code": "HID",
    "country_id": 142,
    "country_code": "MX",
    "latitude": "20.03557000",
    "longitude": "-98.31015000",
    "wikiDataId": null
  },
  {
    "id": 69601,
    "name": "Cuazahuatl",
    "state_id": 3470,
    "state_code": "HID",
    "country_id": 142,
    "country_code": "MX",
    "latitude": "21.01637000",
    "longitude": "-98.88691000",
    "wikiDataId": null
  },
  {
    "id": 69664,
    "name": "Dajiedi",
    "state_id": 3470,
    "state_code": "HID",
    "country_id": 142,
    "country_code": "MX",
    "latitude": "20.31114000",
    "longitude": "-98.94006000",
    "wikiDataId": null
  },
  {
    "id": 69667,
    "name": "Dantzibojay",
    "state_id": 3470,
    "state_code": "HID",
    "country_id": 142,
    "country_code": "MX",
    "latitude": "20.43934000",
    "longitude": "-99.58587000",
    "wikiDataId": null
  },
  {
    "id": 69669,
    "name": "Daxtha",
    "state_id": 3470,
    "state_code": "HID",
    "country_id": 142,
    "country_code": "MX",
    "latitude": "20.27994000",
    "longitude": "-98.97964000",
    "wikiDataId": null
  },
  {
    "id": 69678,
    "name": "Dengantzha",
    "state_id": 3470,
    "state_code": "HID",
    "country_id": 142,
    "country_code": "MX",
    "latitude": "20.27211000",
    "longitude": "-99.12098000",
    "wikiDataId": null
  },
  {
    "id": 69751,
    "name": "Déxtho de Victoria",
    "state_id": 3470,
    "state_code": "HID",
    "country_id": 142,
    "country_code": "MX",
    "latitude": "20.32528000",
    "longitude": "-99.02389000",
    "wikiDataId": null
  },
  {
    "id": 69687,
    "name": "Dios Padre",
    "state_id": 3470,
    "state_code": "HID",
    "country_id": 142,
    "country_code": "MX",
    "latitude": "20.46469000",
    "longitude": "-99.20132000",
    "wikiDataId": null
  },
  {
    "id": 69709,
    "name": "Don Antonio",
    "state_id": 3470,
    "state_code": "HID",
    "country_id": 142,
    "country_code": "MX",
    "latitude": "19.87444000",
    "longitude": "-98.93472000",
    "wikiDataId": null
  },
  {
    "id": 69724,
    "name": "Doxey",
    "state_id": 3470,
    "state_code": "HID",
    "country_id": 142,
    "country_code": "MX",
    "latitude": "20.09169000",
    "longitude": "-99.24362000",
    "wikiDataId": null
  },
  {
    "id": 69833,
    "name": "El Arenal",
    "state_id": 3470,
    "state_code": "HID",
    "country_id": 142,
    "country_code": "MX",
    "latitude": "20.22258000",
    "longitude": "-98.90957000",
    "wikiDataId": null
  },
  {
    "id": 69840,
    "name": "El Barrido",
    "state_id": 3470,
    "state_code": "HID",
    "country_id": 142,
    "country_code": "MX",
    "latitude": "20.45028000",
    "longitude": "-99.19083000",
    "wikiDataId": null
  },
  {
    "id": 69845,
    "name": "El Bingú",
    "state_id": 3470,
    "state_code": "HID",
    "country_id": 142,
    "country_code": "MX",
    "latitude": "20.59296000",
    "longitude": "-99.14315000",
    "wikiDataId": null
  },
  {
    "id": 69850,
    "name": "El Boxtha",
    "state_id": 3470,
    "state_code": "HID",
    "country_id": 142,
    "country_code": "MX",
    "latitude": "20.25972000",
    "longitude": "-98.97417000",
    "wikiDataId": null
  },
  {
    "id": 69863,
    "name": "El Capulín",
    "state_id": 3470,
    "state_code": "HID",
    "country_id": 142,
    "country_code": "MX",
    "latitude": "20.00898000",
    "longitude": "-98.27613000",
    "wikiDataId": null
  },
  {
    "id": 69904,
    "name": "El Cid",
    "state_id": 3470,
    "state_code": "HID",
    "country_id": 142,
    "country_code": "MX",
    "latitude": "19.86722000",
    "longitude": "-98.92694000",
    "wikiDataId": null
  },
  {
    "id": 69913,
    "name": "El Colorado",
    "state_id": 3470,
    "state_code": "HID",
    "country_id": 142,
    "country_code": "MX",
    "latitude": "20.21528000",
    "longitude": "-99.00222000",
    "wikiDataId": null
  },
  {
    "id": 69987,
    "name": "El Huaxtho",
    "state_id": 3470,
    "state_code": "HID",
    "country_id": 142,
    "country_code": "MX",
    "latitude": "20.23444000",
    "longitude": "-98.96222000",
    "wikiDataId": null
  },
  {
    "id": 69991,
    "name": "El Huixmí",
    "state_id": 3470,
    "state_code": "HID",
    "country_id": 142,
    "country_code": "MX",
    "latitude": "20.07569000",
    "longitude": "-98.81972000",
    "wikiDataId": null
  },
  {
    "id": 69998,
    "name": "El Jagüey",
    "state_id": 3470,
    "state_code": "HID",
    "country_id": 142,
    "country_code": "MX",
    "latitude": "20.24691000",
    "longitude": "-99.61516000",
    "wikiDataId": null
  },
  {
    "id": 70003,
    "name": "El Jiadi",
    "state_id": 3470,
    "state_code": "HID",
    "country_id": 142,
    "country_code": "MX",
    "latitude": "20.24842000",
    "longitude": "-98.92815000",
    "wikiDataId": null
  },
  {
    "id": 70021,
    "name": "El Llano",
    "state_id": 3470,
    "state_code": "HID",
    "country_id": 142,
    "country_code": "MX",
    "latitude": "20.06537000",
    "longitude": "-99.31976000",
    "wikiDataId": null
  },
  {
    "id": 70040,
    "name": "El Mirador",
    "state_id": 3470,
    "state_code": "HID",
    "country_id": 142,
    "country_code": "MX",
    "latitude": "20.03000000",
    "longitude": "-98.81056000",
    "wikiDataId": null
  },
  {
    "id": 70050,
    "name": "El Moreno (San Miguel Moreno)",
    "state_id": 3470,
    "state_code": "HID",
    "country_id": 142,
    "country_code": "MX",
    "latitude": "20.30139000",
    "longitude": "-99.17361000",
    "wikiDataId": null
  },
  {
    "id": 70065,
    "name": "El Nith",
    "state_id": 3470,
    "state_code": "HID",
    "country_id": 142,
    "country_code": "MX",
    "latitude": "20.48778000",
    "longitude": "-99.19194000",
    "wikiDataId": null
  },
  {
    "id": 70072,
    "name": "El Olvera",
    "state_id": 3470,
    "state_code": "HID",
    "country_id": 142,
    "country_code": "MX",
    "latitude": "20.27000000",
    "longitude": "-99.02556000",
    "wikiDataId": null
  },
  {
    "id": 70094,
    "name": "El Paredón",
    "state_id": 3470,
    "state_code": "HID",
    "country_id": 142,
    "country_code": "MX",
    "latitude": "19.86686000",
    "longitude": "-98.25224000",
    "wikiDataId": null
  },
  {
    "id": 70106,
    "name": "El Pintor",
    "state_id": 3470,
    "state_code": "HID",
    "country_id": 142,
    "country_code": "MX",
    "latitude": "21.15932000",
    "longitude": "-98.41284000",
    "wikiDataId": null
  },
  {
    "id": 70150,
    "name": "El Refugio",
    "state_id": 3470,
    "state_code": "HID",
    "country_id": 142,
    "country_code": "MX",
    "latitude": "20.00480000",
    "longitude": "-99.18835000",
    "wikiDataId": null
  },
  {
    "id": 70160,
    "name": "El Rincón",
    "state_id": 3470,
    "state_code": "HID",
    "country_id": 142,
    "country_code": "MX",
    "latitude": "20.27334000",
    "longitude": "-98.90431000",
    "wikiDataId": null
  },
  {
    "id": 70167,
    "name": "El Roble",
    "state_id": 3470,
    "state_code": "HID",
    "country_id": 142,
    "country_code": "MX",
    "latitude": "20.05806000",
    "longitude": "-98.75833000",
    "wikiDataId": null
  },
  {
    "id": 70172,
    "name": "El Rosario",
    "state_id": 3470,
    "state_code": "HID",
    "country_id": 142,
    "country_code": "MX",
    "latitude": "20.24842000",
    "longitude": "-99.02539000",
    "wikiDataId": null
  },
  {
    "id": 70197,
    "name": "El Saucillo",
    "state_id": 3470,
    "state_code": "HID",
    "country_id": 142,
    "country_code": "MX",
    "latitude": "20.07694000",
    "longitude": "-98.73722000",
    "wikiDataId": null
  },
  {
    "id": 70198,
    "name": "El Saucillo (Fraccionamiento)",
    "state_id": 3470,
    "state_code": "HID",
    "country_id": 142,
    "country_code": "MX",
    "latitude": "20.06778000",
    "longitude": "-98.73194000",
    "wikiDataId": null
  },
  {
    "id": 70209,
    "name": "El Susto",
    "state_id": 3470,
    "state_code": "HID",
    "country_id": 142,
    "country_code": "MX",
    "latitude": "20.05905000",
    "longitude": "-98.49303000",
    "wikiDataId": null
  },
  {
    "id": 70219,
    "name": "El Tepeyac",
    "state_id": 3470,
    "state_code": "HID",
    "country_id": 142,
    "country_code": "MX",
    "latitude": "20.05073000",
    "longitude": "-98.31063000",
    "wikiDataId": null
  },
  {
    "id": 70220,
    "name": "El Tephé",
    "state_id": 3470,
    "state_code": "HID",
    "country_id": 142,
    "country_code": "MX",
    "latitude": "20.44861000",
    "longitude": "-99.17500000",
    "wikiDataId": null
  },
  {
    "id": 70252,
    "name": "El Venado",
    "state_id": 3470,
    "state_code": "HID",
    "country_id": 142,
    "country_code": "MX",
    "latitude": "20.06291000",
    "longitude": "-98.76018000",
    "wikiDataId": null
  },
  {
    "id": 70272,
    "name": "Eloxochitlán",
    "state_id": 3470,
    "state_code": "HID",
    "country_id": 142,
    "country_code": "MX",
    "latitude": "20.72703000",
    "longitude": "-98.87693000",
    "wikiDataId": null
  },
  {
    "id": 70278,
    "name": "Emiliano Zapata",
    "state_id": 3470,
    "state_code": "HID",
    "country_id": 142,
    "country_code": "MX",
    "latitude": "19.65490000",
    "longitude": "-98.54497000",
    "wikiDataId": null
  },
  {
    "id": 70310,
    "name": "Epazoyucan",
    "state_id": 3470,
    "state_code": "HID",
    "country_id": 142,
    "country_code": "MX",
    "latitude": "20.02654000",
    "longitude": "-98.63802000",
    "wikiDataId": null
  },
  {
    "id": 70359,
    "name": "Estación de Apulco",
    "state_id": 3470,
    "state_code": "HID",
    "country_id": 142,
    "country_code": "MX",
    "latitude": "20.28611000",
    "longitude": "-98.34750000",
    "wikiDataId": null
  },
  {
    "id": 70408,
    "name": "Fontezuelas",
    "state_id": 3470,
    "state_code": "HID",
    "country_id": 142,
    "country_code": "MX",
    "latitude": "20.48853000",
    "longitude": "-98.87164000",
    "wikiDataId": null
  },
  {
    "id": 70409,
    "name": "Forjadores de Pachuca",
    "state_id": 3470,
    "state_code": "HID",
    "country_id": 142,
    "country_code": "MX",
    "latitude": "20.05500000",
    "longitude": "-98.76333000",
    "wikiDataId": null
  },
  {
    "id": 70412,
    "name": "Fraccionamiento Carlos Salinas de Gortari",
    "state_id": 3470,
    "state_code": "HID",
    "country_id": 142,
    "country_code": "MX",
    "latitude": "20.11028000",
    "longitude": "-98.43028000",
    "wikiDataId": null
  },
  {
    "id": 70448,
    "name": "Fraccionamiento del Magisterio Tulancinguense",
    "state_id": 3470,
    "state_code": "HID",
    "country_id": 142,
    "country_code": "MX",
    "latitude": "20.07639000",
    "longitude": "-98.39972000",
    "wikiDataId": null
  },
  {
    "id": 70518,
    "name": "Gandhó",
    "state_id": 3470,
    "state_code": "HID",
    "country_id": 142,
    "country_code": "MX",
    "latitude": "20.54525000",
    "longitude": "-99.68737000",
    "wikiDataId": null
  },
  {
    "id": 70532,
    "name": "General Felipe Ángeles (Los Ángeles)",
    "state_id": 3470,
    "state_code": "HID",
    "country_id": 142,
    "country_code": "MX",
    "latitude": "19.89750000",
    "longitude": "-98.92611000",
    "wikiDataId": null
  },
  {
    "id": 70544,
    "name": "General Pedro María Anaya",
    "state_id": 3470,
    "state_code": "HID",
    "country_id": 142,
    "country_code": "MX",
    "latitude": "20.15600000",
    "longitude": "-99.34800000",
    "wikiDataId": null
  },
  {
    "id": 70587,
    "name": "Guadalupe Minerva",
    "state_id": 3470,
    "state_code": "HID",
    "country_id": 142,
    "country_code": "MX",
    "latitude": "20.12583000",
    "longitude": "-98.71389000",
    "wikiDataId": null
  },
  {
    "id": 70597,
    "name": "Guadalupe Victoria",
    "state_id": 3470,
    "state_code": "HID",
    "country_id": 142,
    "country_code": "MX",
    "latitude": "20.03748000",
    "longitude": "-98.26864000",
    "wikiDataId": null
  },
  {
    "id": 70726,
    "name": "Hualula",
    "state_id": 3470,
    "state_code": "HID",
    "country_id": 142,
    "country_code": "MX",
    "latitude": "20.70877000",
    "longitude": "-98.83688000",
    "wikiDataId": null
  },
  {
    "id": 70739,
    "name": "Huasca de Ocampo",
    "state_id": 3470,
    "state_code": "HID",
    "country_id": 142,
    "country_code": "MX",
    "latitude": "20.20357000",
    "longitude": "-98.57603000",
    "wikiDataId": null
  },
  {
    "id": 70746,
    "name": "Huautla",
    "state_id": 3470,
    "state_code": "HID",
    "country_id": 142,
    "country_code": "MX",
    "latitude": "21.03105000",
    "longitude": "-98.28685000",
    "wikiDataId": null
  },
  {
    "id": 70757,
    "name": "Huehuetla",
    "state_id": 3470,
    "state_code": "HID",
    "country_id": 142,
    "country_code": "MX",
    "latitude": "20.53204000",
    "longitude": "-98.03311000",
    "wikiDataId": null
  },
  {
    "id": 70767,
    "name": "Huejutla de Reyes",
    "state_id": 3470,
    "state_code": "HID",
    "country_id": 142,
    "country_code": "MX",
    "latitude": "21.14000000",
    "longitude": "-98.41944000",
    "wikiDataId": null
  },
  {
    "id": 70773,
    "name": "Hueyapa",
    "state_id": 3470,
    "state_code": "HID",
    "country_id": 142,
    "country_code": "MX",
    "latitude": "21.08506000",
    "longitude": "-98.68871000",
    "wikiDataId": null
  },
  {
    "id": 70788,
    "name": "Huichapan",
    "state_id": 3470,
    "state_code": "HID",
    "country_id": 142,
    "country_code": "MX",
    "latitude": "20.37593000",
    "longitude": "-99.64869000",
    "wikiDataId": null
  },
  {
    "id": 70799,
    "name": "Huitel",
    "state_id": 3470,
    "state_code": "HID",
    "country_id": 142,
    "country_code": "MX",
    "latitude": "20.16707000",
    "longitude": "-99.27860000",
    "wikiDataId": null
  },
  {
    "id": 70800,
    "name": "Huitepec",
    "state_id": 3470,
    "state_code": "HID",
    "country_id": 142,
    "country_code": "MX",
    "latitude": "21.05451000",
    "longitude": "-98.72291000",
    "wikiDataId": null
  },
  {
    "id": 70804,
    "name": "Huitzila",
    "state_id": 3470,
    "state_code": "HID",
    "country_id": 142,
    "country_code": "MX",
    "latitude": "19.81137000",
    "longitude": "-98.95583000",
    "wikiDataId": null
  },
  {
    "id": 70812,
    "name": "Huitzitzilingo",
    "state_id": 3470,
    "state_code": "HID",
    "country_id": 142,
    "country_code": "MX",
    "latitude": "21.17295000",
    "longitude": "-98.65693000",
    "wikiDataId": null
  },
  {
    "id": 70847,
    "name": "Ignacio Zaragoza",
    "state_id": 3470,
    "state_code": "HID",
    "country_id": 142,
    "country_code": "MX",
    "latitude": "20.01574000",
    "longitude": "-99.32101000",
    "wikiDataId": null
  },
  {
    "id": 70879,
    "name": "Irolo",
    "state_id": 3470,
    "state_code": "HID",
    "country_id": 142,
    "country_code": "MX",
    "latitude": "19.73452000",
    "longitude": "-98.59641000",
    "wikiDataId": null
  },
  {
    "id": 70907,
    "name": "Ixcatlán",
    "state_id": 3470,
    "state_code": "HID",
    "country_id": 142,
    "country_code": "MX",
    "latitude": "21.08134000",
    "longitude": "-98.53468000",
    "wikiDataId": null
  },
  {
    "id": 70908,
    "name": "Ixcuinquitlapilco",
    "state_id": 3470,
    "state_code": "HID",
    "country_id": 142,
    "country_code": "MX",
    "latitude": "20.11091000",
    "longitude": "-98.93980000",
    "wikiDataId": null
  },
  {
    "id": 70918,
    "name": "Ixmiquilpan",
    "state_id": 3470,
    "state_code": "HID",
    "country_id": 142,
    "country_code": "MX",
    "latitude": "20.47841000",
    "longitude": "-99.21697000",
    "wikiDataId": null
  },
  {
    "id": 70937,
    "name": "Ixtlahuaca",
    "state_id": 3470,
    "state_code": "HID",
    "country_id": 142,
    "country_code": "MX",
    "latitude": "20.88368000",
    "longitude": "-98.70379000",
    "wikiDataId": null
  },
  {
    "id": 70957,
    "name": "Jacala",
    "state_id": 3470,
    "state_code": "HID",
    "country_id": 142,
    "country_code": "MX",
    "latitude": "21.00952000",
    "longitude": "-99.19134000",
    "wikiDataId": null
  },
  {
    "id": 70961,
    "name": "Jagüey Blanco",
    "state_id": 3470,
    "state_code": "HID",
    "country_id": 142,
    "country_code": "MX",
    "latitude": "20.27639000",
    "longitude": "-99.15222000",
    "wikiDataId": null
  },
  {
    "id": 70962,
    "name": "Jagüey de Téllez (Estación Téllez)",
    "state_id": 3470,
    "state_code": "HID",
    "country_id": 142,
    "country_code": "MX",
    "latitude": "19.98056000",
    "longitude": "-98.78833000",
    "wikiDataId": null
  },
  {
    "id": 70975,
    "name": "Jalpa",
    "state_id": 3470,
    "state_code": "HID",
    "country_id": 142,
    "country_code": "MX",
    "latitude": "21.10908000",
    "longitude": "-98.71313000",
    "wikiDataId": null
  },
  {
    "id": 70986,
    "name": "Jaltepec",
    "state_id": 3470,
    "state_code": "HID",
    "country_id": 142,
    "country_code": "MX",
    "latitude": "20.11552000",
    "longitude": "-98.41712000",
    "wikiDataId": null
  },
  {
    "id": 70990,
    "name": "Jaltocan",
    "state_id": 3470,
    "state_code": "HID",
    "country_id": 142,
    "country_code": "MX",
    "latitude": "21.13284000",
    "longitude": "-98.53898000",
    "wikiDataId": null
  },
  {
    "id": 71014,
    "name": "Javier Rojo Gómez",
    "state_id": 3470,
    "state_code": "HID",
    "country_id": 142,
    "country_code": "MX",
    "latitude": "20.06972000",
    "longitude": "-98.41778000",
    "wikiDataId": null
  },
  {
    "id": 71078,
    "name": "Jonacapa",
    "state_id": 3470,
    "state_code": "HID",
    "country_id": 142,
    "country_code": "MX",
    "latitude": "20.43358000",
    "longitude": "-99.53306000",
    "wikiDataId": null
  },
  {
    "id": 71103,
    "name": "José María Morelos (San José)",
    "state_id": 3470,
    "state_code": "HID",
    "country_id": 142,
    "country_code": "MX",
    "latitude": "19.68250000",
    "longitude": "-98.57639000",
    "wikiDataId": null
  },
  {
    "id": 71110,
    "name": "José María Pino Suárez",
    "state_id": 3470,
    "state_code": "HID",
    "country_id": 142,
    "country_code": "MX",
    "latitude": "20.24722000",
    "longitude": "-99.42111000",
    "wikiDataId": null
  },
  {
    "id": 71138,
    "name": "Julián Villagrán",
    "state_id": 3470,
    "state_code": "HID",
    "country_id": 142,
    "country_code": "MX",
    "latitude": "20.39645000",
    "longitude": "-99.10431000",
    "wikiDataId": null
  },
  {
    "id": 71172,
    "name": "La Amistad",
    "state_id": 3470,
    "state_code": "HID",
    "country_id": 142,
    "country_code": "MX",
    "latitude": "20.00833000",
    "longitude": "-99.32028000",
    "wikiDataId": null
  },
  {
    "id": 71185,
    "name": "La Boveda",
    "state_id": 3470,
    "state_code": "HID",
    "country_id": 142,
    "country_code": "MX",
    "latitude": "20.12496000",
    "longitude": "-98.12468000",
    "wikiDataId": null
  },
  {
    "id": 71219,
    "name": "La Colonia",
    "state_id": 3470,
    "state_code": "HID",
    "country_id": 142,
    "country_code": "MX",
    "latitude": "20.05472000",
    "longitude": "-98.77028000",
    "wikiDataId": null
  },
  {
    "id": 71247,
    "name": "La Cruz",
    "state_id": 3470,
    "state_code": "HID",
    "country_id": 142,
    "country_code": "MX",
    "latitude": "20.17603000",
    "longitude": "-99.24156000",
    "wikiDataId": null
  },
  {
    "id": 71278,
    "name": "La Esquina",
    "state_id": 3470,
    "state_code": "HID",
    "country_id": 142,
    "country_code": "MX",
    "latitude": "20.54712000",
    "longitude": "-99.70770000",
    "wikiDataId": null
  },
  {
    "id": 71282,
    "name": "La Estancia",
    "state_id": 3470,
    "state_code": "HID",
    "country_id": 142,
    "country_code": "MX",
    "latitude": "20.29889000",
    "longitude": "-98.68944000",
    "wikiDataId": null
  },
  {
    "id": 71286,
    "name": "La Estanzuela",
    "state_id": 3470,
    "state_code": "HID",
    "country_id": 142,
    "country_code": "MX",
    "latitude": "20.17828000",
    "longitude": "-98.75703000",
    "wikiDataId": null
  },
  {
    "id": 71342,
    "name": "La Laguna",
    "state_id": 3470,
    "state_code": "HID",
    "country_id": 142,
    "country_code": "MX",
    "latitude": "19.73447000",
    "longitude": "-98.49989000",
    "wikiDataId": null
  },
  {
    "id": 71348,
    "name": "La Lagunilla",
    "state_id": 3470,
    "state_code": "HID",
    "country_id": 142,
    "country_code": "MX",
    "latitude": "20.06787000",
    "longitude": "-98.47801000",
    "wikiDataId": null
  },
  {
    "id": 71363,
    "name": "La Loma",
    "state_id": 3470,
    "state_code": "HID",
    "country_id": 142,
    "country_code": "MX",
    "latitude": "20.16959000",
    "longitude": "-99.37882000",
    "wikiDataId": null
  },
  {
    "id": 71394,
    "name": "La Mesilla",
    "state_id": 3470,
    "state_code": "HID",
    "country_id": 142,
    "country_code": "MX",
    "latitude": "20.48949000",
    "longitude": "-99.67676000",
    "wikiDataId": null
  },
  {
    "id": 71465,
    "name": "La Providencia Siglo XXI",
    "state_id": 3470,
    "state_code": "HID",
    "country_id": 142,
    "country_code": "MX",
    "latitude": "20.06417000",
    "longitude": "-98.71722000",
    "wikiDataId": null
  },
  {
    "id": 71472,
    "name": "La Reforma",
    "state_id": 3470,
    "state_code": "HID",
    "country_id": 142,
    "country_code": "MX",
    "latitude": "21.07327000",
    "longitude": "-98.87057000",
    "wikiDataId": null
  },
  {
    "id": 71482,
    "name": "La Sabinita",
    "state_id": 3470,
    "state_code": "HID",
    "country_id": 142,
    "country_code": "MX",
    "latitude": "20.36286000",
    "longitude": "-99.63423000",
    "wikiDataId": null
  },
  {
    "id": 71483,
    "name": "La Sala (La Caliente)",
    "state_id": 3470,
    "state_code": "HID",
    "country_id": 142,
    "country_code": "MX",
    "latitude": "20.20722000",
    "longitude": "-98.87250000",
    "wikiDataId": null
  },
  {
    "id": 71507,
    "name": "La Trinidad",
    "state_id": 3470,
    "state_code": "HID",
    "country_id": 142,
    "country_code": "MX",
    "latitude": "19.95975000",
    "longitude": "-98.70942000",
    "wikiDataId": null
  },
  {
    "id": 71561,
    "name": "Lagunilla",
    "state_id": 3470,
    "state_code": "HID",
    "country_id": 142,
    "country_code": "MX",
    "latitude": "20.34306000",
    "longitude": "-99.02737000",
    "wikiDataId": null
  },
  {
    "id": 71885,
    "name": "Lázaro Cárdenas",
    "state_id": 3470,
    "state_code": "HID",
    "country_id": 142,
    "country_code": "MX",
    "latitude": "19.64032000",
    "longitude": "-98.47166000",
    "wikiDataId": null
  },
  {
    "id": 71681,
    "name": "Lindavista",
    "state_id": 3470,
    "state_code": "HID",
    "country_id": 142,
    "country_code": "MX",
    "latitude": "20.02611000",
    "longitude": "-98.79778000",
    "wikiDataId": null
  },
  {
    "id": 71688,
    "name": "Llano Largo",
    "state_id": 3470,
    "state_code": "HID",
    "country_id": 142,
    "country_code": "MX",
    "latitude": "20.30111000",
    "longitude": "-99.76556000",
    "wikiDataId": null
  },
  {
    "id": 71707,
    "name": "Lolotla",
    "state_id": 3470,
    "state_code": "HID",
    "country_id": 142,
    "country_code": "MX",
    "latitude": "21.00922000",
    "longitude": "-98.73116000",
    "wikiDataId": null
  },
  {
    "id": 71790,
    "name": "Los Cides",
    "state_id": 3470,
    "state_code": "HID",
    "country_id": 142,
    "country_code": "MX",
    "latitude": "19.80439000",
    "longitude": "-98.51870000",
    "wikiDataId": null
  },
  {
    "id": 71845,
    "name": "Los Reyes",
    "state_id": 3470,
    "state_code": "HID",
    "country_id": 142,
    "country_code": "MX",
    "latitude": "20.15529000",
    "longitude": "-98.16424000",
    "wikiDataId": null
  },
  {
    "id": 71856,
    "name": "Los Romeros",
    "state_id": 3470,
    "state_code": "HID",
    "country_id": 142,
    "country_code": "MX",
    "latitude": "20.02976000",
    "longitude": "-98.41496000",
    "wikiDataId": null
  },
  {
    "id": 71857,
    "name": "Los Sabinos",
    "state_id": 3470,
    "state_code": "HID",
    "country_id": 142,
    "country_code": "MX",
    "latitude": "20.31535000",
    "longitude": "-98.64862000",
    "wikiDataId": null
  },
  {
    "id": 71866,
    "name": "Los Tuzos",
    "state_id": 3470,
    "state_code": "HID",
    "country_id": 142,
    "country_code": "MX",
    "latitude": "20.05389000",
    "longitude": "-98.75639000",
    "wikiDataId": null
  },
  {
    "id": 71905,
    "name": "Machetla",
    "state_id": 3470,
    "state_code": "HID",
    "country_id": 142,
    "country_code": "MX",
    "latitude": "21.05946000",
    "longitude": "-98.49445000",
    "wikiDataId": null
  },
  {
    "id": 71936,
    "name": "Magisterio Digno",
    "state_id": 3470,
    "state_code": "HID",
    "country_id": 142,
    "country_code": "MX",
    "latitude": "20.05694000",
    "longitude": "-98.76889000",
    "wikiDataId": null
  },
  {
    "id": 71938,
    "name": "Maguey Blanco",
    "state_id": 3470,
    "state_code": "HID",
    "country_id": 142,
    "country_code": "MX",
    "latitude": "20.42357000",
    "longitude": "-99.17032000",
    "wikiDataId": null
  },
  {
    "id": 71952,
    "name": "Mamithi",
    "state_id": 3470,
    "state_code": "HID",
    "country_id": 142,
    "country_code": "MX",
    "latitude": "20.41003000",
    "longitude": "-99.65797000",
    "wikiDataId": null
  },
  {
    "id": 71955,
    "name": "Mangas",
    "state_id": 3470,
    "state_code": "HID",
    "country_id": 142,
    "country_code": "MX",
    "latitude": "20.18647000",
    "longitude": "-99.24799000",
    "wikiDataId": null
  },
  {
    "id": 71967,
    "name": "Manuel Ávila Camacho",
    "state_id": 3470,
    "state_code": "HID",
    "country_id": 142,
    "country_code": "MX",
    "latitude": "20.11194000",
    "longitude": "-98.70694000",
    "wikiDataId": null
  },
  {
    "id": 72055,
    "name": "Mecatlán",
    "state_id": 3470,
    "state_code": "HID",
    "country_id": 142,
    "country_code": "MX",
    "latitude": "20.93573000",
    "longitude": "-98.40305000",
    "wikiDataId": null
  },
  {
    "id": 72067,
    "name": "Melchor Ocampo",
    "state_id": 3470,
    "state_code": "HID",
    "country_id": 142,
    "country_code": "MX",
    "latitude": "19.94540000",
    "longitude": "-99.28171000",
    "wikiDataId": null
  },
  {
    "id": 72090,
    "name": "Metepec",
    "state_id": 3470,
    "state_code": "HID",
    "country_id": 142,
    "country_code": "MX",
    "latitude": "20.26375000",
    "longitude": "-98.34366000",
    "wikiDataId": null
  },
  {
    "id": 72091,
    "name": "Metepec Primero",
    "state_id": 3470,
    "state_code": "HID",
    "country_id": 142,
    "country_code": "MX",
    "latitude": "20.14167000",
    "longitude": "-98.43222000",
    "wikiDataId": null
  },
  {
    "id": 72096,
    "name": "Metztitlán",
    "state_id": 3470,
    "state_code": "HID",
    "country_id": 142,
    "country_code": "MX",
    "latitude": "20.56753000",
    "longitude": "-98.79696000",
    "wikiDataId": null
  },
  {
    "id": 72112,
    "name": "Mezquititlán",
    "state_id": 3470,
    "state_code": "HID",
    "country_id": 142,
    "country_code": "MX",
    "latitude": "20.53307000",
    "longitude": "-98.63749000",
    "wikiDataId": null
  },
  {
    "id": 72120,
    "name": "Michimaloya",
    "state_id": 3470,
    "state_code": "HID",
    "country_id": 142,
    "country_code": "MX",
    "latitude": "20.09151000",
    "longitude": "-99.39885000",
    "wikiDataId": null
  },
  {
    "id": 72149,
    "name": "Mineral del Monte",
    "state_id": 3470,
    "state_code": "HID",
    "country_id": 142,
    "country_code": "MX",
    "latitude": "20.13830000",
    "longitude": "-98.67364000",
    "wikiDataId": null
  },
  {
    "id": 72166,
    "name": "Mixquiahuala de Juarez",
    "state_id": 3470,
    "state_code": "HID",
    "country_id": 142,
    "country_code": "MX",
    "latitude": "20.23031000",
    "longitude": "-99.21396000",
    "wikiDataId": null
  },
  {
    "id": 72181,
    "name": "Molango",
    "state_id": 3470,
    "state_code": "HID",
    "country_id": 142,
    "country_code": "MX",
    "latitude": "20.78693000",
    "longitude": "-98.72878000",
    "wikiDataId": null
  },
  {
    "id": 72195,
    "name": "Monte Alegre",
    "state_id": 3470,
    "state_code": "HID",
    "country_id": 142,
    "country_code": "MX",
    "latitude": "19.98250000",
    "longitude": "-99.34139000",
    "wikiDataId": null
  },
  {
    "id": 72240,
    "name": "Motovatha",
    "state_id": 3470,
    "state_code": "HID",
    "country_id": 142,
    "country_code": "MX",
    "latitude": "20.18377000",
    "longitude": "-99.20514000",
    "wikiDataId": null
  },
  {
    "id": 72255,
    "name": "Munitepec de Madero",
    "state_id": 3470,
    "state_code": "HID",
    "country_id": 142,
    "country_code": "MX",
    "latitude": "20.12858000",
    "longitude": "-99.19948000",
    "wikiDataId": null
  },
  {
    "id": 72277,
    "name": "Nantzha",
    "state_id": 3470,
    "state_code": "HID",
    "country_id": 142,
    "country_code": "MX",
    "latitude": "20.05317000",
    "longitude": "-99.36856000",
    "wikiDataId": null
  },
  {
    "id": 72345,
    "name": "Nopala de Villagran",
    "state_id": 3470,
    "state_code": "HID",
    "country_id": 142,
    "country_code": "MX",
    "latitude": "20.25198000",
    "longitude": "-99.64541000",
    "wikiDataId": null
  },
  {
    "id": 72382,
    "name": "Nuevo Centro de Población Agrícola el Chacón",
    "state_id": 3470,
    "state_code": "HID",
    "country_id": 142,
    "country_code": "MX",
    "latitude": "20.07028000",
    "longitude": "-98.73944000",
    "wikiDataId": null
  },
  {
    "id": 72437,
    "name": "Ocampo",
    "state_id": 3470,
    "state_code": "HID",
    "country_id": 142,
    "country_code": "MX",
    "latitude": "20.00896000",
    "longitude": "-99.23926000",
    "wikiDataId": null
  },
  {
    "id": 72477,
    "name": "Ohuatipa",
    "state_id": 3470,
    "state_code": "HID",
    "country_id": 142,
    "country_code": "MX",
    "latitude": "20.89308000",
    "longitude": "-98.26197000",
    "wikiDataId": null
  },
  {
    "id": 72487,
    "name": "Ojo de Agua",
    "state_id": 3470,
    "state_code": "HID",
    "country_id": 142,
    "country_code": "MX",
    "latitude": "19.97635000",
    "longitude": "-99.44498000",
    "wikiDataId": null
  },
  {
    "id": 72507,
    "name": "Omitlán de Juárez",
    "state_id": 3470,
    "state_code": "HID",
    "country_id": 142,
    "country_code": "MX",
    "latitude": "20.16980000",
    "longitude": "-98.64842000",
    "wikiDataId": null
  },
  {
    "id": 72520,
    "name": "Oriental de Zapata",
    "state_id": 3470,
    "state_code": "HID",
    "country_id": 142,
    "country_code": "MX",
    "latitude": "19.98528000",
    "longitude": "-99.03167000",
    "wikiDataId": null
  },
  {
    "id": 72529,
    "name": "Orizabita",
    "state_id": 3470,
    "state_code": "HID",
    "country_id": 142,
    "country_code": "MX",
    "latitude": "20.58338000",
    "longitude": "-99.20874000",
    "wikiDataId": null
  },
  {
    "id": 72548,
    "name": "Oxeloco",
    "state_id": 3470,
    "state_code": "HID",
    "country_id": 142,
    "country_code": "MX",
    "latitude": "20.91889000",
    "longitude": "-98.32556000",
    "wikiDataId": null
  },
  {
    "id": 72566,
    "name": "Pachiquita",
    "state_id": 3470,
    "state_code": "HID",
    "country_id": 142,
    "country_code": "MX",
    "latitude": "20.84608000",
    "longitude": "-98.33478000",
    "wikiDataId": null
  },
  {
    "id": 72569,
    "name": "Pachuca de Soto",
    "state_id": 3470,
    "state_code": "HID",
    "country_id": 142,
    "country_code": "MX",
    "latitude": "20.11697000",
    "longitude": "-98.73329000",
    "wikiDataId": null
  },
  {
    "id": 72570,
    "name": "Pachuquilla",
    "state_id": 3470,
    "state_code": "HID",
    "country_id": 142,
    "country_code": "MX",
    "latitude": "20.07099000",
    "longitude": "-98.69572000",
    "wikiDataId": null
  },
  {
    "id": 72573,
    "name": "Pahactla",
    "state_id": 3470,
    "state_code": "HID",
    "country_id": 142,
    "country_code": "MX",
    "latitude": "20.97440000",
    "longitude": "-98.35634000",
    "wikiDataId": null
  },
  {
    "id": 72575,
    "name": "Pahuatlán",
    "state_id": 3470,
    "state_code": "HID",
    "country_id": 142,
    "country_code": "MX",
    "latitude": "21.06940000",
    "longitude": "-98.47667000",
    "wikiDataId": null
  },
  {
    "id": 72598,
    "name": "Palmillas",
    "state_id": 3470,
    "state_code": "HID",
    "country_id": 142,
    "country_code": "MX",
    "latitude": "20.21859000",
    "longitude": "-99.19840000",
    "wikiDataId": null
  },
  {
    "id": 72620,
    "name": "Panales",
    "state_id": 3470,
    "state_code": "HID",
    "country_id": 142,
    "country_code": "MX",
    "latitude": "20.46965000",
    "longitude": "-99.26674000",
    "wikiDataId": null
  },
  {
    "id": 72717,
    "name": "Pañhé",
    "state_id": 3470,
    "state_code": "HID",
    "country_id": 142,
    "country_code": "MX",
    "latitude": "20.52167000",
    "longitude": "-99.69667000",
    "wikiDataId": null
  },
  {
    "id": 72630,
    "name": "Panuaya",
    "state_id": 3470,
    "state_code": "HID",
    "country_id": 142,
    "country_code": "MX",
    "latitude": "20.19500000",
    "longitude": "-99.27083000",
    "wikiDataId": null
  },
  {
    "id": 72637,
    "name": "Papatlatla",
    "state_id": 3470,
    "state_code": "HID",
    "country_id": 142,
    "country_code": "MX",
    "latitude": "20.90154000",
    "longitude": "-98.45192000",
    "wikiDataId": null
  },
  {
    "id": 72659,
    "name": "Parque de Poblamiento Solidaridad",
    "state_id": 3470,
    "state_code": "HID",
    "country_id": 142,
    "country_code": "MX",
    "latitude": "21.15194000",
    "longitude": "-98.38611000",
    "wikiDataId": null
  },
  {
    "id": 72658,
    "name": "Parque Urbano Napateco",
    "state_id": 3470,
    "state_code": "HID",
    "country_id": 142,
    "country_code": "MX",
    "latitude": "20.14278000",
    "longitude": "-98.34083000",
    "wikiDataId": null
  },
  {
    "id": 72670,
    "name": "Paseos de la Pradera",
    "state_id": 3470,
    "state_code": "HID",
    "country_id": 142,
    "country_code": "MX",
    "latitude": "19.89111000",
    "longitude": "-99.23806000",
    "wikiDataId": null
  },
  {
    "id": 72710,
    "name": "Patria Nueva",
    "state_id": 3470,
    "state_code": "HID",
    "country_id": 142,
    "country_code": "MX",
    "latitude": "20.37151000",
    "longitude": "-99.05172000",
    "wikiDataId": null
  },
  {
    "id": 72715,
    "name": "Paxtepec",
    "state_id": 3470,
    "state_code": "HID",
    "country_id": 142,
    "country_code": "MX",
    "latitude": "20.05278000",
    "longitude": "-98.43139000",
    "wikiDataId": null
  },
  {
    "id": 72721,
    "name": "Pedregal de San José",
    "state_id": 3470,
    "state_code": "HID",
    "country_id": 142,
    "country_code": "MX",
    "latitude": "20.06616000",
    "longitude": "-98.40703000",
    "wikiDataId": null
  },
  {
    "id": 72779,
    "name": "Pino Suárez",
    "state_id": 3470,
    "state_code": "HID",
    "country_id": 142,
    "country_code": "MX",
    "latitude": "20.24577000",
    "longitude": "-99.42107000",
    "wikiDataId": null
  },
  {
    "id": 72785,
    "name": "Pisaflores",
    "state_id": 3470,
    "state_code": "HID",
    "country_id": 142,
    "country_code": "MX",
    "latitude": "21.19417000",
    "longitude": "-99.00551000",
    "wikiDataId": null
  },
  {
    "id": 72855,
    "name": "Portezuelo",
    "state_id": 3470,
    "state_code": "HID",
    "country_id": 142,
    "country_code": "MX",
    "latitude": "20.48687000",
    "longitude": "-99.30610000",
    "wikiDataId": null
  },
  {
    "id": 72876,
    "name": "Pozuelos",
    "state_id": 3470,
    "state_code": "HID",
    "country_id": 142,
    "country_code": "MX",
    "latitude": "20.49271000",
    "longitude": "-99.05974000",
    "wikiDataId": null
  },
  {
    "id": 72879,
    "name": "Praderas del Potrero",
    "state_id": 3470,
    "state_code": "HID",
    "country_id": 142,
    "country_code": "MX",
    "latitude": "19.88472000",
    "longitude": "-99.23028000",
    "wikiDataId": null
  },
  {
    "id": 72890,
    "name": "Presas",
    "state_id": 3470,
    "state_code": "HID",
    "country_id": 142,
    "country_code": "MX",
    "latitude": "20.15946000",
    "longitude": "-99.25242000",
    "wikiDataId": null
  },
  {
    "id": 72561,
    "name": "PRI Chacón",
    "state_id": 3470,
    "state_code": "HID",
    "country_id": 142,
    "country_code": "MX",
    "latitude": "20.08139000",
    "longitude": "-98.73694000",
    "wikiDataId": null
  },
  {
    "id": 72905,
    "name": "Privada del Álamo",
    "state_id": 3470,
    "state_code": "HID",
    "country_id": 142,
    "country_code": "MX",
    "latitude": "20.09833000",
    "longitude": "-98.70028000",
    "wikiDataId": null
  },
  {
    "id": 72914,
    "name": "Progreso",
    "state_id": 3470,
    "state_code": "HID",
    "country_id": 142,
    "country_code": "MX",
    "latitude": "20.01972000",
    "longitude": "-99.23861000",
    "wikiDataId": null
  },
  {
    "id": 72918,
    "name": "Progreso de Alvaro Obregon",
    "state_id": 3470,
    "state_code": "HID",
    "country_id": 142,
    "country_code": "MX",
    "latitude": "20.24929000",
    "longitude": "-99.18988000",
    "wikiDataId": null
  },
  {
    "id": 72931,
    "name": "Pueblo Hidalgo",
    "state_id": 3470,
    "state_code": "HID",
    "country_id": 142,
    "country_code": "MX",
    "latitude": "21.11447000",
    "longitude": "-98.67817000",
    "wikiDataId": null
  },
  {
    "id": 72940,
    "name": "Pueblo Nuevo",
    "state_id": 3470,
    "state_code": "HID",
    "country_id": 142,
    "country_code": "MX",
    "latitude": "20.45511000",
    "longitude": "-99.16652000",
    "wikiDataId": null
  },
  {
    "id": 73097,
    "name": "Residencial Arboledas",
    "state_id": 3470,
    "state_code": "HID",
    "country_id": 142,
    "country_code": "MX",
    "latitude": "20.06444000",
    "longitude": "-99.30167000",
    "wikiDataId": null
  },
  {
    "id": 73113,
    "name": "Rinconada de los Ángeles",
    "state_id": 3470,
    "state_code": "HID",
    "country_id": 142,
    "country_code": "MX",
    "latitude": "20.02611000",
    "longitude": "-98.71139000",
    "wikiDataId": null
  },
  {
    "id": 73114,
    "name": "Rinconadas de San Francisco",
    "state_id": 3470,
    "state_code": "HID",
    "country_id": 142,
    "country_code": "MX",
    "latitude": "20.06611000",
    "longitude": "-98.76806000",
    "wikiDataId": null
  },
  {
    "id": 73116,
    "name": "Rinconadas del Venado I",
    "state_id": 3470,
    "state_code": "HID",
    "country_id": 142,
    "country_code": "MX",
    "latitude": "20.06361000",
    "longitude": "-98.76333000",
    "wikiDataId": null
  },
  {
    "id": 73117,
    "name": "Rincones de la Hacienda",
    "state_id": 3470,
    "state_code": "HID",
    "country_id": 142,
    "country_code": "MX",
    "latitude": "20.12000000",
    "longitude": "-98.40167000",
    "wikiDataId": null
  },
  {
    "id": 73140,
    "name": "Rio de la Soledad",
    "state_id": 3470,
    "state_code": "HID",
    "country_id": 142,
    "country_code": "MX",
    "latitude": "20.11500000",
    "longitude": "-98.71194000",
    "wikiDataId": null
  },
  {
    "id": 73184,
    "name": "Río Seco Puente de Doria",
    "state_id": 3470,
    "state_code": "HID",
    "country_id": 142,
    "country_code": "MX",
    "latitude": "20.21094000",
    "longitude": "-98.50077000",
    "wikiDataId": null
  },
  {
    "id": 73219,
    "name": "Salitrillo",
    "state_id": 3470,
    "state_code": "HID",
    "country_id": 142,
    "country_code": "MX",
    "latitude": "19.82937000",
    "longitude": "-99.21594000",
    "wikiDataId": null
  },
  {
    "id": 73255,
    "name": "San Agustín Tlaxiaca",
    "state_id": 3470,
    "state_code": "HID",
    "country_id": 142,
    "country_code": "MX",
    "latitude": "20.11510000",
    "longitude": "-98.88640000",
    "wikiDataId": null
  },
  {
    "id": 73257,
    "name": "San Agustín Zapotlán",
    "state_id": 3470,
    "state_code": "HID",
    "country_id": 142,
    "country_code": "MX",
    "latitude": "19.87550000",
    "longitude": "-98.71426000",
    "wikiDataId": null
  },
  {
    "id": 73265,
    "name": "San Andrés",
    "state_id": 3470,
    "state_code": "HID",
    "country_id": 142,
    "country_code": "MX",
    "latitude": "20.05446000",
    "longitude": "-99.38008000",
    "wikiDataId": null
  },
  {
    "id": 73268,
    "name": "San Andrés (San Andrés Chichayotla)",
    "state_id": 3470,
    "state_code": "HID",
    "country_id": 142,
    "country_code": "MX",
    "latitude": "20.92667000",
    "longitude": "-98.56333000",
    "wikiDataId": null
  },
  {
    "id": 73314,
    "name": "San Antonio",
    "state_id": 3470,
    "state_code": "HID",
    "country_id": 142,
    "country_code": "MX",
    "latitude": "20.53204000",
    "longitude": "-99.71038000",
    "wikiDataId": null
  },
  {
    "id": 73384,
    "name": "San Antonio el Grande",
    "state_id": 3470,
    "state_code": "HID",
    "country_id": 142,
    "country_code": "MX",
    "latitude": "20.45683000",
    "longitude": "-98.03484000",
    "wikiDataId": null
  },
  {
    "id": 73386,
    "name": "San Antonio el Paso",
    "state_id": 3470,
    "state_code": "HID",
    "country_id": 142,
    "country_code": "MX",
    "latitude": "20.14722000",
    "longitude": "-98.61611000",
    "wikiDataId": null
  },
  {
    "id": 73363,
    "name": "San Antonio Zaragoza",
    "state_id": 3470,
    "state_code": "HID",
    "country_id": 142,
    "country_code": "MX",
    "latitude": "20.25497000",
    "longitude": "-98.99828000",
    "wikiDataId": null
  },
  {
    "id": 73408,
    "name": "San Bartolo Ozocalpan",
    "state_id": 3470,
    "state_code": "HID",
    "country_id": 142,
    "country_code": "MX",
    "latitude": "20.22336000",
    "longitude": "-99.48906000",
    "wikiDataId": null
  },
  {
    "id": 73409,
    "name": "San Bartolo Tutotepec",
    "state_id": 3470,
    "state_code": "HID",
    "country_id": 142,
    "country_code": "MX",
    "latitude": "20.39841000",
    "longitude": "-98.20080000",
    "wikiDataId": null
  },
  {
    "id": 73448,
    "name": "San Buenaventura",
    "state_id": 3470,
    "state_code": "HID",
    "country_id": 142,
    "country_code": "MX",
    "latitude": "19.82083000",
    "longitude": "-99.32209000",
    "wikiDataId": null
  },
  {
    "id": 73477,
    "name": "San Cristóbal Chacón",
    "state_id": 3470,
    "state_code": "HID",
    "country_id": 142,
    "country_code": "MX",
    "latitude": "20.08028000",
    "longitude": "-98.73278000",
    "wikiDataId": null
  },
  {
    "id": 73506,
    "name": "San Esteban",
    "state_id": 3470,
    "state_code": "HID",
    "country_id": 142,
    "country_code": "MX",
    "latitude": "20.54452000",
    "longitude": "-98.06004000",
    "wikiDataId": null
  },
  {
    "id": 73518,
    "name": "San Felipe Orizatlán",
    "state_id": 3470,
    "state_code": "HID",
    "country_id": 142,
    "country_code": "MX",
    "latitude": "21.17109000",
    "longitude": "-98.60744000",
    "wikiDataId": null
  },
  {
    "id": 73539,
    "name": "San Francisco",
    "state_id": 3470,
    "state_code": "HID",
    "country_id": 142,
    "country_code": "MX",
    "latitude": "21.01819000",
    "longitude": "-98.48699000",
    "wikiDataId": null
  },
  {
    "id": 73550,
    "name": "San Francisco Atotonilco",
    "state_id": 3470,
    "state_code": "HID",
    "country_id": 142,
    "country_code": "MX",
    "latitude": "20.19472000",
    "longitude": "-98.15167000",
    "wikiDataId": null
  },
  {
    "id": 73624,
    "name": "San Gabriel",
    "state_id": 3470,
    "state_code": "HID",
    "country_id": 142,
    "country_code": "MX",
    "latitude": "20.17154000",
    "longitude": "-99.33502000",
    "wikiDataId": null
  },
  {
    "id": 73626,
    "name": "San Gabriel Azteca",
    "state_id": 3470,
    "state_code": "HID",
    "country_id": 142,
    "country_code": "MX",
    "latitude": "19.88039000",
    "longitude": "-98.61610000",
    "wikiDataId": null
  },
  {
    "id": 73638,
    "name": "San Gregorio",
    "state_id": 3470,
    "state_code": "HID",
    "country_id": 142,
    "country_code": "MX",
    "latitude": "20.49808000",
    "longitude": "-98.01809000",
    "wikiDataId": null
  },
  {
    "id": 73652,
    "name": "San Ignacio Nopala",
    "state_id": 3470,
    "state_code": "HID",
    "country_id": 142,
    "country_code": "MX",
    "latitude": "19.83528000",
    "longitude": "-99.34556000",
    "wikiDataId": null
  },
  {
    "id": 73658,
    "name": "San Ildefonso",
    "state_id": 3470,
    "state_code": "HID",
    "country_id": 142,
    "country_code": "MX",
    "latitude": "19.99629000",
    "longitude": "-99.37193000",
    "wikiDataId": null
  },
  {
    "id": 73664,
    "name": "San Isidro",
    "state_id": 3470,
    "state_code": "HID",
    "country_id": 142,
    "country_code": "MX",
    "latitude": "19.78927000",
    "longitude": "-98.59141000",
    "wikiDataId": null
  },
  {
    "id": 73728,
    "name": "San Joaquín",
    "state_id": 3470,
    "state_code": "HID",
    "country_id": 142,
    "country_code": "MX",
    "latitude": "20.50542000",
    "longitude": "-99.77600000",
    "wikiDataId": null
  },
  {
    "id": 73738,
    "name": "San José",
    "state_id": 3470,
    "state_code": "HID",
    "country_id": 142,
    "country_code": "MX",
    "latitude": "21.06917000",
    "longitude": "-98.59444000",
    "wikiDataId": null
  },
  {
    "id": 73742,
    "name": "San José Atlán",
    "state_id": 3470,
    "state_code": "HID",
    "country_id": 142,
    "country_code": "MX",
    "latitude": "20.33833000",
    "longitude": "-99.67396000",
    "wikiDataId": null
  },
  {
    "id": 73748,
    "name": "San José Boxay",
    "state_id": 3470,
    "state_code": "HID",
    "country_id": 142,
    "country_code": "MX",
    "latitude": "20.26236000",
    "longitude": "-99.10085000",
    "wikiDataId": null
  },
  {
    "id": 73760,
    "name": "San José Corral Blanco",
    "state_id": 3470,
    "state_code": "HID",
    "country_id": 142,
    "country_code": "MX",
    "latitude": "19.90884000",
    "longitude": "-98.17811000",
    "wikiDataId": null
  },
  {
    "id": 73777,
    "name": "San José Ocotillos",
    "state_id": 3470,
    "state_code": "HID",
    "country_id": 142,
    "country_code": "MX",
    "latitude": "20.20687000",
    "longitude": "-98.61306000",
    "wikiDataId": null
  },
  {
    "id": 73860,
    "name": "San Juan Achichilco",
    "state_id": 3470,
    "state_code": "HID",
    "country_id": 142,
    "country_code": "MX",
    "latitude": "20.17868000",
    "longitude": "-99.31462000",
    "wikiDataId": null
  },
  {
    "id": 73862,
    "name": "San Juan Ahuehueco",
    "state_id": 3470,
    "state_code": "HID",
    "country_id": 142,
    "country_code": "MX",
    "latitude": "21.04167000",
    "longitude": "-98.90694000",
    "wikiDataId": null
  },
  {
    "id": 73896,
    "name": "San Juan Hueyapan",
    "state_id": 3470,
    "state_code": "HID",
    "country_id": 142,
    "country_code": "MX",
    "latitude": "20.03000000",
    "longitude": "-98.28194000",
    "wikiDataId": null
  },
  {
    "id": 73925,
    "name": "San Juan Solís",
    "state_id": 3470,
    "state_code": "HID",
    "country_id": 142,
    "country_code": "MX",
    "latitude": "20.15830000",
    "longitude": "-98.93147000",
    "wikiDataId": null
  },
  {
    "id": 73932,
    "name": "San Juan Tepa",
    "state_id": 3470,
    "state_code": "HID",
    "country_id": 142,
    "country_code": "MX",
    "latitude": "20.21579000",
    "longitude": "-99.06592000",
    "wikiDataId": null
  },
  {
    "id": 73940,
    "name": "San Juan Tilcuautla",
    "state_id": 3470,
    "state_code": "HID",
    "country_id": 142,
    "country_code": "MX",
    "latitude": "20.15873000",
    "longitude": "-98.80112000",
    "wikiDataId": null
  },
  {
    "id": 73941,
    "name": "San Juan Tizahuapán",
    "state_id": 3470,
    "state_code": "HID",
    "country_id": 142,
    "country_code": "MX",
    "latitude": "20.05073000",
    "longitude": "-98.66540000",
    "wikiDataId": null
  },
  {
    "id": 73995,
    "name": "San Lorenzo Achiotepec",
    "state_id": 3470,
    "state_code": "HID",
    "country_id": 142,
    "country_code": "MX",
    "latitude": "20.59732000",
    "longitude": "-98.06876000",
    "wikiDataId": null
  },
  {
    "id": 74010,
    "name": "San Lorenzo Sayula",
    "state_id": 3470,
    "state_code": "HID",
    "country_id": 142,
    "country_code": "MX",
    "latitude": "19.98921000",
    "longitude": "-98.29774000",
    "wikiDataId": null
  },
  {
    "id": 74055,
    "name": "San Luis Tecuhautitlán",
    "state_id": 3470,
    "state_code": "HID",
    "country_id": 142,
    "country_code": "MX",
    "latitude": "19.76736000",
    "longitude": "-98.88868000",
    "wikiDataId": null
  },
  {
    "id": 74064,
    "name": "San Marcos",
    "state_id": 3470,
    "state_code": "HID",
    "country_id": 142,
    "country_code": "MX",
    "latitude": "20.03056000",
    "longitude": "-99.33547000",
    "wikiDataId": null
  },
  {
    "id": 74071,
    "name": "San Marcos Guaquilpan",
    "state_id": 3470,
    "state_code": "HID",
    "country_id": 142,
    "country_code": "MX",
    "latitude": "19.59853000",
    "longitude": "-98.62866000",
    "wikiDataId": null
  },
  {
    "id": 74115,
    "name": "San Mateo",
    "state_id": 3470,
    "state_code": "HID",
    "country_id": 142,
    "country_code": "MX",
    "latitude": "20.18267000",
    "longitude": "-98.24657000",
    "wikiDataId": null
  },
  {
    "id": 74170,
    "name": "San Miguel Cerezo (El Cerezo)",
    "state_id": 3470,
    "state_code": "HID",
    "country_id": 142,
    "country_code": "MX",
    "latitude": "20.15909000",
    "longitude": "-98.72853000",
    "wikiDataId": null
  },
  {
    "id": 74220,
    "name": "San Miguel Vindho",
    "state_id": 3470,
    "state_code": "HID",
    "country_id": 142,
    "country_code": "MX",
    "latitude": "19.99447000",
    "longitude": "-99.31782000",
    "wikiDataId": null
  },
  {
    "id": 74247,
    "name": "San Nicolás",
    "state_id": 3470,
    "state_code": "HID",
    "country_id": 142,
    "country_code": "MX",
    "latitude": "20.32218000",
    "longitude": "-98.18781000",
    "wikiDataId": null
  },
  {
    "id": 74276,
    "name": "San Nicolás el Chico",
    "state_id": 3470,
    "state_code": "HID",
    "country_id": 142,
    "country_code": "MX",
    "latitude": "20.09580000",
    "longitude": "-98.38776000",
    "wikiDataId": null
  },
  {
    "id": 74262,
    "name": "San Nicolás Tecomatlán",
    "state_id": 3470,
    "state_code": "HID",
    "country_id": 142,
    "country_code": "MX",
    "latitude": "20.17944000",
    "longitude": "-99.03639000",
    "wikiDataId": null
  },
  {
    "id": 74308,
    "name": "San Pablo el Grande",
    "state_id": 3470,
    "state_code": "HID",
    "country_id": 142,
    "country_code": "MX",
    "latitude": "20.36127000",
    "longitude": "-98.15999000",
    "wikiDataId": null
  },
  {
    "id": 74384,
    "name": "San Pedro Tlachichilco",
    "state_id": 3470,
    "state_code": "HID",
    "country_id": 142,
    "country_code": "MX",
    "latitude": "20.16109000",
    "longitude": "-98.26415000",
    "wikiDataId": null
  },
  {
    "id": 74390,
    "name": "San Pedro Tlaquilpan",
    "state_id": 3470,
    "state_code": "HID",
    "country_id": 142,
    "country_code": "MX",
    "latitude": "19.94514000",
    "longitude": "-98.75293000",
    "wikiDataId": null
  },
  {
    "id": 74444,
    "name": "San Salvador",
    "state_id": 3470,
    "state_code": "HID",
    "country_id": 142,
    "country_code": "MX",
    "latitude": "20.28583000",
    "longitude": "-99.01457000",
    "wikiDataId": null
  },
  {
    "id": 74469,
    "name": "San Sebastián Tenochtitlán",
    "state_id": 3470,
    "state_code": "HID",
    "country_id": 142,
    "country_code": "MX",
    "latitude": "20.27988000",
    "longitude": "-99.68879000",
    "wikiDataId": null
  },
  {
    "id": 74526,
    "name": "Santa Ana Ahuehuepan",
    "state_id": 3470,
    "state_code": "HID",
    "country_id": 142,
    "country_code": "MX",
    "latitude": "20.12288000",
    "longitude": "-99.34497000",
    "wikiDataId": null
  },
  {
    "id": 74528,
    "name": "Santa Ana Azcapotzaltongo",
    "state_id": 3470,
    "state_code": "HID",
    "country_id": 142,
    "country_code": "MX",
    "latitude": "19.94325000",
    "longitude": "-99.38800000",
    "wikiDataId": null
  },
  {
    "id": 74529,
    "name": "Santa Ana Batha",
    "state_id": 3470,
    "state_code": "HID",
    "country_id": 142,
    "country_code": "MX",
    "latitude": "20.37944000",
    "longitude": "-99.19186000",
    "wikiDataId": null
  },
  {
    "id": 74553,
    "name": "Santa Ana de Allende",
    "state_id": 3470,
    "state_code": "HID",
    "country_id": 142,
    "country_code": "MX",
    "latitude": "21.12301000",
    "longitude": "-98.98606000",
    "wikiDataId": null
  },
  {
    "id": 74534,
    "name": "Santa Ana Hueytlalpan",
    "state_id": 3470,
    "state_code": "HID",
    "country_id": 142,
    "country_code": "MX",
    "latitude": "20.17484000",
    "longitude": "-98.31209000",
    "wikiDataId": null
  },
  {
    "id": 74545,
    "name": "Santa Ana Tlachiahualpa",
    "state_id": 3470,
    "state_code": "HID",
    "country_id": 142,
    "country_code": "MX",
    "latitude": "19.76869000",
    "longitude": "-98.90885000",
    "wikiDataId": null
  },
  {
    "id": 74548,
    "name": "Santa Ana Tzacuala",
    "state_id": 3470,
    "state_code": "HID",
    "country_id": 142,
    "country_code": "MX",
    "latitude": "20.19798000",
    "longitude": "-98.20403000",
    "wikiDataId": null
  },
  {
    "id": 74564,
    "name": "Santa Bárbara",
    "state_id": 3470,
    "state_code": "HID",
    "country_id": 142,
    "country_code": "MX",
    "latitude": "19.66666000",
    "longitude": "-98.56920000",
    "wikiDataId": null
  },
  {
    "id": 74574,
    "name": "Santa Catarina",
    "state_id": 3470,
    "state_code": "HID",
    "country_id": 142,
    "country_code": "MX",
    "latitude": "21.10045000",
    "longitude": "-98.38077000",
    "wikiDataId": null
  },
  {
    "id": 74600,
    "name": "Santa Clara",
    "state_id": 3470,
    "state_code": "HID",
    "country_id": 142,
    "country_code": "MX",
    "latitude": "19.69889000",
    "longitude": "-98.57778000",
    "wikiDataId": null
  },
  {
    "id": 74606,
    "name": "Santa Cruz",
    "state_id": 3470,
    "state_code": "HID",
    "country_id": 142,
    "country_code": "MX",
    "latitude": "21.19813000",
    "longitude": "-98.49395000",
    "wikiDataId": null
  },
  {
    "id": 74656,
    "name": "Santa Elena Paliseca",
    "state_id": 3470,
    "state_code": "HID",
    "country_id": 142,
    "country_code": "MX",
    "latitude": "19.99805000",
    "longitude": "-98.24144000",
    "wikiDataId": null
  },
  {
    "id": 74706,
    "name": "Santa María Actipac",
    "state_id": 3470,
    "state_code": "HID",
    "country_id": 142,
    "country_code": "MX",
    "latitude": "19.85547000",
    "longitude": "-98.74561000",
    "wikiDataId": null
  },
  {
    "id": 74711,
    "name": "Santa María Amajac",
    "state_id": 3470,
    "state_code": "HID",
    "country_id": 142,
    "country_code": "MX",
    "latitude": "20.22949000",
    "longitude": "-98.99833000",
    "wikiDataId": null
  },
  {
    "id": 74694,
    "name": "Santa Maria Amealco",
    "state_id": 3470,
    "state_code": "HID",
    "country_id": 142,
    "country_code": "MX",
    "latitude": "20.23771000",
    "longitude": "-99.54963000",
    "wikiDataId": null
  },
  {
    "id": 74712,
    "name": "Santa María Apaxco",
    "state_id": 3470,
    "state_code": "HID",
    "country_id": 142,
    "country_code": "MX",
    "latitude": "19.95524000",
    "longitude": "-99.18680000",
    "wikiDataId": null
  },
  {
    "id": 74715,
    "name": "Santa María Asunción",
    "state_id": 3470,
    "state_code": "HID",
    "country_id": 142,
    "country_code": "MX",
    "latitude": "20.15508000",
    "longitude": "-98.27037000",
    "wikiDataId": null
  },
  {
    "id": 74720,
    "name": "Santa María Batha",
    "state_id": 3470,
    "state_code": "HID",
    "country_id": 142,
    "country_code": "MX",
    "latitude": "20.22413000",
    "longitude": "-99.25174000",
    "wikiDataId": null
  },
  {
    "id": 74745,
    "name": "Santa María Ilucan",
    "state_id": 3470,
    "state_code": "HID",
    "country_id": 142,
    "country_code": "MX",
    "latitude": "19.99222000",
    "longitude": "-99.33951000",
    "wikiDataId": null
  },
  {
    "id": 74823,
    "name": "Santa María la Calera",
    "state_id": 3470,
    "state_code": "HID",
    "country_id": 142,
    "country_code": "MX",
    "latitude": "20.03072000",
    "longitude": "-98.71929000",
    "wikiDataId": null
  },
  {
    "id": 74696,
    "name": "Santa Maria Macua",
    "state_id": 3470,
    "state_code": "HID",
    "country_id": 142,
    "country_code": "MX",
    "latitude": "20.13605000",
    "longitude": "-99.47544000",
    "wikiDataId": null
  },
  {
    "id": 74754,
    "name": "Santa María Magdalena",
    "state_id": 3470,
    "state_code": "HID",
    "country_id": 142,
    "country_code": "MX",
    "latitude": "19.97398000",
    "longitude": "-99.37387000",
    "wikiDataId": null
  },
  {
    "id": 74761,
    "name": "Santa María Nativitas",
    "state_id": 3470,
    "state_code": "HID",
    "country_id": 142,
    "country_code": "MX",
    "latitude": "20.03901000",
    "longitude": "-98.29535000",
    "wikiDataId": null
  },
  {
    "id": 74772,
    "name": "Santa María Quelites",
    "state_id": 3470,
    "state_code": "HID",
    "country_id": 142,
    "country_code": "MX",
    "latitude": "19.85391000",
    "longitude": "-99.34773000",
    "wikiDataId": null
  },
  {
    "id": 74793,
    "name": "Santa María Xigui",
    "state_id": 3470,
    "state_code": "HID",
    "country_id": 142,
    "country_code": "MX",
    "latitude": "20.46111000",
    "longitude": "-99.34500000",
    "wikiDataId": null
  },
  {
    "id": 74825,
    "name": "Santa Mónica",
    "state_id": 3470,
    "state_code": "HID",
    "country_id": 142,
    "country_code": "MX",
    "latitude": "19.98363000",
    "longitude": "-98.62143000",
    "wikiDataId": null
  },
  {
    "id": 74856,
    "name": "Santa Teresa",
    "state_id": 3470,
    "state_code": "HID",
    "country_id": 142,
    "country_code": "MX",
    "latitude": "20.88989000",
    "longitude": "-98.38330000",
    "wikiDataId": null
  },
  {
    "id": 74863,
    "name": "Santa Úrsula",
    "state_id": 3470,
    "state_code": "HID",
    "country_id": 142,
    "country_code": "MX",
    "latitude": "20.42030000",
    "longitude": "-98.10478000",
    "wikiDataId": null
  },
  {
    "id": 74872,
    "name": "Santiago Acayutlán",
    "state_id": 3470,
    "state_code": "HID",
    "country_id": 142,
    "country_code": "MX",
    "latitude": "20.19719000",
    "longitude": "-99.29534000",
    "wikiDataId": null
  },
  {
    "id": 74896,
    "name": "Santiago Cuaula",
    "state_id": 3470,
    "state_code": "HID",
    "country_id": 142,
    "country_code": "MX",
    "latitude": "19.60136000",
    "longitude": "-98.64941000",
    "wikiDataId": null
  },
  {
    "id": 74982,
    "name": "Santiago de Anaya",
    "state_id": 3470,
    "state_code": "HID",
    "country_id": 142,
    "country_code": "MX",
    "latitude": "20.38410000",
    "longitude": "-98.96512000",
    "wikiDataId": null
  },
  {
    "id": 74910,
    "name": "Santiago Jaltepec",
    "state_id": 3470,
    "state_code": "HID",
    "country_id": 142,
    "country_code": "MX",
    "latitude": "20.10972000",
    "longitude": "-98.71111000",
    "wikiDataId": null
  },
  {
    "id": 74949,
    "name": "Santiago Tepeyahualco",
    "state_id": 3470,
    "state_code": "HID",
    "country_id": 142,
    "country_code": "MX",
    "latitude": "19.84864000",
    "longitude": "-98.66970000",
    "wikiDataId": null
  },
  {
    "id": 74955,
    "name": "Santiago Tezontlale",
    "state_id": 3470,
    "state_code": "HID",
    "country_id": 142,
    "country_code": "MX",
    "latitude": "20.16217000",
    "longitude": "-99.09865000",
    "wikiDataId": null
  },
  {
    "id": 74962,
    "name": "Santiago Tlaltepoxco",
    "state_id": 3470,
    "state_code": "HID",
    "country_id": 142,
    "country_code": "MX",
    "latitude": "19.88365000",
    "longitude": "-99.26046000",
    "wikiDataId": null
  },
  {
    "id": 74963,
    "name": "Santiago Tlapacoya",
    "state_id": 3470,
    "state_code": "HID",
    "country_id": 142,
    "country_code": "MX",
    "latitude": "20.10925000",
    "longitude": "-98.83037000",
    "wikiDataId": null
  },
  {
    "id": 74964,
    "name": "Santiago Tlapanaloya",
    "state_id": 3470,
    "state_code": "HID",
    "country_id": 142,
    "country_code": "MX",
    "latitude": "19.87056000",
    "longitude": "-99.35083000",
    "wikiDataId": null
  },
  {
    "id": 74965,
    "name": "Santiago Tlautla",
    "state_id": 3470,
    "state_code": "HID",
    "country_id": 142,
    "country_code": "MX",
    "latitude": "19.96222000",
    "longitude": "-99.36909000",
    "wikiDataId": null
  },
  {
    "id": 74967,
    "name": "Santiago Tulantepec",
    "state_id": 3470,
    "state_code": "HID",
    "country_id": 142,
    "country_code": "MX",
    "latitude": "20.03618000",
    "longitude": "-98.35563000",
    "wikiDataId": null
  },
  {
    "id": 75022,
    "name": "Santo Tomas",
    "state_id": 3470,
    "state_code": "HID",
    "country_id": 142,
    "country_code": "MX",
    "latitude": "19.90364000",
    "longitude": "-98.56882000",
    "wikiDataId": null
  },
  {
    "id": 75095,
    "name": "Singuilucan",
    "state_id": 3470,
    "state_code": "HID",
    "country_id": 142,
    "country_code": "MX",
    "latitude": "19.98964000",
    "longitude": "-98.51923000",
    "wikiDataId": null
  },
  {
    "id": 75173,
    "name": "Talol",
    "state_id": 3470,
    "state_code": "HID",
    "country_id": 142,
    "country_code": "MX",
    "latitude": "21.12025000",
    "longitude": "-98.62655000",
    "wikiDataId": null
  },
  {
    "id": 75203,
    "name": "Tancazahuela",
    "state_id": 3470,
    "state_code": "HID",
    "country_id": 142,
    "country_code": "MX",
    "latitude": "21.18300000",
    "longitude": "-98.43483000",
    "wikiDataId": null
  },
  {
    "id": 75236,
    "name": "Tasquillo",
    "state_id": 3470,
    "state_code": "HID",
    "country_id": 142,
    "country_code": "MX",
    "latitude": "20.54698000",
    "longitude": "-99.34562000",
    "wikiDataId": null
  },
  {
    "id": 75244,
    "name": "Taxadho",
    "state_id": 3470,
    "state_code": "HID",
    "country_id": 142,
    "country_code": "MX",
    "latitude": "20.43330000",
    "longitude": "-99.14934000",
    "wikiDataId": null
  },
  {
    "id": 75253,
    "name": "Teacalco",
    "state_id": 3470,
    "state_code": "HID",
    "country_id": 142,
    "country_code": "MX",
    "latitude": "19.80561000",
    "longitude": "-98.85209000",
    "wikiDataId": null
  },
  {
    "id": 75258,
    "name": "Tecacahuaco",
    "state_id": 3470,
    "state_code": "HID",
    "country_id": 142,
    "country_code": "MX",
    "latitude": "20.94133000",
    "longitude": "-98.33889000",
    "wikiDataId": null
  },
  {
    "id": 75286,
    "name": "Tecozautla",
    "state_id": 3470,
    "state_code": "HID",
    "country_id": 142,
    "country_code": "MX",
    "latitude": "20.53302000",
    "longitude": "-99.64662000",
    "wikiDataId": null
  },
  {
    "id": 75297,
    "name": "Tehuetlán",
    "state_id": 3470,
    "state_code": "HID",
    "country_id": 142,
    "country_code": "MX",
    "latitude": "21.05337000",
    "longitude": "-98.50853000",
    "wikiDataId": null
  },
  {
    "id": 75323,
    "name": "Teltipán de Juárez",
    "state_id": 3470,
    "state_code": "HID",
    "country_id": 142,
    "country_code": "MX",
    "latitude": "20.11527000",
    "longitude": "-99.20146000",
    "wikiDataId": null
  },
  {
    "id": 75327,
    "name": "Temango",
    "state_id": 3470,
    "state_code": "HID",
    "country_id": 142,
    "country_code": "MX",
    "latitude": "21.13143000",
    "longitude": "-98.69051000",
    "wikiDataId": null
  },
  {
    "id": 75353,
    "name": "Tenango",
    "state_id": 3470,
    "state_code": "HID",
    "country_id": 142,
    "country_code": "MX",
    "latitude": "20.22714000",
    "longitude": "-99.29068000",
    "wikiDataId": null
  },
  {
    "id": 75355,
    "name": "Tenango de Doria",
    "state_id": 3470,
    "state_code": "HID",
    "country_id": 142,
    "country_code": "MX",
    "latitude": "20.33828000",
    "longitude": "-98.22805000",
    "wikiDataId": null
  },
  {
    "id": 75372,
    "name": "Teocalco",
    "state_id": 3470,
    "state_code": "HID",
    "country_id": 142,
    "country_code": "MX",
    "latitude": "20.08582000",
    "longitude": "-99.28289000",
    "wikiDataId": null
  },
  {
    "id": 75375,
    "name": "Teofani",
    "state_id": 3470,
    "state_code": "HID",
    "country_id": 142,
    "country_code": "MX",
    "latitude": "20.32284000",
    "longitude": "-99.04300000",
    "wikiDataId": null
  },
  {
    "id": 75399,
    "name": "Tepatepec",
    "state_id": 3470,
    "state_code": "HID",
    "country_id": 142,
    "country_code": "MX",
    "latitude": "20.24568000",
    "longitude": "-99.08981000",
    "wikiDataId": null
  },
  {
    "id": 75404,
    "name": "Tepeapulco",
    "state_id": 3470,
    "state_code": "HID",
    "country_id": 142,
    "country_code": "MX",
    "latitude": "19.80470000",
    "longitude": "-98.50153000",
    "wikiDataId": null
  },
  {
    "id": 75408,
    "name": "Tepehuacán de Guerrero",
    "state_id": 3470,
    "state_code": "HID",
    "country_id": 142,
    "country_code": "MX",
    "latitude": "21.01350000",
    "longitude": "-98.84184000",
    "wikiDataId": null
  },
  {
    "id": 75410,
    "name": "Tepeitic",
    "state_id": 3470,
    "state_code": "HID",
    "country_id": 142,
    "country_code": "MX",
    "latitude": "20.24123000",
    "longitude": "-99.29084000",
    "wikiDataId": null
  },
  {
    "id": 75411,
    "name": "Tepeji del Río de Ocampo",
    "state_id": 3470,
    "state_code": "HID",
    "country_id": 142,
    "country_code": "MX",
    "latitude": "19.90481000",
    "longitude": "-99.34379000",
    "wikiDataId": null
  },
  {
    "id": 75414,
    "name": "Tepepa",
    "state_id": 3470,
    "state_code": "HID",
    "country_id": 142,
    "country_code": "MX",
    "latitude": "20.13440000",
    "longitude": "-98.17131000",
    "wikiDataId": null
  },
  {
    "id": 75418,
    "name": "Tepetitla",
    "state_id": 3470,
    "state_code": "HID",
    "country_id": 142,
    "country_code": "MX",
    "latitude": "20.96140000",
    "longitude": "-98.38400000",
    "wikiDataId": null
  },
  {
    "id": 75420,
    "name": "Tepetitlán",
    "state_id": 3470,
    "state_code": "HID",
    "country_id": 142,
    "country_code": "MX",
    "latitude": "20.18301000",
    "longitude": "-99.38882000",
    "wikiDataId": null
  },
  {
    "id": 75440,
    "name": "Tepexititla",
    "state_id": 3470,
    "state_code": "HID",
    "country_id": 142,
    "country_code": "MX",
    "latitude": "21.13205000",
    "longitude": "-98.44735000",
    "wikiDataId": null
  },
  {
    "id": 75449,
    "name": "Tepojaco",
    "state_id": 3470,
    "state_code": "HID",
    "country_id": 142,
    "country_code": "MX",
    "latitude": "19.84070000",
    "longitude": "-98.94759000",
    "wikiDataId": null
  },
  {
    "id": 75485,
    "name": "Tetepango",
    "state_id": 3470,
    "state_code": "HID",
    "country_id": 142,
    "country_code": "MX",
    "latitude": "20.10168000",
    "longitude": "-99.15108000",
    "wikiDataId": null
  },
  {
    "id": 75501,
    "name": "Texcaco",
    "state_id": 3470,
    "state_code": "HID",
    "country_id": 142,
    "country_code": "MX",
    "latitude": "20.83982000",
    "longitude": "-98.61613000",
    "wikiDataId": null
  },
  {
    "id": 75505,
    "name": "Texcaltepec",
    "state_id": 3470,
    "state_code": "HID",
    "country_id": 142,
    "country_code": "MX",
    "latitude": "20.03028000",
    "longitude": "-98.32417000",
    "wikiDataId": null
  },
  {
    "id": 75510,
    "name": "Texcapa",
    "state_id": 3470,
    "state_code": "HID",
    "country_id": 142,
    "country_code": "MX",
    "latitude": "21.09228000",
    "longitude": "-98.85403000",
    "wikiDataId": null
  },
  {
    "id": 75512,
    "name": "Texcatepec",
    "state_id": 3470,
    "state_code": "HID",
    "country_id": 142,
    "country_code": "MX",
    "latitude": "20.27655000",
    "longitude": "-99.25375000",
    "wikiDataId": null
  },
  {
    "id": 75523,
    "name": "Tezapotla",
    "state_id": 3470,
    "state_code": "HID",
    "country_id": 142,
    "country_code": "MX",
    "latitude": "21.17381000",
    "longitude": "-98.81242000",
    "wikiDataId": null
  },
  {
    "id": 75529,
    "name": "Tezontepec",
    "state_id": 3470,
    "state_code": "HID",
    "country_id": 142,
    "country_code": "MX",
    "latitude": "19.88063000",
    "longitude": "-98.81972000",
    "wikiDataId": null
  },
  {
    "id": 75530,
    "name": "Tezontepec de Aldama",
    "state_id": 3470,
    "state_code": "HID",
    "country_id": 142,
    "country_code": "MX",
    "latitude": "20.19073000",
    "longitude": "-99.27429000",
    "wikiDataId": null
  },
  {
    "id": 75531,
    "name": "Tezoquipa",
    "state_id": 3470,
    "state_code": "HID",
    "country_id": 142,
    "country_code": "MX",
    "latitude": "20.05639000",
    "longitude": "-99.20472000",
    "wikiDataId": null
  },
  {
    "id": 75536,
    "name": "Tianguistengo",
    "state_id": 3470,
    "state_code": "HID",
    "country_id": 142,
    "country_code": "MX",
    "latitude": "20.72796000",
    "longitude": "-98.63209000",
    "wikiDataId": null
  },
  {
    "id": 75537,
    "name": "Tianguistengo (La Romera)",
    "state_id": 3470,
    "state_code": "HID",
    "country_id": 142,
    "country_code": "MX",
    "latitude": "19.91417000",
    "longitude": "-99.32583000",
    "wikiDataId": null
  },
  {
    "id": 75568,
    "name": "Tiltepec",
    "state_id": 3470,
    "state_code": "HID",
    "country_id": 142,
    "country_code": "MX",
    "latitude": "20.31394000",
    "longitude": "-98.68288000",
    "wikiDataId": null
  },
  {
    "id": 75573,
    "name": "Tinajas",
    "state_id": 3470,
    "state_code": "HID",
    "country_id": 142,
    "country_code": "MX",
    "latitude": "19.89739000",
    "longitude": "-99.36662000",
    "wikiDataId": null
  },
  {
    "id": 75595,
    "name": "Tizayuca",
    "state_id": 3470,
    "state_code": "HID",
    "country_id": 142,
    "country_code": "MX",
    "latitude": "19.83721000",
    "longitude": "-98.97607000",
    "wikiDataId": null
  },
  {
    "id": 75611,
    "name": "Tlacomulco",
    "state_id": 3470,
    "state_code": "HID",
    "country_id": 142,
    "country_code": "MX",
    "latitude": "20.15301000",
    "longitude": "-98.12027000",
    "wikiDataId": null
  },
  {
    "id": 75622,
    "name": "Tlacpac",
    "state_id": 3470,
    "state_code": "HID",
    "country_id": 142,
    "country_code": "MX",
    "latitude": "20.14889000",
    "longitude": "-98.21694000",
    "wikiDataId": null
  },
  {
    "id": 75630,
    "name": "Tlahuelilpan",
    "state_id": 3470,
    "state_code": "HID",
    "country_id": 142,
    "country_code": "MX",
    "latitude": "20.13087000",
    "longitude": "-99.22677000",
    "wikiDataId": null
  },
  {
    "id": 75631,
    "name": "Tlahuelompa (San Francisco Tlahuelompa)",
    "state_id": 3470,
    "state_code": "HID",
    "country_id": 142,
    "country_code": "MX",
    "latitude": "20.65082000",
    "longitude": "-98.57522000",
    "wikiDataId": null
  },
  {
    "id": 75632,
    "name": "Tlahuiltepa",
    "state_id": 3470,
    "state_code": "HID",
    "country_id": 142,
    "country_code": "MX",
    "latitude": "20.89805000",
    "longitude": "-98.96263000",
    "wikiDataId": null
  },
  {
    "id": 75636,
    "name": "Tlalchiyahualica",
    "state_id": 3470,
    "state_code": "HID",
    "country_id": 142,
    "country_code": "MX",
    "latitude": "20.97086000",
    "longitude": "-98.39975000",
    "wikiDataId": null
  },
  {
    "id": 75643,
    "name": "Tlalminulpa",
    "state_id": 3470,
    "state_code": "HID",
    "country_id": 142,
    "country_code": "MX",
    "latitude": "20.07491000",
    "longitude": "-99.22220000",
    "wikiDataId": null
  },
  {
    "id": 75661,
    "name": "Tlamaco (San Gerónimo Tlamaco)",
    "state_id": 3470,
    "state_code": "HID",
    "country_id": 142,
    "country_code": "MX",
    "latitude": "20.03472000",
    "longitude": "-99.22917000",
    "wikiDataId": null
  },
  {
    "id": 75668,
    "name": "Tlanalapa",
    "state_id": 3470,
    "state_code": "HID",
    "country_id": 142,
    "country_code": "MX",
    "latitude": "19.82525000",
    "longitude": "-98.59449000",
    "wikiDataId": null
  },
  {
    "id": 75670,
    "name": "Tlanchinol",
    "state_id": 3470,
    "state_code": "HID",
    "country_id": 142,
    "country_code": "MX",
    "latitude": "21.03005000",
    "longitude": "-98.64996000",
    "wikiDataId": null
  },
  {
    "id": 75695,
    "name": "Tlaxcalilla",
    "state_id": 3470,
    "state_code": "HID",
    "country_id": 142,
    "country_code": "MX",
    "latitude": "20.37731000",
    "longitude": "-99.81545000",
    "wikiDataId": null
  },
  {
    "id": 75700,
    "name": "Tlaxcoapan",
    "state_id": 3470,
    "state_code": "HID",
    "country_id": 142,
    "country_code": "MX",
    "latitude": "20.09163000",
    "longitude": "-99.22042000",
    "wikiDataId": null
  },
  {
    "id": 75703,
    "name": "Tlaxocoyucan",
    "state_id": 3470,
    "state_code": "HID",
    "country_id": 142,
    "country_code": "MX",
    "latitude": "20.22895000",
    "longitude": "-98.49034000",
    "wikiDataId": null
  },
  {
    "id": 75720,
    "name": "Tolcayuca",
    "state_id": 3470,
    "state_code": "HID",
    "country_id": 142,
    "country_code": "MX",
    "latitude": "19.94112000",
    "longitude": "-98.91908000",
    "wikiDataId": null
  },
  {
    "id": 75791,
    "name": "Tula de Allende",
    "state_id": 3470,
    "state_code": "HID",
    "country_id": 142,
    "country_code": "MX",
    "latitude": "20.05161000",
    "longitude": "-99.34397000",
    "wikiDataId": null
  },
  {
    "id": 75792,
    "name": "Tulancingo",
    "state_id": 3470,
    "state_code": "HID",
    "country_id": 142,
    "country_code": "MX",
    "latitude": "20.08355000",
    "longitude": "-98.36288000",
    "wikiDataId": null
  },
  {
    "id": 75793,
    "name": "Tulancingo de Bravo",
    "state_id": 3470,
    "state_code": "HID",
    "country_id": 142,
    "country_code": "MX",
    "latitude": "20.11983000",
    "longitude": "-98.36049000",
    "wikiDataId": null
  },
  {
    "id": 75801,
    "name": "Tulipanes",
    "state_id": 3470,
    "state_code": "HID",
    "country_id": 142,
    "country_code": "MX",
    "latitude": "20.06028000",
    "longitude": "-98.76722000",
    "wikiDataId": null
  },
  {
    "id": 75809,
    "name": "Tunititlán",
    "state_id": 3470,
    "state_code": "HID",
    "country_id": 142,
    "country_code": "MX",
    "latitude": "20.24938000",
    "longitude": "-99.24433000",
    "wikiDataId": null
  },
  {
    "id": 75871,
    "name": "Unidad Habitacional Antonio Osorio de León (Bojay)",
    "state_id": 3470,
    "state_code": "HID",
    "country_id": 142,
    "country_code": "MX",
    "latitude": "20.04389000",
    "longitude": "-99.24472000",
    "wikiDataId": null
  },
  {
    "id": 75876,
    "name": "Unidad Minera 11 de Julio",
    "state_id": 3470,
    "state_code": "HID",
    "country_id": 142,
    "country_code": "MX",
    "latitude": "20.10472000",
    "longitude": "-98.72278000",
    "wikiDataId": null
  },
  {
    "id": 75878,
    "name": "Unidades Habitacionales",
    "state_id": 3470,
    "state_code": "HID",
    "country_id": 142,
    "country_code": "MX",
    "latitude": "20.06389000",
    "longitude": "-98.42056000",
    "wikiDataId": null
  },
  {
    "id": 75957,
    "name": "Ventoquipa",
    "state_id": 3470,
    "state_code": "HID",
    "country_id": 142,
    "country_code": "MX",
    "latitude": "20.03361000",
    "longitude": "-98.33778000",
    "wikiDataId": null
  },
  {
    "id": 75972,
    "name": "Vicente Guerrero",
    "state_id": 3470,
    "state_code": "HID",
    "country_id": 142,
    "country_code": "MX",
    "latitude": "20.16567000",
    "longitude": "-99.05746000",
    "wikiDataId": null
  },
  {
    "id": 75980,
    "name": "Vicente Guerrero (San Javier)",
    "state_id": 3470,
    "state_code": "HID",
    "country_id": 142,
    "country_code": "MX",
    "latitude": "19.94991000",
    "longitude": "-98.90135000",
    "wikiDataId": null
  },
  {
    "id": 76099,
    "name": "Vito",
    "state_id": 3470,
    "state_code": "HID",
    "country_id": 142,
    "country_code": "MX",
    "latitude": "19.99014000",
    "longitude": "-99.19898000",
    "wikiDataId": null
  },
  {
    "id": 76147,
    "name": "Xiquila",
    "state_id": 3470,
    "state_code": "HID",
    "country_id": 142,
    "country_code": "MX",
    "latitude": "21.07803000",
    "longitude": "-98.44315000",
    "wikiDataId": null
  },
  {
    "id": 76148,
    "name": "Xiteje de Zapata",
    "state_id": 3470,
    "state_code": "HID",
    "country_id": 142,
    "country_code": "MX",
    "latitude": "20.09728000",
    "longitude": "-99.38872000",
    "wikiDataId": null
  },
  {
    "id": 76157,
    "name": "Xochiatipan",
    "state_id": 3470,
    "state_code": "HID",
    "country_id": 142,
    "country_code": "MX",
    "latitude": "20.85794000",
    "longitude": "-98.28206000",
    "wikiDataId": null
  },
  {
    "id": 76158,
    "name": "Xochiatipan de Castillo",
    "state_id": 3470,
    "state_code": "HID",
    "country_id": 142,
    "country_code": "MX",
    "latitude": "20.83510000",
    "longitude": "-98.28556000",
    "wikiDataId": null
  },
  {
    "id": 76160,
    "name": "Xochicoatlán",
    "state_id": 3470,
    "state_code": "HID",
    "country_id": 142,
    "country_code": "MX",
    "latitude": "20.79715000",
    "longitude": "-98.63718000",
    "wikiDataId": null
  },
  {
    "id": 76178,
    "name": "Xochitlán",
    "state_id": 3470,
    "state_code": "HID",
    "country_id": 142,
    "country_code": "MX",
    "latitude": "20.29585000",
    "longitude": "-99.18741000",
    "wikiDataId": null
  },
  {
    "id": 76191,
    "name": "Xolostitla de Morelos (Xolostitla)",
    "state_id": 3470,
    "state_code": "HID",
    "country_id": 142,
    "country_code": "MX",
    "latitude": "20.06639000",
    "longitude": "-98.63861000",
    "wikiDataId": null
  },
  {
    "id": 76202,
    "name": "Xoxolpa",
    "state_id": 3470,
    "state_code": "HID",
    "country_id": 142,
    "country_code": "MX",
    "latitude": "20.87574000",
    "longitude": "-98.42386000",
    "wikiDataId": null
  },
  {
    "id": 76210,
    "name": "Yahualica",
    "state_id": 3470,
    "state_code": "HID",
    "country_id": 142,
    "country_code": "MX",
    "latitude": "20.91485000",
    "longitude": "-98.37868000",
    "wikiDataId": null
  },
  {
    "id": 76241,
    "name": "Yolotepec",
    "state_id": 3470,
    "state_code": "HID",
    "country_id": 142,
    "country_code": "MX",
    "latitude": "20.38767000",
    "longitude": "-99.07307000",
    "wikiDataId": null
  },
  {
    "id": 76254,
    "name": "Zacacuautla",
    "state_id": 3470,
    "state_code": "HID",
    "country_id": 142,
    "country_code": "MX",
    "latitude": "20.21500000",
    "longitude": "-98.22887000",
    "wikiDataId": null
  },
  {
    "id": 76258,
    "name": "Zacamulpa",
    "state_id": 3470,
    "state_code": "HID",
    "country_id": 142,
    "country_code": "MX",
    "latitude": "20.00583000",
    "longitude": "-99.25694000",
    "wikiDataId": null
  },
  {
    "id": 76290,
    "name": "Zacualtipán",
    "state_id": 3470,
    "state_code": "HID",
    "country_id": 142,
    "country_code": "MX",
    "latitude": "20.65002000",
    "longitude": "-98.65628000",
    "wikiDataId": null
  },
  {
    "id": 76289,
    "name": "Zacualtipanito",
    "state_id": 3470,
    "state_code": "HID",
    "country_id": 142,
    "country_code": "MX",
    "latitude": "21.15407000",
    "longitude": "-98.79997000",
    "wikiDataId": null
  },
  {
    "id": 76312,
    "name": "Zapotlán de Juárez",
    "state_id": 3470,
    "state_code": "HID",
    "country_id": 142,
    "country_code": "MX",
    "latitude": "19.97709000",
    "longitude": "-98.86420000",
    "wikiDataId": null
  },
  {
    "id": 76328,
    "name": "Zempoala",
    "state_id": 3470,
    "state_code": "HID",
    "country_id": 142,
    "country_code": "MX",
    "latitude": "19.93850000",
    "longitude": "-98.66871000",
    "wikiDataId": null
  },
  {
    "id": 76336,
    "name": "Zimapan",
    "state_id": 3470,
    "state_code": "HID",
    "country_id": 142,
    "country_code": "MX",
    "latitude": "20.73814000",
    "longitude": "-99.38180000",
    "wikiDataId": null
  },
  {
    "id": 76356,
    "name": "Zocea",
    "state_id": 3470,
    "state_code": "HID",
    "country_id": 142,
    "country_code": "MX",
    "latitude": "20.43760000",
    "longitude": "-99.35742000",
    "wikiDataId": null
  },
  {
    "id": 76371,
    "name": "Zoquitipán",
    "state_id": 3470,
    "state_code": "HID",
    "country_id": 142,
    "country_code": "MX",
    "latitude": "20.90902000",
    "longitude": "-98.43242000",
    "wikiDataId": null
  },
  {
    "id": 76374,
    "name": "Zothé",
    "state_id": 3470,
    "state_code": "HID",
    "country_id": 142,
    "country_code": "MX",
    "latitude": "20.36959000",
    "longitude": "-99.71581000",
    "wikiDataId": null
  },
  {
    "id": 76376,
    "name": "Zotoluca",
    "state_id": 3470,
    "state_code": "HID",
    "country_id": 142,
    "country_code": "MX",
    "latitude": "19.61063000",
    "longitude": "-98.51094000",
    "wikiDataId": null
  }
]