[
  {
    "id": 154003,
    "name": "Abu Dis",
    "state_id": 5124,
    "state_code": "JEM",
    "country_id": 169,
    "country_code": "PS",
    "latitude": "31.76361630",
    "longitude": "35.23712230",
    "wikiDataId": null
  },
  {
    "id": 154004,
    "name": "Ar-Ram",
    "state_id": 5124,
    "state_code": "JEM",
    "country_id": 169,
    "country_code": "PS",
    "latitude": "31.84928630",
    "longitude": "35.21288930",
    "wikiDataId": null
  },
  {
    "id": 154006,
    "name": "Beit 'Anan",
    "state_id": 5124,
    "state_code": "JEM",
    "country_id": 169,
    "country_code": "PS",
    "latitude": "31.85109930",
    "longitude": "35.09111930",
    "wikiDataId": null
  },
  {
    "id": 154005,
    "name": "Biddu",
    "state_id": 5124,
    "state_code": "JEM",
    "country_id": 169,
    "country_code": "PS",
    "latitude": "31.83445820",
    "longitude": "35.07441730",
    "wikiDataId": null
  },
  {
    "id": 154007,
    "name": "Bir Nabala",
    "state_id": 5124,
    "state_code": "JEM",
    "country_id": 169,
    "country_code": "PS",
    "latitude": "31.85121630",
    "longitude": "35.18023530",
    "wikiDataId": null
  },
  {
    "id": 154002,
    "name": "East Jerusalem",
    "state_id": 5124,
    "state_code": "JEM",
    "country_id": 169,
    "country_code": "PS",
    "latitude": "31.79650430",
    "longitude": "35.01054340",
    "wikiDataId": null
  },
  {
    "id": 154008,
    "name": "Hizma",
    "state_id": 5124,
    "state_code": "JEM",
    "country_id": 169,
    "country_code": "PS",
    "latitude": "31.83649540",
    "longitude": "35.24263130",
    "wikiDataId": null
  },
  {
    "id": 154009,
    "name": "Kafr Aqab",
    "state_id": 5124,
    "state_code": "JEM",
    "country_id": 169,
    "country_code": "PS",
    "latitude": "31.87472270",
    "longitude": "35.21724000",
    "wikiDataId": null
  },
  {
    "id": 154011,
    "name": "Qalandiya",
    "state_id": 5124,
    "state_code": "JEM",
    "country_id": 169,
    "country_code": "PS",
    "latitude": "31.86163130",
    "longitude": "35.18731430",
    "wikiDataId": null
  },
  {
    "id": 154010,
    "name": "Qatanna",
    "state_id": 5124,
    "state_code": "JEM",
    "country_id": 169,
    "country_code": "PS",
    "latitude": "31.82695730",
    "longitude": "35.08960030",
    "wikiDataId": null
  }
]