[
  {
    "id": 130177,
    "name": "Bắc Giang",
    "state_id": 3791,
    "state_code": "56",
    "country_id": 240,
    "country_code": "VN",
    "latitude": "21.27307000",
    "longitude": "106.19460000",
    "wikiDataId": null
  },
  {
    "id": 130179,
    "name": "Bắc Ninh",
    "state_id": 3791,
    "state_code": "56",
    "country_id": 240,
    "country_code": "VN",
    "latitude": "21.18608000",
    "longitude": "106.07631000",
    "wikiDataId": null
  },
  {
    "id": 130186,
    "name": "Cung Kiệm",
    "state_id": 3791,
    "state_code": "56",
    "country_id": 240,
    "country_code": "VN",
    "latitude": "21.18697000",
    "longitude": "106.16076000",
    "wikiDataId": null
  },
  {
    "id": 130285,
    "name": "Huyện Gia Bình",
    "state_id": 3791,
    "state_code": "56",
    "country_id": 240,
    "country_code": "VN",
    "latitude": "21.07795000",
    "longitude": "106.20903000",
    "wikiDataId": null
  },
  {
    "id": 130353,
    "name": "Huyện Lục Nam",
    "state_id": 3791,
    "state_code": "56",
    "country_id": 240,
    "country_code": "VN",
    "latitude": "21.27548000",
    "longitude": "106.46519000",
    "wikiDataId": null
  },
  {
    "id": 130354,
    "name": "Huyện Lục Ngạn",
    "state_id": 3791,
    "state_code": "56",
    "country_id": 240,
    "country_code": "VN",
    "latitude": "21.43719000",
    "longitude": "106.65845000",
    "wikiDataId": null
  },
  {
    "id": 130441,
    "name": "Huyện Thuận Thành",
    "state_id": 3791,
    "state_code": "56",
    "country_id": 240,
    "country_code": "VN",
    "latitude": "21.04085000",
    "longitude": "106.07515000",
    "wikiDataId": null
  },
  {
    "id": 130455,
    "name": "Huyện Tiên Du",
    "state_id": 3791,
    "state_code": "56",
    "country_id": 240,
    "country_code": "VN",
    "latitude": "21.12195000",
    "longitude": "106.03995000",
    "wikiDataId": null
  },
  {
    "id": 130518,
    "name": "Huyện Yên Phong",
    "state_id": 3791,
    "state_code": "56",
    "country_id": 240,
    "country_code": "VN",
    "latitude": "21.20676000",
    "longitude": "105.99427000",
    "wikiDataId": null
  },
  {
    "id": 130521,
    "name": "Huyện Yên Thế",
    "state_id": 3791,
    "state_code": "56",
    "country_id": 240,
    "country_code": "VN",
    "latitude": "21.51667000",
    "longitude": "106.11689000",
    "wikiDataId": null
  }
]