[
  {
    "id": 19282,
    "name": "Anlu",
    "state_id": 2274,
    "state_code": "HB",
    "country_id": 45,
    "country_code": "CN",
    "latitude": "31.25750000",
    "longitude": "113.67833000",
    "wikiDataId": null
  },
  {
    "id": 19353,
    "name": "Buhe",
    "state_id": 2274,
    "state_code": "HB",
    "country_id": 45,
    "country_code": "CN",
    "latitude": "30.28757000",
    "longitude": "112.22979000",
    "wikiDataId": null
  },
  {
    "id": 19355,
    "name": "Caidian",
    "state_id": 2274,
    "state_code": "HB",
    "country_id": 45,
    "country_code": "CN",
    "latitude": "30.58333000",
    "longitude": "114.03333000",
    "wikiDataId": null
  },
  {
    "id": 19359,
    "name": "Caohe",
    "state_id": 2274,
    "state_code": "HB",
    "country_id": 45,
    "country_code": "CN",
    "latitude": "30.22970000",
    "longitude": "115.43346000",
    "wikiDataId": null
  },
  {
    "id": 19396,
    "name": "Chengzhong",
    "state_id": 2274,
    "state_code": "HB",
    "country_id": 45,
    "country_code": "CN",
    "latitude": "30.94454000",
    "longitude": "113.55284000",
    "wikiDataId": null
  },
  {
    "id": 19425,
    "name": "Danjiangkou",
    "state_id": 2274,
    "state_code": "HB",
    "country_id": 45,
    "country_code": "CN",
    "latitude": "32.54278000",
    "longitude": "111.50861000",
    "wikiDataId": null
  },
  {
    "id": 19440,
    "name": "Daye",
    "state_id": 2274,
    "state_code": "HB",
    "country_id": 45,
    "country_code": "CN",
    "latitude": "30.08333000",
    "longitude": "114.95000000",
    "wikiDataId": null
  },
  {
    "id": 19486,
    "name": "Duobao",
    "state_id": 2274,
    "state_code": "HB",
    "country_id": 45,
    "country_code": "CN",
    "latitude": "30.67000000",
    "longitude": "112.68952000",
    "wikiDataId": null
  },
  {
    "id": 19491,
    "name": "Enshi",
    "state_id": 2274,
    "state_code": "HB",
    "country_id": 45,
    "country_code": "CN",
    "latitude": "30.30000000",
    "longitude": "109.48333000",
    "wikiDataId": null
  },
  {
    "id": 19492,
    "name": "Enshi Tujiazu Miaozu Zizhizhou",
    "state_id": 2274,
    "state_code": "HB",
    "country_id": 45,
    "country_code": "CN",
    "latitude": "30.19810000",
    "longitude": "109.67555000",
    "wikiDataId": null
  },
  {
    "id": 19495,
    "name": "Ezhou",
    "state_id": 2274,
    "state_code": "HB",
    "country_id": 45,
    "country_code": "CN",
    "latitude": "30.40000000",
    "longitude": "114.83333000",
    "wikiDataId": null
  },
  {
    "id": 19496,
    "name": "Ezhou Shi",
    "state_id": 2274,
    "state_code": "HB",
    "country_id": 45,
    "country_code": "CN",
    "latitude": "30.48832000",
    "longitude": "114.77979000",
    "wikiDataId": null
  },
  {
    "id": 19507,
    "name": "Fengkou",
    "state_id": 2274,
    "state_code": "HB",
    "country_id": 45,
    "country_code": "CN",
    "latitude": "30.08268000",
    "longitude": "113.33346000",
    "wikiDataId": null
  },
  {
    "id": 19560,
    "name": "Guangshui",
    "state_id": 2274,
    "state_code": "HB",
    "country_id": 45,
    "country_code": "CN",
    "latitude": "31.61990000",
    "longitude": "113.99780000",
    "wikiDataId": null
  },
  {
    "id": 19567,
    "name": "Gucheng Chengguanzhen",
    "state_id": 2274,
    "state_code": "HB",
    "country_id": 45,
    "country_code": "CN",
    "latitude": "32.26604000",
    "longitude": "111.63476000",
    "wikiDataId": null
  },
  {
    "id": 19596,
    "name": "Hanchuan",
    "state_id": 2274,
    "state_code": "HB",
    "country_id": 45,
    "country_code": "CN",
    "latitude": "30.65000000",
    "longitude": "113.76667000",
    "wikiDataId": null
  },
  {
    "id": 19647,
    "name": "Huanggang",
    "state_id": 2274,
    "state_code": "HB",
    "country_id": 45,
    "country_code": "CN",
    "latitude": "30.45143000",
    "longitude": "114.87035000",
    "wikiDataId": null
  },
  {
    "id": 19651,
    "name": "Huangmei",
    "state_id": 2274,
    "state_code": "HB",
    "country_id": 45,
    "country_code": "CN",
    "latitude": "30.19235000",
    "longitude": "116.02496000",
    "wikiDataId": null
  },
  {
    "id": 19654,
    "name": "Huangpi",
    "state_id": 2274,
    "state_code": "HB",
    "country_id": 45,
    "country_code": "CN",
    "latitude": "30.88453000",
    "longitude": "114.37789000",
    "wikiDataId": null
  },
  {
    "id": 19658,
    "name": "Huangshi",
    "state_id": 2274,
    "state_code": "HB",
    "country_id": 45,
    "country_code": "CN",
    "latitude": "30.24706000",
    "longitude": "115.04814000",
    "wikiDataId": null
  },
  {
    "id": 19663,
    "name": "Huangzhou",
    "state_id": 2274,
    "state_code": "HB",
    "country_id": 45,
    "country_code": "CN",
    "latitude": "30.45000000",
    "longitude": "114.80000000",
    "wikiDataId": null
  },
  {
    "id": 19735,
    "name": "Jingling",
    "state_id": 2274,
    "state_code": "HB",
    "country_id": 45,
    "country_code": "CN",
    "latitude": "30.65000000",
    "longitude": "113.10000000",
    "wikiDataId": null
  },
  {
    "id": 19736,
    "name": "Jingmen",
    "state_id": 2274,
    "state_code": "HB",
    "country_id": 45,
    "country_code": "CN",
    "latitude": "31.03361000",
    "longitude": "112.20472000",
    "wikiDataId": null
  },
  {
    "id": 19737,
    "name": "Jingmen Shi",
    "state_id": 2274,
    "state_code": "HB",
    "country_id": 45,
    "country_code": "CN",
    "latitude": "31.11244000",
    "longitude": "112.64310000",
    "wikiDataId": null
  },
  {
    "id": 19738,
    "name": "Jingzhou",
    "state_id": 2274,
    "state_code": "HB",
    "country_id": 45,
    "country_code": "CN",
    "latitude": "30.35028000",
    "longitude": "112.19028000",
    "wikiDataId": null
  },
  {
    "id": 19805,
    "name": "Laohekou",
    "state_id": 2274,
    "state_code": "HB",
    "country_id": 45,
    "country_code": "CN",
    "latitude": "32.38583000",
    "longitude": "111.66778000",
    "wikiDataId": null
  },
  {
    "id": 19834,
    "name": "Lichuan",
    "state_id": 2274,
    "state_code": "HB",
    "country_id": 45,
    "country_code": "CN",
    "latitude": "30.30000000",
    "longitude": "108.85000000",
    "wikiDataId": null
  },
  {
    "id": 19900,
    "name": "Macheng",
    "state_id": 2274,
    "state_code": "HB",
    "country_id": 45,
    "country_code": "CN",
    "latitude": "31.18013000",
    "longitude": "115.02213000",
    "wikiDataId": null
  },
  {
    "id": 19951,
    "name": "Nanzhang Chengguanzhen",
    "state_id": 2274,
    "state_code": "HB",
    "country_id": 45,
    "country_code": "CN",
    "latitude": "31.78394000",
    "longitude": "111.82752000",
    "wikiDataId": null
  },
  {
    "id": 19997,
    "name": "Puqi",
    "state_id": 2274,
    "state_code": "HB",
    "country_id": 45,
    "country_code": "CN",
    "latitude": "29.71667000",
    "longitude": "113.88333000",
    "wikiDataId": null
  },
  {
    "id": 20008,
    "name": "Qianjiang",
    "state_id": 2274,
    "state_code": "HB",
    "country_id": 45,
    "country_code": "CN",
    "latitude": "30.42100000",
    "longitude": "112.89190000",
    "wikiDataId": null
  },
  {
    "id": 20022,
    "name": "Qingquan",
    "state_id": 2274,
    "state_code": "HB",
    "country_id": 45,
    "country_code": "CN",
    "latitude": "30.45113000",
    "longitude": "115.25593000",
    "wikiDataId": null
  },
  {
    "id": 20085,
    "name": "Shashi",
    "state_id": 2274,
    "state_code": "HB",
    "country_id": 45,
    "country_code": "CN",
    "latitude": "30.30722000",
    "longitude": "112.24472000",
    "wikiDataId": null
  },
  {
    "id": 20089,
    "name": "Shennongjia",
    "state_id": 2274,
    "state_code": "HB",
    "country_id": 45,
    "country_code": "CN",
    "latitude": "31.58339000",
    "longitude": "110.49720000",
    "wikiDataId": null
  },
  {
    "id": 20109,
    "name": "Shiyan",
    "state_id": 2274,
    "state_code": "HB",
    "country_id": 45,
    "country_code": "CN",
    "latitude": "32.64750000",
    "longitude": "110.77806000",
    "wikiDataId": null
  },
  {
    "id": 20145,
    "name": "Suizhou",
    "state_id": 2274,
    "state_code": "HB",
    "country_id": 45,
    "country_code": "CN",
    "latitude": "31.71111000",
    "longitude": "113.36306000",
    "wikiDataId": null
  },
  {
    "id": 20233,
    "name": "Wuhan",
    "state_id": 2274,
    "state_code": "HB",
    "country_id": 45,
    "country_code": "CN",
    "latitude": "30.58333000",
    "longitude": "114.26667000",
    "wikiDataId": null
  },
  {
    "id": 20240,
    "name": "Wuxue",
    "state_id": 2274,
    "state_code": "HB",
    "country_id": 45,
    "country_code": "CN",
    "latitude": "29.85058000",
    "longitude": "115.55250000",
    "wikiDataId": null
  },
  {
    "id": 20258,
    "name": "Xiangyang",
    "state_id": 2274,
    "state_code": "HB",
    "country_id": 45,
    "country_code": "CN",
    "latitude": "32.04220000",
    "longitude": "112.14479000",
    "wikiDataId": null
  },
  {
    "id": 20261,
    "name": "Xianning",
    "state_id": 2274,
    "state_code": "HB",
    "country_id": 45,
    "country_code": "CN",
    "latitude": "29.84347000",
    "longitude": "114.32201000",
    "wikiDataId": null
  },
  {
    "id": 20262,
    "name": "Xianning Prefecture",
    "state_id": 2274,
    "state_code": "HB",
    "country_id": 45,
    "country_code": "CN",
    "latitude": "29.66609000",
    "longitude": "114.26389000",
    "wikiDataId": null
  },
  {
    "id": 20266,
    "name": "Xiantao",
    "state_id": 2274,
    "state_code": "HB",
    "country_id": 45,
    "country_code": "CN",
    "latitude": "30.37080000",
    "longitude": "113.44294000",
    "wikiDataId": null
  },
  {
    "id": 20269,
    "name": "Xiaogan",
    "state_id": 2274,
    "state_code": "HB",
    "country_id": 45,
    "country_code": "CN",
    "latitude": "30.92689000",
    "longitude": "113.92221000",
    "wikiDataId": null
  },
  {
    "id": 20282,
    "name": "Xihe",
    "state_id": 2274,
    "state_code": "HB",
    "country_id": 45,
    "country_code": "CN",
    "latitude": "31.68635000",
    "longitude": "113.46585000",
    "wikiDataId": null
  },
  {
    "id": 20290,
    "name": "Xindi",
    "state_id": 2274,
    "state_code": "HB",
    "country_id": 45,
    "country_code": "CN",
    "latitude": "29.81667000",
    "longitude": "113.46667000",
    "wikiDataId": null
  },
  {
    "id": 20305,
    "name": "Xinshi",
    "state_id": 2274,
    "state_code": "HB",
    "country_id": 45,
    "country_code": "CN",
    "latitude": "31.04704000",
    "longitude": "113.14098000",
    "wikiDataId": null
  },
  {
    "id": 20317,
    "name": "Xinzhou",
    "state_id": 2274,
    "state_code": "HB",
    "country_id": 45,
    "country_code": "CN",
    "latitude": "30.86667000",
    "longitude": "114.80000000",
    "wikiDataId": null
  },
  {
    "id": 20323,
    "name": "Xiulin",
    "state_id": 2274,
    "state_code": "HB",
    "country_id": 45,
    "country_code": "CN",
    "latitude": "29.71667000",
    "longitude": "112.40000000",
    "wikiDataId": null
  },
  {
    "id": 20366,
    "name": "Yichang",
    "state_id": 2274,
    "state_code": "HB",
    "country_id": 45,
    "country_code": "CN",
    "latitude": "30.71444000",
    "longitude": "111.28472000",
    "wikiDataId": null
  },
  {
    "id": 20367,
    "name": "Yicheng",
    "state_id": 2274,
    "state_code": "HB",
    "country_id": 45,
    "country_code": "CN",
    "latitude": "31.70472000",
    "longitude": "112.25611000",
    "wikiDataId": null
  },
  {
    "id": 20402,
    "name": "Yunmeng Chengguanzhen",
    "state_id": 2274,
    "state_code": "HB",
    "country_id": 45,
    "country_code": "CN",
    "latitude": "31.06251000",
    "longitude": "113.76545000",
    "wikiDataId": null
  },
  {
    "id": 20414,
    "name": "Zaoyang",
    "state_id": 2274,
    "state_code": "HB",
    "country_id": 45,
    "country_code": "CN",
    "latitude": "32.12722000",
    "longitude": "112.75417000",
    "wikiDataId": null
  },
  {
    "id": 20445,
    "name": "Zhicheng",
    "state_id": 2274,
    "state_code": "HB",
    "country_id": 45,
    "country_code": "CN",
    "latitude": "30.29556000",
    "longitude": "111.50472000",
    "wikiDataId": null
  },
  {
    "id": 20446,
    "name": "Zhijiang",
    "state_id": 2274,
    "state_code": "HB",
    "country_id": 45,
    "country_code": "CN",
    "latitude": "30.42139000",
    "longitude": "111.75333000",
    "wikiDataId": null
  },
  {
    "id": 20455,
    "name": "Zhongxiang",
    "state_id": 2274,
    "state_code": "HB",
    "country_id": 45,
    "country_code": "CN",
    "latitude": "31.16611000",
    "longitude": "112.58306000",
    "wikiDataId": null
  }
]