[
  {
    "id": 63144,
    "name": "Ar Ramthā",
    "state_id": 960,
    "state_code": "IR",
    "country_id": 111,
    "country_code": "JO",
    "latitude": "32.55873000",
    "longitude": "36.00816000",
    "wikiDataId": null
  },
  {
    "id": 63146,
    "name": "Ash Shajarah",
    "state_id": 960,
    "state_code": "IR",
    "country_id": 111,
    "country_code": "JO",
    "latitude": "32.64391000",
    "longitude": "35.94175000",
    "wikiDataId": null
  },
  {
    "id": 63151,
    "name": "Aţ Ţayyibah",
    "state_id": 960,
    "state_code": "IR",
    "country_id": 111,
    "country_code": "JO",
    "latitude": "32.54304000",
    "longitude": "35.71756000",
    "wikiDataId": null
  },
  {
    "id": 63152,
    "name": "Aţ Ţurrah",
    "state_id": 960,
    "state_code": "IR",
    "country_id": 111,
    "country_code": "JO",
    "latitude": "32.63979000",
    "longitude": "35.98943000",
    "wikiDataId": null
  },
  {
    "id": 63148,
    "name": "Aydūn",
    "state_id": 960,
    "state_code": "IR",
    "country_id": 111,
    "country_code": "JO",
    "latitude": "32.50528000",
    "longitude": "35.85809000",
    "wikiDataId": null
  },
  {
    "id": 63155,
    "name": "Bayt Īdis",
    "state_id": 960,
    "state_code": "IR",
    "country_id": 111,
    "country_code": "JO",
    "latitude": "32.43775000",
    "longitude": "35.69765000",
    "wikiDataId": null
  },
  {
    "id": 63154,
    "name": "Bayt Yāfā",
    "state_id": 960,
    "state_code": "IR",
    "country_id": 111,
    "country_code": "JO",
    "latitude": "32.52253000",
    "longitude": "35.78618000",
    "wikiDataId": null
  },
  {
    "id": 63158,
    "name": "Dayr Yūsuf",
    "state_id": 960,
    "state_code": "IR",
    "country_id": 111,
    "country_code": "JO",
    "latitude": "32.48701000",
    "longitude": "35.79635000",
    "wikiDataId": null
  },
  {
    "id": 63201,
    "name": "Ḩakamā",
    "state_id": 960,
    "state_code": "IR",
    "country_id": 111,
    "country_code": "JO",
    "latitude": "32.59354000",
    "longitude": "35.88320000",
    "wikiDataId": null
  },
  {
    "id": 63205,
    "name": "Ḩātim",
    "state_id": 960,
    "state_code": "IR",
    "country_id": 111,
    "country_code": "JO",
    "latitude": "32.64492000",
    "longitude": "35.77771000",
    "wikiDataId": null
  },
  {
    "id": 63159,
    "name": "Irbid",
    "state_id": 960,
    "state_code": "IR",
    "country_id": 111,
    "country_code": "JO",
    "latitude": "32.55556000",
    "longitude": "35.85000000",
    "wikiDataId": null
  },
  {
    "id": 63161,
    "name": "Judita",
    "state_id": 960,
    "state_code": "IR",
    "country_id": 111,
    "country_code": "JO",
    "latitude": "32.40792000",
    "longitude": "35.70802000",
    "wikiDataId": null
  },
  {
    "id": 63163,
    "name": "Kafr Abīl",
    "state_id": 960,
    "state_code": "IR",
    "country_id": 111,
    "country_code": "JO",
    "latitude": "32.41752000",
    "longitude": "35.66305000",
    "wikiDataId": null
  },
  {
    "id": 63164,
    "name": "Kafr Asad",
    "state_id": 960,
    "state_code": "IR",
    "country_id": 111,
    "country_code": "JO",
    "latitude": "32.59800000",
    "longitude": "35.71266000",
    "wikiDataId": null
  },
  {
    "id": 63165,
    "name": "Kafr Sawm",
    "state_id": 960,
    "state_code": "IR",
    "country_id": 111,
    "country_code": "JO",
    "latitude": "32.68527000",
    "longitude": "35.80102000",
    "wikiDataId": null
  },
  {
    "id": 63167,
    "name": "Kharjā",
    "state_id": 960,
    "state_code": "IR",
    "country_id": 111,
    "country_code": "JO",
    "latitude": "32.65988000",
    "longitude": "35.88782000",
    "wikiDataId": null
  },
  {
    "id": 63168,
    "name": "Kitim",
    "state_id": 960,
    "state_code": "IR",
    "country_id": 111,
    "country_code": "JO",
    "latitude": "32.43834000",
    "longitude": "35.89677000",
    "wikiDataId": null
  },
  {
    "id": 63169,
    "name": "Kurayyimah",
    "state_id": 960,
    "state_code": "IR",
    "country_id": 111,
    "country_code": "JO",
    "latitude": "32.27639000",
    "longitude": "35.59938000",
    "wikiDataId": null
  },
  {
    "id": 63172,
    "name": "Malkā",
    "state_id": 960,
    "state_code": "IR",
    "country_id": 111,
    "country_code": "JO",
    "latitude": "32.67645000",
    "longitude": "35.74851000",
    "wikiDataId": null
  },
  {
    "id": 63176,
    "name": "Qumaym",
    "state_id": 960,
    "state_code": "IR",
    "country_id": 111,
    "country_code": "JO",
    "latitude": "32.57174000",
    "longitude": "35.73452000",
    "wikiDataId": null
  },
  {
    "id": 63184,
    "name": "Saḩam al Kaffārāt",
    "state_id": 960,
    "state_code": "IR",
    "country_id": 111,
    "country_code": "JO",
    "latitude": "32.69848000",
    "longitude": "35.77438000",
    "wikiDataId": null
  },
  {
    "id": 63186,
    "name": "Sāl",
    "state_id": 960,
    "state_code": "IR",
    "country_id": 111,
    "country_code": "JO",
    "latitude": "32.56897000",
    "longitude": "35.91185000",
    "wikiDataId": null
  },
  {
    "id": 63200,
    "name": "Şammā",
    "state_id": 960,
    "state_code": "IR",
    "country_id": 111,
    "country_code": "JO",
    "latitude": "32.57102000",
    "longitude": "35.68984000",
    "wikiDataId": null
  },
  {
    "id": 63189,
    "name": "Tibnah",
    "state_id": 960,
    "state_code": "IR",
    "country_id": 111,
    "country_code": "JO",
    "latitude": "32.47521000",
    "longitude": "35.73056000",
    "wikiDataId": null
  },
  {
    "id": 63190,
    "name": "Umm Qays",
    "state_id": 960,
    "state_code": "IR",
    "country_id": 111,
    "country_code": "JO",
    "latitude": "32.65348000",
    "longitude": "35.68457000",
    "wikiDataId": null
  },
  {
    "id": 63193,
    "name": "Waqqāş",
    "state_id": 960,
    "state_code": "IR",
    "country_id": 111,
    "country_code": "JO",
    "latitude": "32.54214000",
    "longitude": "35.60508000",
    "wikiDataId": null
  },
  {
    "id": 63197,
    "name": "Zaḩar",
    "state_id": 960,
    "state_code": "IR",
    "country_id": 111,
    "country_code": "JO",
    "latitude": "32.56670000",
    "longitude": "35.77811000",
    "wikiDataId": null
  }
]