[
  {
    "id": 155064,
    "name": "Ada",
    "state_id": 3736,
    "state_code": "03",
    "country_id": 196,
    "country_code": "RS",
    "latitude": "45.78604090",
    "longitude": "19.84788560",
    "wikiDataId": null
  },
  {
    "id": 97142,
    "name": "Adorjan",
    "state_id": 3736,
    "state_code": "03",
    "country_id": 196,
    "country_code": "RS",
    "latitude": "46.00333000",
    "longitude": "20.04007000",
    "wikiDataId": null
  },
  {
    "id": 97151,
    "name": "Banatska Topola",
    "state_id": 3736,
    "state_code": "03",
    "country_id": 196,
    "country_code": "RS",
    "latitude": "45.67248000",
    "longitude": "20.46530000",
    "wikiDataId": null
  },
  {
    "id": 97156,
    "name": "Banatsko Veliko Selo",
    "state_id": 3736,
    "state_code": "03",
    "country_id": 196,
    "country_code": "RS",
    "latitude": "45.81961000",
    "longitude": "20.60772000",
    "wikiDataId": null
  },
  {
    "id": 97167,
    "name": "Bašaid",
    "state_id": 3736,
    "state_code": "03",
    "country_id": 196,
    "country_code": "RS",
    "latitude": "45.64102000",
    "longitude": "20.41434000",
    "wikiDataId": null
  },
  {
    "id": 97461,
    "name": "Čoka",
    "state_id": 3736,
    "state_code": "03",
    "country_id": 196,
    "country_code": "RS",
    "latitude": "45.94250000",
    "longitude": "20.14333000",
    "wikiDataId": null
  },
  {
    "id": 97213,
    "name": "Gornji Breg",
    "state_id": 3736,
    "state_code": "03",
    "country_id": 196,
    "country_code": "RS",
    "latitude": "45.91995000",
    "longitude": "20.01766000",
    "wikiDataId": null
  },
  {
    "id": 97233,
    "name": "Jazovo",
    "state_id": 3736,
    "state_code": "03",
    "country_id": 196,
    "country_code": "RS",
    "latitude": "45.89876000",
    "longitude": "20.22130000",
    "wikiDataId": null
  },
  {
    "id": 97240,
    "name": "Kanjiža",
    "state_id": 3736,
    "state_code": "03",
    "country_id": 196,
    "country_code": "RS",
    "latitude": "46.06667000",
    "longitude": "20.05000000",
    "wikiDataId": null
  },
  {
    "id": 97241,
    "name": "Kikinda",
    "state_id": 3736,
    "state_code": "03",
    "country_id": 196,
    "country_code": "RS",
    "latitude": "45.82972000",
    "longitude": "20.46528000",
    "wikiDataId": null
  },
  {
    "id": 97296,
    "name": "Mokrin",
    "state_id": 3736,
    "state_code": "03",
    "country_id": 196,
    "country_code": "RS",
    "latitude": "45.93362000",
    "longitude": "20.41215000",
    "wikiDataId": null
  },
  {
    "id": 97297,
    "name": "Mol",
    "state_id": 3736,
    "state_code": "03",
    "country_id": 196,
    "country_code": "RS",
    "latitude": "45.76457000",
    "longitude": "20.13286000",
    "wikiDataId": null
  },
  {
    "id": 97300,
    "name": "Nakovo",
    "state_id": 3736,
    "state_code": "03",
    "country_id": 196,
    "country_code": "RS",
    "latitude": "45.87503000",
    "longitude": "20.56709000",
    "wikiDataId": null
  },
  {
    "id": 97312,
    "name": "Novi Kneževac",
    "state_id": 3736,
    "state_code": "03",
    "country_id": 196,
    "country_code": "RS",
    "latitude": "46.05000000",
    "longitude": "20.10000000",
    "wikiDataId": null
  },
  {
    "id": 97313,
    "name": "Novi Kozarci",
    "state_id": 3736,
    "state_code": "03",
    "country_id": 196,
    "country_code": "RS",
    "latitude": "45.78241000",
    "longitude": "20.62289000",
    "wikiDataId": null
  },
  {
    "id": 97325,
    "name": "Ostojićevo",
    "state_id": 3736,
    "state_code": "03",
    "country_id": 196,
    "country_code": "RS",
    "latitude": "45.88863000",
    "longitude": "20.16642000",
    "wikiDataId": null
  },
  {
    "id": 97328,
    "name": "Padej",
    "state_id": 3736,
    "state_code": "03",
    "country_id": 196,
    "country_code": "RS",
    "latitude": "45.82756000",
    "longitude": "20.16279000",
    "wikiDataId": null
  },
  {
    "id": 97367,
    "name": "Rusko Selo",
    "state_id": 3736,
    "state_code": "03",
    "country_id": 196,
    "country_code": "RS",
    "latitude": "45.76291000",
    "longitude": "20.57117000",
    "wikiDataId": null
  },
  {
    "id": 97369,
    "name": "Sajan",
    "state_id": 3736,
    "state_code": "03",
    "country_id": 196,
    "country_code": "RS",
    "latitude": "45.84227000",
    "longitude": "20.27815000",
    "wikiDataId": null
  },
  {
    "id": 97375,
    "name": "Sanad",
    "state_id": 3736,
    "state_code": "03",
    "country_id": 196,
    "country_code": "RS",
    "latitude": "45.97596000",
    "longitude": "20.10816000",
    "wikiDataId": null
  },
  {
    "id": 97378,
    "name": "Senta",
    "state_id": 3736,
    "state_code": "03",
    "country_id": 196,
    "country_code": "RS",
    "latitude": "45.92750000",
    "longitude": "20.07722000",
    "wikiDataId": null
  },
  {
    "id": 97408,
    "name": "Tiszahegyes",
    "state_id": 3736,
    "state_code": "03",
    "country_id": 196,
    "country_code": "RS",
    "latitude": "45.82648000",
    "longitude": "20.31791000",
    "wikiDataId": null
  }
]