[
  {
    "id": 21810,
    "name": "Baracoa",
    "state_id": 285,
    "state_code": "14",
    "country_id": 56,
    "country_code": "CU",
    "latitude": "20.34711000",
    "longitude": "-74.49624000",
    "wikiDataId": null
  },
  {
    "id": 21860,
    "name": "Guantánamo",
    "state_id": 285,
    "state_code": "14",
    "country_id": 56,
    "country_code": "CU",
    "latitude": "20.14444000",
    "longitude": "-75.20917000",
    "wikiDataId": null
  },
  {
    "id": 21889,
    "name": "Maisí",
    "state_id": 285,
    "state_code": "14",
    "country_id": 56,
    "country_code": "CU",
    "latitude": "20.24673000",
    "longitude": "-74.15181000",
    "wikiDataId": null
  },
  {
    "id": 21916,
    "name": "Municipio de Guantánamo",
    "state_id": 285,
    "state_code": "14",
    "country_id": 56,
    "country_code": "CU",
    "latitude": "20.26723000",
    "longitude": "-75.15546000",
    "wikiDataId": null
  },
  {
    "id": 21955,
    "name": "Río Guayabal de Yateras",
    "state_id": 285,
    "state_code": "14",
    "country_id": 56,
    "country_code": "CU",
    "latitude": "20.36667000",
    "longitude": "-75.01667000",
    "wikiDataId": null
  },
  {
    "id": 21958,
    "name": "San Antonio del Sur",
    "state_id": 285,
    "state_code": "14",
    "country_id": 56,
    "country_code": "CU",
    "latitude": "20.05564000",
    "longitude": "-74.80750000",
    "wikiDataId": null
  }
]