[
  {
    "id": 77300,
    "name": "'s-Heerenberg",
    "state_id": 2611,
    "state_code": "GE",
    "country_id": 156,
    "country_code": "NL",
    "latitude": "51.87670000",
    "longitude": "6.25877000",
    "wikiDataId": null
  },
  {
    "id": 77309,
    "name": "Aalst",
    "state_id": 2611,
    "state_code": "GE",
    "country_id": 156,
    "country_code": "NL",
    "latitude": "51.78250000",
    "longitude": "5.12778000",
    "wikiDataId": null
  },
  {
    "id": 77310,
    "name": "Aalten",
    "state_id": 2611,
    "state_code": "GE",
    "country_id": 156,
    "country_code": "NL",
    "latitude": "51.92500000",
    "longitude": "6.58056000",
    "wikiDataId": null
  },
  {
    "id": 77319,
    "name": "Afferden",
    "state_id": 2611,
    "state_code": "GE",
    "country_id": 156,
    "country_code": "NL",
    "latitude": "51.88000000",
    "longitude": "5.63472000",
    "wikiDataId": null
  },
  {
    "id": 77331,
    "name": "Alverna",
    "state_id": 2611,
    "state_code": "GE",
    "country_id": 156,
    "country_code": "NL",
    "latitude": "51.80417000",
    "longitude": "5.75972000",
    "wikiDataId": null
  },
  {
    "id": 77337,
    "name": "Ammerzoden",
    "state_id": 2611,
    "state_code": "GE",
    "country_id": 156,
    "country_code": "NL",
    "latitude": "51.74917000",
    "longitude": "5.22083000",
    "wikiDataId": null
  },
  {
    "id": 77343,
    "name": "Andelst",
    "state_id": 2611,
    "state_code": "GE",
    "country_id": 156,
    "country_code": "NL",
    "latitude": "51.90833000",
    "longitude": "5.72917000",
    "wikiDataId": null
  },
  {
    "id": 77345,
    "name": "Angeren",
    "state_id": 2611,
    "state_code": "GE",
    "country_id": 156,
    "country_code": "NL",
    "latitude": "51.91583000",
    "longitude": "5.95833000",
    "wikiDataId": null
  },
  {
    "id": 77346,
    "name": "Angerlo",
    "state_id": 2611,
    "state_code": "GE",
    "country_id": 156,
    "country_code": "NL",
    "latitude": "51.99583000",
    "longitude": "6.13472000",
    "wikiDataId": null
  },
  {
    "id": 77348,
    "name": "Anklaar",
    "state_id": 2611,
    "state_code": "GE",
    "country_id": 156,
    "country_code": "NL",
    "latitude": "52.23111000",
    "longitude": "5.98497000",
    "wikiDataId": null
  },
  {
    "id": 77350,
    "name": "Apeldoorn",
    "state_id": 2611,
    "state_code": "GE",
    "country_id": 156,
    "country_code": "NL",
    "latitude": "52.21000000",
    "longitude": "5.96944000",
    "wikiDataId": null
  },
  {
    "id": 77356,
    "name": "Arnhem",
    "state_id": 2611,
    "state_code": "GE",
    "country_id": 156,
    "country_code": "NL",
    "latitude": "51.98000000",
    "longitude": "5.91111000",
    "wikiDataId": null
  },
  {
    "id": 77369,
    "name": "Babberich",
    "state_id": 2611,
    "state_code": "GE",
    "country_id": 156,
    "country_code": "NL",
    "latitude": "51.90750000",
    "longitude": "6.11111000",
    "wikiDataId": null
  },
  {
    "id": 77372,
    "name": "Bakenberg",
    "state_id": 2611,
    "state_code": "GE",
    "country_id": 156,
    "country_code": "NL",
    "latitude": "52.00511000",
    "longitude": "5.87710000",
    "wikiDataId": null
  },
  {
    "id": 77382,
    "name": "Barneveld",
    "state_id": 2611,
    "state_code": "GE",
    "country_id": 156,
    "country_code": "NL",
    "latitude": "52.14000000",
    "longitude": "5.58472000",
    "wikiDataId": null
  },
  {
    "id": 77388,
    "name": "Beek gem Montferland",
    "state_id": 2611,
    "state_code": "GE",
    "country_id": 156,
    "country_code": "NL",
    "latitude": "51.90667000",
    "longitude": "6.18750000",
    "wikiDataId": null
  },
  {
    "id": 77389,
    "name": "Beekbergen",
    "state_id": 2611,
    "state_code": "GE",
    "country_id": 156,
    "country_code": "NL",
    "latitude": "52.16000000",
    "longitude": "5.96389000",
    "wikiDataId": null
  },
  {
    "id": 77392,
    "name": "Beesd",
    "state_id": 2611,
    "state_code": "GE",
    "country_id": 156,
    "country_code": "NL",
    "latitude": "51.88750000",
    "longitude": "5.19167000",
    "wikiDataId": null
  },
  {
    "id": 77399,
    "name": "Beltrum",
    "state_id": 2611,
    "state_code": "GE",
    "country_id": 156,
    "country_code": "NL",
    "latitude": "52.06667000",
    "longitude": "6.56389000",
    "wikiDataId": null
  },
  {
    "id": 77400,
    "name": "Bemmel",
    "state_id": 2611,
    "state_code": "GE",
    "country_id": 156,
    "country_code": "NL",
    "latitude": "51.89167000",
    "longitude": "5.89861000",
    "wikiDataId": null
  },
  {
    "id": 77402,
    "name": "Bennekom",
    "state_id": 2611,
    "state_code": "GE",
    "country_id": 156,
    "country_code": "NL",
    "latitude": "51.99833000",
    "longitude": "5.67639000",
    "wikiDataId": null
  },
  {
    "id": 77405,
    "name": "Berg en Bos",
    "state_id": 2611,
    "state_code": "GE",
    "country_id": 156,
    "country_code": "NL",
    "latitude": "52.22009000",
    "longitude": "5.93340000",
    "wikiDataId": null
  },
  {
    "id": 77406,
    "name": "Berg en Dal",
    "state_id": 2611,
    "state_code": "GE",
    "country_id": 156,
    "country_code": "NL",
    "latitude": "51.82167000",
    "longitude": "5.91667000",
    "wikiDataId": null
  },
  {
    "id": 77409,
    "name": "Bergharen",
    "state_id": 2611,
    "state_code": "GE",
    "country_id": 156,
    "country_code": "NL",
    "latitude": "51.85083000",
    "longitude": "5.66944000",
    "wikiDataId": null
  },
  {
    "id": 77415,
    "name": "Berkelland",
    "state_id": 2611,
    "state_code": "GE",
    "country_id": 156,
    "country_code": "NL",
    "latitude": "52.10606000",
    "longitude": "6.56748000",
    "wikiDataId": null
  },
  {
    "id": 77424,
    "name": "Beuningen",
    "state_id": 2611,
    "state_code": "GE",
    "country_id": 156,
    "country_code": "NL",
    "latitude": "51.86083000",
    "longitude": "5.76667000",
    "wikiDataId": null
  },
  {
    "id": 77425,
    "name": "Beusichem",
    "state_id": 2611,
    "state_code": "GE",
    "country_id": 156,
    "country_code": "NL",
    "latitude": "51.95000000",
    "longitude": "5.29167000",
    "wikiDataId": null
  },
  {
    "id": 77433,
    "name": "Binnenstad",
    "state_id": 2611,
    "state_code": "GE",
    "country_id": 156,
    "country_code": "NL",
    "latitude": "52.21304000",
    "longitude": "5.95957000",
    "wikiDataId": null
  },
  {
    "id": 77454,
    "name": "Borculo",
    "state_id": 2611,
    "state_code": "GE",
    "country_id": 156,
    "country_code": "NL",
    "latitude": "52.11583000",
    "longitude": "6.52222000",
    "wikiDataId": null
  },
  {
    "id": 77470,
    "name": "Brakel",
    "state_id": 2611,
    "state_code": "GE",
    "country_id": 156,
    "country_code": "NL",
    "latitude": "51.81750000",
    "longitude": "5.09028000",
    "wikiDataId": null
  },
  {
    "id": 77471,
    "name": "Brakkenstein",
    "state_id": 2611,
    "state_code": "GE",
    "country_id": 156,
    "country_code": "NL",
    "latitude": "51.81324000",
    "longitude": "5.86539000",
    "wikiDataId": null
  },
  {
    "id": 77474,
    "name": "Bredevoort",
    "state_id": 2611,
    "state_code": "GE",
    "country_id": 156,
    "country_code": "NL",
    "latitude": "51.94167000",
    "longitude": "6.62083000",
    "wikiDataId": null
  },
  {
    "id": 77475,
    "name": "Bredeweg",
    "state_id": 2611,
    "state_code": "GE",
    "country_id": 156,
    "country_code": "NL",
    "latitude": "51.76019000",
    "longitude": "5.94189000",
    "wikiDataId": null
  },
  {
    "id": 77481,
    "name": "Brinkhorst",
    "state_id": 2611,
    "state_code": "GE",
    "country_id": 156,
    "country_code": "NL",
    "latitude": "52.21302000",
    "longitude": "5.95167000",
    "wikiDataId": null
  },
  {
    "id": 77489,
    "name": "Bruchem",
    "state_id": 2611,
    "state_code": "GE",
    "country_id": 156,
    "country_code": "NL",
    "latitude": "51.78667000",
    "longitude": "5.23611000",
    "wikiDataId": null
  },
  {
    "id": 77492,
    "name": "Brummelhof",
    "state_id": 2611,
    "state_code": "GE",
    "country_id": 156,
    "country_code": "NL",
    "latitude": "52.20503000",
    "longitude": "5.96789000",
    "wikiDataId": null
  },
  {
    "id": 77493,
    "name": "Brummen",
    "state_id": 2611,
    "state_code": "GE",
    "country_id": 156,
    "country_code": "NL",
    "latitude": "52.09000000",
    "longitude": "6.15556000",
    "wikiDataId": null
  },
  {
    "id": 77506,
    "name": "Burgemeesterswijk",
    "state_id": 2611,
    "state_code": "GE",
    "country_id": 156,
    "country_code": "NL",
    "latitude": "51.98943000",
    "longitude": "5.89597000",
    "wikiDataId": null
  },
  {
    "id": 77522,
    "name": "Componistenkwartier",
    "state_id": 2611,
    "state_code": "GE",
    "country_id": 156,
    "country_code": "NL",
    "latitude": "52.18977000",
    "longitude": "5.96609000",
    "wikiDataId": null
  },
  {
    "id": 77523,
    "name": "Corlaer",
    "state_id": 2611,
    "state_code": "GE",
    "country_id": 156,
    "country_code": "NL",
    "latitude": "52.21639000",
    "longitude": "5.46535000",
    "wikiDataId": null
  },
  {
    "id": 77527,
    "name": "Culemborg",
    "state_id": 2611,
    "state_code": "GE",
    "country_id": 156,
    "country_code": "NL",
    "latitude": "51.95500000",
    "longitude": "5.22778000",
    "wikiDataId": null
  },
  {
    "id": 77534,
    "name": "De Bouwhof",
    "state_id": 2611,
    "state_code": "GE",
    "country_id": 156,
    "country_code": "NL",
    "latitude": "52.18546000",
    "longitude": "5.94704000",
    "wikiDataId": null
  },
  {
    "id": 77543,
    "name": "De Haven",
    "state_id": 2611,
    "state_code": "GE",
    "country_id": 156,
    "country_code": "NL",
    "latitude": "52.21045000",
    "longitude": "5.97407000",
    "wikiDataId": null
  },
  {
    "id": 77545,
    "name": "De Heeze",
    "state_id": 2611,
    "state_code": "GE",
    "country_id": 156,
    "country_code": "NL",
    "latitude": "52.20061000",
    "longitude": "5.95365000",
    "wikiDataId": null
  },
  {
    "id": 77554,
    "name": "De Mheen",
    "state_id": 2611,
    "state_code": "GE",
    "country_id": 156,
    "country_code": "NL",
    "latitude": "52.21954000",
    "longitude": "5.99141000",
    "wikiDataId": null
  },
  {
    "id": 77564,
    "name": "Deest",
    "state_id": 2611,
    "state_code": "GE",
    "country_id": 156,
    "country_code": "NL",
    "latitude": "51.89000000",
    "longitude": "5.66667000",
    "wikiDataId": null
  },
  {
    "id": 77565,
    "name": "Deil",
    "state_id": 2611,
    "state_code": "GE",
    "country_id": 156,
    "country_code": "NL",
    "latitude": "51.88417000",
    "longitude": "5.24306000",
    "wikiDataId": null
  },
  {
    "id": 77579,
    "name": "Dieren",
    "state_id": 2611,
    "state_code": "GE",
    "country_id": 156,
    "country_code": "NL",
    "latitude": "52.05250000",
    "longitude": "6.10000000",
    "wikiDataId": null
  },
  {
    "id": 77586,
    "name": "Doesburg",
    "state_id": 2611,
    "state_code": "GE",
    "country_id": 156,
    "country_code": "NL",
    "latitude": "52.01250000",
    "longitude": "6.13889000",
    "wikiDataId": null
  },
  {
    "id": 77587,
    "name": "Doetinchem",
    "state_id": 2611,
    "state_code": "GE",
    "country_id": 156,
    "country_code": "NL",
    "latitude": "51.96500000",
    "longitude": "6.28889000",
    "wikiDataId": null
  },
  {
    "id": 77596,
    "name": "Doornenburg",
    "state_id": 2611,
    "state_code": "GE",
    "country_id": 156,
    "country_code": "NL",
    "latitude": "51.89000000",
    "longitude": "6.00000000",
    "wikiDataId": null
  },
  {
    "id": 77597,
    "name": "Doornspijk",
    "state_id": 2611,
    "state_code": "GE",
    "country_id": 156,
    "country_code": "NL",
    "latitude": "52.41833000",
    "longitude": "5.81806000",
    "wikiDataId": null
  },
  {
    "id": 77598,
    "name": "Doornsteeg",
    "state_id": 2611,
    "state_code": "GE",
    "country_id": 156,
    "country_code": "NL",
    "latitude": "52.23000000",
    "longitude": "5.45417000",
    "wikiDataId": null
  },
  {
    "id": 77599,
    "name": "Doorwerth",
    "state_id": 2611,
    "state_code": "GE",
    "country_id": 156,
    "country_code": "NL",
    "latitude": "51.97917000",
    "longitude": "5.79722000",
    "wikiDataId": null
  },
  {
    "id": 77606,
    "name": "Driehuizen",
    "state_id": 2611,
    "state_code": "GE",
    "country_id": 156,
    "country_code": "NL",
    "latitude": "52.20879000",
    "longitude": "5.94442000",
    "wikiDataId": null
  },
  {
    "id": 77607,
    "name": "Driel",
    "state_id": 2611,
    "state_code": "GE",
    "country_id": 156,
    "country_code": "NL",
    "latitude": "51.95917000",
    "longitude": "5.81389000",
    "wikiDataId": null
  },
  {
    "id": 77613,
    "name": "Drumpt",
    "state_id": 2611,
    "state_code": "GE",
    "country_id": 156,
    "country_code": "NL",
    "latitude": "51.89700000",
    "longitude": "5.41043000",
    "wikiDataId": null
  },
  {
    "id": 77614,
    "name": "Druten",
    "state_id": 2611,
    "state_code": "GE",
    "country_id": 156,
    "country_code": "NL",
    "latitude": "51.88833000",
    "longitude": "5.60556000",
    "wikiDataId": null
  },
  {
    "id": 77617,
    "name": "Duiven",
    "state_id": 2611,
    "state_code": "GE",
    "country_id": 156,
    "country_code": "NL",
    "latitude": "51.94667000",
    "longitude": "6.01389000",
    "wikiDataId": null
  },
  {
    "id": 77625,
    "name": "Ede",
    "state_id": 2611,
    "state_code": "GE",
    "country_id": 156,
    "country_code": "NL",
    "latitude": "52.03333000",
    "longitude": "5.65833000",
    "wikiDataId": null
  },
  {
    "id": 77626,
    "name": "Ederveen",
    "state_id": 2611,
    "state_code": "GE",
    "country_id": 156,
    "country_code": "NL",
    "latitude": "52.06333000",
    "longitude": "5.57778000",
    "wikiDataId": null
  },
  {
    "id": 77627,
    "name": "Eefde",
    "state_id": 2611,
    "state_code": "GE",
    "country_id": 156,
    "country_code": "NL",
    "latitude": "52.16667000",
    "longitude": "6.22500000",
    "wikiDataId": null
  },
  {
    "id": 77630,
    "name": "Eerbeek",
    "state_id": 2611,
    "state_code": "GE",
    "country_id": 156,
    "country_code": "NL",
    "latitude": "52.10500000",
    "longitude": "6.05833000",
    "wikiDataId": null
  },
  {
    "id": 77639,
    "name": "Eibergen",
    "state_id": 2611,
    "state_code": "GE",
    "country_id": 156,
    "country_code": "NL",
    "latitude": "52.10000000",
    "longitude": "6.64861000",
    "wikiDataId": null
  },
  {
    "id": 77645,
    "name": "Elburg",
    "state_id": 2611,
    "state_code": "GE",
    "country_id": 156,
    "country_code": "NL",
    "latitude": "52.44750000",
    "longitude": "5.84306000",
    "wikiDataId": null
  },
  {
    "id": 77646,
    "name": "Elden",
    "state_id": 2611,
    "state_code": "GE",
    "country_id": 156,
    "country_code": "NL",
    "latitude": "51.95833000",
    "longitude": "5.88194000",
    "wikiDataId": null
  },
  {
    "id": 77647,
    "name": "Ellecom",
    "state_id": 2611,
    "state_code": "GE",
    "country_id": 156,
    "country_code": "NL",
    "latitude": "52.03250000",
    "longitude": "6.08750000",
    "wikiDataId": null
  },
  {
    "id": 77650,
    "name": "Elspeet",
    "state_id": 2611,
    "state_code": "GE",
    "country_id": 156,
    "country_code": "NL",
    "latitude": "52.29167000",
    "longitude": "5.78889000",
    "wikiDataId": null
  },
  {
    "id": 77651,
    "name": "Elst",
    "state_id": 2611,
    "state_code": "GE",
    "country_id": 156,
    "country_code": "NL",
    "latitude": "51.91917000",
    "longitude": "5.84167000",
    "wikiDataId": null
  },
  {
    "id": 77659,
    "name": "Emst",
    "state_id": 2611,
    "state_code": "GE",
    "country_id": 156,
    "country_code": "NL",
    "latitude": "52.31583000",
    "longitude": "5.97361000",
    "wikiDataId": null
  },
  {
    "id": 77664,
    "name": "Epe",
    "state_id": 2611,
    "state_code": "GE",
    "country_id": 156,
    "country_code": "NL",
    "latitude": "52.34750000",
    "longitude": "5.98333000",
    "wikiDataId": null
  },
  {
    "id": 77665,
    "name": "Epse",
    "state_id": 2611,
    "state_code": "GE",
    "country_id": 156,
    "country_code": "NL",
    "latitude": "52.22500000",
    "longitude": "6.20000000",
    "wikiDataId": null
  },
  {
    "id": 77666,
    "name": "Ermelo",
    "state_id": 2611,
    "state_code": "GE",
    "country_id": 156,
    "country_code": "NL",
    "latitude": "52.29833000",
    "longitude": "5.62222000",
    "wikiDataId": null
  },
  {
    "id": 77670,
    "name": "Etten",
    "state_id": 2611,
    "state_code": "GE",
    "country_id": 156,
    "country_code": "NL",
    "latitude": "51.91667000",
    "longitude": "6.33611000",
    "wikiDataId": null
  },
  {
    "id": 77681,
    "name": "Gameren",
    "state_id": 2611,
    "state_code": "GE",
    "country_id": 156,
    "country_code": "NL",
    "latitude": "51.80083000",
    "longitude": "5.20417000",
    "wikiDataId": null
  },
  {
    "id": 77682,
    "name": "Garderen",
    "state_id": 2611,
    "state_code": "GE",
    "country_id": 156,
    "country_code": "NL",
    "latitude": "52.23083000",
    "longitude": "5.71389000",
    "wikiDataId": null
  },
  {
    "id": 77689,
    "name": "Geitenkamp",
    "state_id": 2611,
    "state_code": "GE",
    "country_id": 156,
    "country_code": "NL",
    "latitude": "52.00379000",
    "longitude": "5.93862000",
    "wikiDataId": null
  },
  {
    "id": 77690,
    "name": "Geldermalsen",
    "state_id": 2611,
    "state_code": "GE",
    "country_id": 156,
    "country_code": "NL",
    "latitude": "51.88083000",
    "longitude": "5.28889000",
    "wikiDataId": null
  },
  {
    "id": 77691,
    "name": "Geldermalsen-West",
    "state_id": 2611,
    "state_code": "GE",
    "country_id": 156,
    "country_code": "NL",
    "latitude": "51.87968000",
    "longitude": "5.28015000",
    "wikiDataId": null
  },
  {
    "id": 78022,
    "name": "Gendringen",
    "state_id": 2611,
    "state_code": "GE",
    "country_id": 156,
    "country_code": "NL",
    "latitude": "51.87333000",
    "longitude": "6.37639000",
    "wikiDataId": null
  },
  {
    "id": 78023,
    "name": "Gendt",
    "state_id": 2611,
    "state_code": "GE",
    "country_id": 156,
    "country_code": "NL",
    "latitude": "51.87750000",
    "longitude": "5.97083000",
    "wikiDataId": null
  },
  {
    "id": 78027,
    "name": "Giesbeek",
    "state_id": 2611,
    "state_code": "GE",
    "country_id": 156,
    "country_code": "NL",
    "latitude": "51.99333000",
    "longitude": "6.06667000",
    "wikiDataId": null
  },
  {
    "id": 78043,
    "name": "Gorssel",
    "state_id": 2611,
    "state_code": "GE",
    "country_id": 156,
    "country_code": "NL",
    "latitude": "52.20167000",
    "longitude": "6.20139000",
    "wikiDataId": null
  },
  {
    "id": 78061,
    "name": "Groesbeek",
    "state_id": 2611,
    "state_code": "GE",
    "country_id": 156,
    "country_code": "NL",
    "latitude": "51.77667000",
    "longitude": "5.93611000",
    "wikiDataId": null
  },
  {
    "id": 78062,
    "name": "Groessen",
    "state_id": 2611,
    "state_code": "GE",
    "country_id": 156,
    "country_code": "NL",
    "latitude": "51.93167000",
    "longitude": "6.02639000",
    "wikiDataId": null
  },
  {
    "id": 78069,
    "name": "Gulden Bodem",
    "state_id": 2611,
    "state_code": "GE",
    "country_id": 156,
    "country_code": "NL",
    "latitude": "51.99428000",
    "longitude": "5.89080000",
    "wikiDataId": null
  },
  {
    "id": 78074,
    "name": "Haaften",
    "state_id": 2611,
    "state_code": "GE",
    "country_id": 156,
    "country_code": "NL",
    "latitude": "51.81583000",
    "longitude": "5.21111000",
    "wikiDataId": null
  },
  {
    "id": 78076,
    "name": "Haalderen",
    "state_id": 2611,
    "state_code": "GE",
    "country_id": 156,
    "country_code": "NL",
    "latitude": "51.88750000",
    "longitude": "5.92917000",
    "wikiDataId": null
  },
  {
    "id": 78092,
    "name": "Harderwijk",
    "state_id": 2611,
    "state_code": "GE",
    "country_id": 156,
    "country_code": "NL",
    "latitude": "52.34167000",
    "longitude": "5.62083000",
    "wikiDataId": null
  },
  {
    "id": 78098,
    "name": "Harskamp",
    "state_id": 2611,
    "state_code": "GE",
    "country_id": 156,
    "country_code": "NL",
    "latitude": "52.13000000",
    "longitude": "5.75278000",
    "wikiDataId": null
  },
  {
    "id": 78100,
    "name": "Hatert",
    "state_id": 2611,
    "state_code": "GE",
    "country_id": 156,
    "country_code": "NL",
    "latitude": "51.80635000",
    "longitude": "5.83057000",
    "wikiDataId": null
  },
  {
    "id": 78101,
    "name": "Hattem",
    "state_id": 2611,
    "state_code": "GE",
    "country_id": 156,
    "country_code": "NL",
    "latitude": "52.47500000",
    "longitude": "6.06389000",
    "wikiDataId": null
  },
  {
    "id": 78102,
    "name": "Hattemerbroek",
    "state_id": 2611,
    "state_code": "GE",
    "country_id": 156,
    "country_code": "NL",
    "latitude": "52.47417000",
    "longitude": "6.02222000",
    "wikiDataId": null
  },
  {
    "id": 78105,
    "name": "Hedel",
    "state_id": 2611,
    "state_code": "GE",
    "country_id": 156,
    "country_code": "NL",
    "latitude": "51.74802000",
    "longitude": "5.26134000",
    "wikiDataId": null
  },
  {
    "id": 78109,
    "name": "Heelsum",
    "state_id": 2611,
    "state_code": "GE",
    "country_id": 156,
    "country_code": "NL",
    "latitude": "51.98417000",
    "longitude": "5.75833000",
    "wikiDataId": null
  },
  {
    "id": 78113,
    "name": "Heerde",
    "state_id": 2611,
    "state_code": "GE",
    "country_id": 156,
    "country_code": "NL",
    "latitude": "52.38723000",
    "longitude": "6.04016000",
    "wikiDataId": null
  },
  {
    "id": 78115,
    "name": "Heerewaarden",
    "state_id": 2611,
    "state_code": "GE",
    "country_id": 156,
    "country_code": "NL",
    "latitude": "51.81769000",
    "longitude": "5.39300000",
    "wikiDataId": null
  },
  {
    "id": 78120,
    "name": "Hees",
    "state_id": 2611,
    "state_code": "GE",
    "country_id": 156,
    "country_code": "NL",
    "latitude": "51.84136000",
    "longitude": "5.82846000",
    "wikiDataId": null
  },
  {
    "id": 78141,
    "name": "Hengelo",
    "state_id": 2611,
    "state_code": "GE",
    "country_id": 156,
    "country_code": "NL",
    "latitude": "52.05083000",
    "longitude": "6.30972000",
    "wikiDataId": null
  },
  {
    "id": 78143,
    "name": "Hengstdal",
    "state_id": 2611,
    "state_code": "GE",
    "country_id": 156,
    "country_code": "NL",
    "latitude": "51.83333000",
    "longitude": "5.88333000",
    "wikiDataId": null
  },
  {
    "id": 78148,
    "name": "Herwijnen",
    "state_id": 2611,
    "state_code": "GE",
    "country_id": 156,
    "country_code": "NL",
    "latitude": "51.82667000",
    "longitude": "5.12917000",
    "wikiDataId": null
  },
  {
    "id": 78149,
    "name": "Het Loo",
    "state_id": 2611,
    "state_code": "GE",
    "country_id": 156,
    "country_code": "NL",
    "latitude": "52.23390000",
    "longitude": "5.95275000",
    "wikiDataId": null
  },
  {
    "id": 78151,
    "name": "Heteren",
    "state_id": 2611,
    "state_code": "GE",
    "country_id": 156,
    "country_code": "NL",
    "latitude": "51.95667000",
    "longitude": "5.75556000",
    "wikiDataId": null
  },
  {
    "id": 78153,
    "name": "Heumen",
    "state_id": 2611,
    "state_code": "GE",
    "country_id": 156,
    "country_code": "NL",
    "latitude": "51.76500000",
    "longitude": "5.84444000",
    "wikiDataId": null
  },
  {
    "id": 78183,
    "name": "Hoogkamp",
    "state_id": 2611,
    "state_code": "GE",
    "country_id": 156,
    "country_code": "NL",
    "latitude": "51.99630000",
    "longitude": "5.88026000",
    "wikiDataId": null
  },
  {
    "id": 78188,
    "name": "Horssen",
    "state_id": 2611,
    "state_code": "GE",
    "country_id": 156,
    "country_code": "NL",
    "latitude": "51.85583000",
    "longitude": "5.60972000",
    "wikiDataId": null
  },
  {
    "id": 78196,
    "name": "Hummelo",
    "state_id": 2611,
    "state_code": "GE",
    "country_id": 156,
    "country_code": "NL",
    "latitude": "52.00417000",
    "longitude": "6.23333000",
    "wikiDataId": null
  },
  {
    "id": 78197,
    "name": "Hunnerberg",
    "state_id": 2611,
    "state_code": "GE",
    "country_id": 156,
    "country_code": "NL",
    "latitude": "51.84209000",
    "longitude": "5.87876000",
    "wikiDataId": null
  },
  {
    "id": 78204,
    "name": "Ingen",
    "state_id": 2611,
    "state_code": "GE",
    "country_id": 156,
    "country_code": "NL",
    "latitude": "51.95917000",
    "longitude": "5.48472000",
    "wikiDataId": null
  },
  {
    "id": 78221,
    "name": "Keijenborg",
    "state_id": 2611,
    "state_code": "GE",
    "country_id": 156,
    "country_code": "NL",
    "latitude": "52.02917000",
    "longitude": "6.29444000",
    "wikiDataId": null
  },
  {
    "id": 78225,
    "name": "Kerkdriel",
    "state_id": 2611,
    "state_code": "GE",
    "country_id": 156,
    "country_code": "NL",
    "latitude": "51.77167000",
    "longitude": "5.33472000",
    "wikiDataId": null
  },
  {
    "id": 78229,
    "name": "Kerschoten",
    "state_id": 2611,
    "state_code": "GE",
    "country_id": 156,
    "country_code": "NL",
    "latitude": "52.23333000",
    "longitude": "5.96667000",
    "wikiDataId": null
  },
  {
    "id": 78231,
    "name": "Kesteren",
    "state_id": 2611,
    "state_code": "GE",
    "country_id": 156,
    "country_code": "NL",
    "latitude": "51.93500000",
    "longitude": "5.56944000",
    "wikiDataId": null
  },
  {
    "id": 78248,
    "name": "Kootwijkerbroek",
    "state_id": 2611,
    "state_code": "GE",
    "country_id": 156,
    "country_code": "NL",
    "latitude": "52.15083000",
    "longitude": "5.66944000",
    "wikiDataId": null
  },
  {
    "id": 78273,
    "name": "Laren",
    "state_id": 2611,
    "state_code": "GE",
    "country_id": 156,
    "country_code": "NL",
    "latitude": "52.19417000",
    "longitude": "6.36528000",
    "wikiDataId": null
  },
  {
    "id": 78282,
    "name": "Leesten",
    "state_id": 2611,
    "state_code": "GE",
    "country_id": 156,
    "country_code": "NL",
    "latitude": "52.12790000",
    "longitude": "6.23217000",
    "wikiDataId": null
  },
  {
    "id": 78290,
    "name": "Lent",
    "state_id": 2611,
    "state_code": "GE",
    "country_id": 156,
    "country_code": "NL",
    "latitude": "51.86167000",
    "longitude": "5.86667000",
    "wikiDataId": null
  },
  {
    "id": 78295,
    "name": "Leuth",
    "state_id": 2611,
    "state_code": "GE",
    "country_id": 156,
    "country_code": "NL",
    "latitude": "51.83917000",
    "longitude": "5.99167000",
    "wikiDataId": null
  },
  {
    "id": 78297,
    "name": "Lichtenvoorde",
    "state_id": 2611,
    "state_code": "GE",
    "country_id": 156,
    "country_code": "NL",
    "latitude": "51.98667000",
    "longitude": "6.56667000",
    "wikiDataId": null
  },
  {
    "id": 78299,
    "name": "Lienden",
    "state_id": 2611,
    "state_code": "GE",
    "country_id": 156,
    "country_code": "NL",
    "latitude": "51.94833000",
    "longitude": "5.51806000",
    "wikiDataId": null
  },
  {
    "id": 78309,
    "name": "Lindenholt",
    "state_id": 2611,
    "state_code": "GE",
    "country_id": 156,
    "country_code": "NL",
    "latitude": "51.83270000",
    "longitude": "5.79340000",
    "wikiDataId": null
  },
  {
    "id": 78315,
    "name": "Lobith",
    "state_id": 2611,
    "state_code": "GE",
    "country_id": 156,
    "country_code": "NL",
    "latitude": "51.86250000",
    "longitude": "6.11806000",
    "wikiDataId": null
  },
  {
    "id": 78316,
    "name": "Lochem",
    "state_id": 2611,
    "state_code": "GE",
    "country_id": 156,
    "country_code": "NL",
    "latitude": "52.15917000",
    "longitude": "6.41111000",
    "wikiDataId": null
  },
  {
    "id": 78317,
    "name": "Loenen",
    "state_id": 2611,
    "state_code": "GE",
    "country_id": 156,
    "country_code": "NL",
    "latitude": "52.11750000",
    "longitude": "6.01944000",
    "wikiDataId": null
  },
  {
    "id": 78327,
    "name": "Lunteren",
    "state_id": 2611,
    "state_code": "GE",
    "country_id": 156,
    "country_code": "NL",
    "latitude": "52.08500000",
    "longitude": "5.62222000",
    "wikiDataId": null
  },
  {
    "id": 78345,
    "name": "Malburgen West",
    "state_id": 2611,
    "state_code": "GE",
    "country_id": 156,
    "country_code": "NL",
    "latitude": "51.96811000",
    "longitude": "5.89743000",
    "wikiDataId": null
  },
  {
    "id": 78357,
    "name": "Matendonk",
    "state_id": 2611,
    "state_code": "GE",
    "country_id": 156,
    "country_code": "NL",
    "latitude": "52.19766000",
    "longitude": "6.01115000",
    "wikiDataId": null
  },
  {
    "id": 78358,
    "name": "Matendreef",
    "state_id": 2611,
    "state_code": "GE",
    "country_id": 156,
    "country_code": "NL",
    "latitude": "52.19993000",
    "longitude": "5.98592000",
    "wikiDataId": null
  },
  {
    "id": 78359,
    "name": "Matengaarde",
    "state_id": 2611,
    "state_code": "GE",
    "country_id": 156,
    "country_code": "NL",
    "latitude": "52.19793000",
    "longitude": "5.99570000",
    "wikiDataId": null
  },
  {
    "id": 78360,
    "name": "Matenhoeve",
    "state_id": 2611,
    "state_code": "GE",
    "country_id": 156,
    "country_code": "NL",
    "latitude": "52.19056000",
    "longitude": "6.01338000",
    "wikiDataId": null
  },
  {
    "id": 78361,
    "name": "Matenhorst",
    "state_id": 2611,
    "state_code": "GE",
    "country_id": 156,
    "country_code": "NL",
    "latitude": "52.20482000",
    "longitude": "5.99304000",
    "wikiDataId": null
  },
  {
    "id": 78362,
    "name": "Matenveld",
    "state_id": 2611,
    "state_code": "GE",
    "country_id": 156,
    "country_code": "NL",
    "latitude": "52.18767000",
    "longitude": "5.99879000",
    "wikiDataId": null
  },
  {
    "id": 78363,
    "name": "Maurik",
    "state_id": 2611,
    "state_code": "GE",
    "country_id": 156,
    "country_code": "NL",
    "latitude": "51.96083000",
    "longitude": "5.42222000",
    "wikiDataId": null
  },
  {
    "id": 78386,
    "name": "Meteren",
    "state_id": 2611,
    "state_code": "GE",
    "country_id": 156,
    "country_code": "NL",
    "latitude": "51.86500000",
    "longitude": "5.28333000",
    "wikiDataId": null
  },
  {
    "id": 78420,
    "name": "Nederhemert",
    "state_id": 2611,
    "state_code": "GE",
    "country_id": 156,
    "country_code": "NL",
    "latitude": "51.76518000",
    "longitude": "5.16817000",
    "wikiDataId": null
  },
  {
    "id": 78421,
    "name": "Nederhemert-Noord",
    "state_id": 2611,
    "state_code": "GE",
    "country_id": 156,
    "country_code": "NL",
    "latitude": "51.76322000",
    "longitude": "5.17305000",
    "wikiDataId": null
  },
  {
    "id": 78423,
    "name": "Nederwoud",
    "state_id": 2611,
    "state_code": "GE",
    "country_id": 156,
    "country_code": "NL",
    "latitude": "52.10083000",
    "longitude": "5.57083000",
    "wikiDataId": null
  },
  {
    "id": 78424,
    "name": "Neede",
    "state_id": 2611,
    "state_code": "GE",
    "country_id": 156,
    "country_code": "NL",
    "latitude": "52.13417000",
    "longitude": "6.61389000",
    "wikiDataId": null
  },
  {
    "id": 78452,
    "name": "Nijkerk",
    "state_id": 2611,
    "state_code": "GE",
    "country_id": 156,
    "country_code": "NL",
    "latitude": "52.22000000",
    "longitude": "5.48611000",
    "wikiDataId": null
  },
  {
    "id": 78453,
    "name": "Nijkerkerveen",
    "state_id": 2611,
    "state_code": "GE",
    "country_id": 156,
    "country_code": "NL",
    "latitude": "52.19500000",
    "longitude": "5.46667000",
    "wikiDataId": null
  },
  {
    "id": 78454,
    "name": "Nijmegen",
    "state_id": 2611,
    "state_code": "GE",
    "country_id": 156,
    "country_code": "NL",
    "latitude": "51.84250000",
    "longitude": "5.85278000",
    "wikiDataId": null
  },
  {
    "id": 78476,
    "name": "Nunspeet",
    "state_id": 2611,
    "state_code": "GE",
    "country_id": 156,
    "country_code": "NL",
    "latitude": "52.37917000",
    "longitude": "5.78611000",
    "wikiDataId": null
  },
  {
    "id": 78481,
    "name": "Ochten",
    "state_id": 2611,
    "state_code": "GE",
    "country_id": 156,
    "country_code": "NL",
    "latitude": "51.91000000",
    "longitude": "5.56944000",
    "wikiDataId": null
  },
  {
    "id": 78494,
    "name": "Oldebroek",
    "state_id": 2611,
    "state_code": "GE",
    "country_id": 156,
    "country_code": "NL",
    "latitude": "52.44500000",
    "longitude": "5.90139000",
    "wikiDataId": null
  },
  {
    "id": 78505,
    "name": "Ooij",
    "state_id": 2611,
    "state_code": "GE",
    "country_id": 156,
    "country_code": "NL",
    "latitude": "51.85465000",
    "longitude": "5.93915000",
    "wikiDataId": null
  },
  {
    "id": 78506,
    "name": "Oost Gelre",
    "state_id": 2611,
    "state_code": "GE",
    "country_id": 156,
    "country_code": "NL",
    "latitude": "52.00425000",
    "longitude": "6.54958000",
    "wikiDataId": null
  },
  {
    "id": 78513,
    "name": "Oostendorp",
    "state_id": 2611,
    "state_code": "GE",
    "country_id": 156,
    "country_code": "NL",
    "latitude": "52.44722000",
    "longitude": "5.85443000",
    "wikiDataId": null
  },
  {
    "id": 78514,
    "name": "Oosterbeek",
    "state_id": 2611,
    "state_code": "GE",
    "country_id": 156,
    "country_code": "NL",
    "latitude": "51.98583000",
    "longitude": "5.84583000",
    "wikiDataId": null
  },
  {
    "id": 78520,
    "name": "Oosterhout",
    "state_id": 2611,
    "state_code": "GE",
    "country_id": 156,
    "country_code": "NL",
    "latitude": "51.88000000",
    "longitude": "5.82639000",
    "wikiDataId": null
  },
  {
    "id": 78531,
    "name": "Ooy",
    "state_id": 2611,
    "state_code": "GE",
    "country_id": 156,
    "country_code": "NL",
    "latitude": "51.91917000",
    "longitude": "6.05833000",
    "wikiDataId": null
  },
  {
    "id": 78532,
    "name": "Ooyerhoek",
    "state_id": 2611,
    "state_code": "GE",
    "country_id": 156,
    "country_code": "NL",
    "latitude": "52.12838000",
    "longitude": "6.22307000",
    "wikiDataId": null
  },
  {
    "id": 78534,
    "name": "Ophemert",
    "state_id": 2611,
    "state_code": "GE",
    "country_id": 156,
    "country_code": "NL",
    "latitude": "51.84500000",
    "longitude": "5.38750000",
    "wikiDataId": null
  },
  {
    "id": 78535,
    "name": "Opheusden",
    "state_id": 2611,
    "state_code": "GE",
    "country_id": 156,
    "country_code": "NL",
    "latitude": "51.93167000",
    "longitude": "5.63194000",
    "wikiDataId": null
  },
  {
    "id": 78537,
    "name": "Opijnen",
    "state_id": 2611,
    "state_code": "GE",
    "country_id": 156,
    "country_code": "NL",
    "latitude": "51.82917000",
    "longitude": "5.29861000",
    "wikiDataId": null
  },
  {
    "id": 78543,
    "name": "Orden",
    "state_id": 2611,
    "state_code": "GE",
    "country_id": 156,
    "country_code": "NL",
    "latitude": "52.20113000",
    "longitude": "5.93417000",
    "wikiDataId": null
  },
  {
    "id": 78549,
    "name": "Otterlo",
    "state_id": 2611,
    "state_code": "GE",
    "country_id": 156,
    "country_code": "NL",
    "latitude": "52.10000000",
    "longitude": "5.77222000",
    "wikiDataId": null
  },
  {
    "id": 78557,
    "name": "Oude IJsselstreek",
    "state_id": 2611,
    "state_code": "GE",
    "country_id": 156,
    "country_code": "NL",
    "latitude": "51.89963000",
    "longitude": "6.38078000",
    "wikiDataId": null
  },
  {
    "id": 78569,
    "name": "Overasselt",
    "state_id": 2611,
    "state_code": "GE",
    "country_id": 156,
    "country_code": "NL",
    "latitude": "51.76000000",
    "longitude": "5.78889000",
    "wikiDataId": null
  },
  {
    "id": 78576,
    "name": "Pannerden",
    "state_id": 2611,
    "state_code": "GE",
    "country_id": 156,
    "country_code": "NL",
    "latitude": "51.89083000",
    "longitude": "6.03889000",
    "wikiDataId": null
  },
  {
    "id": 78598,
    "name": "Puiflijk",
    "state_id": 2611,
    "state_code": "GE",
    "country_id": 156,
    "country_code": "NL",
    "latitude": "51.87833000",
    "longitude": "5.59028000",
    "wikiDataId": null
  },
  {
    "id": 78602,
    "name": "Putten",
    "state_id": 2611,
    "state_code": "GE",
    "country_id": 156,
    "country_code": "NL",
    "latitude": "52.25917000",
    "longitude": "5.60694000",
    "wikiDataId": null
  },
  {
    "id": 78614,
    "name": "Renkum",
    "state_id": 2611,
    "state_code": "GE",
    "country_id": 156,
    "country_code": "NL",
    "latitude": "51.97667000",
    "longitude": "5.73333000",
    "wikiDataId": null
  },
  {
    "id": 78618,
    "name": "Rheden",
    "state_id": 2611,
    "state_code": "GE",
    "country_id": 156,
    "country_code": "NL",
    "latitude": "52.00500000",
    "longitude": "6.02917000",
    "wikiDataId": null
  },
  {
    "id": 78631,
    "name": "Rivierenkwartier",
    "state_id": 2611,
    "state_code": "GE",
    "country_id": 156,
    "country_code": "NL",
    "latitude": "52.18914000",
    "longitude": "5.97665000",
    "wikiDataId": null
  },
  {
    "id": 78639,
    "name": "Rossum",
    "state_id": 2611,
    "state_code": "GE",
    "country_id": 156,
    "country_code": "NL",
    "latitude": "51.80083000",
    "longitude": "5.33333000",
    "wikiDataId": null
  },
  {
    "id": 78645,
    "name": "Rozendaal",
    "state_id": 2611,
    "state_code": "GE",
    "country_id": 156,
    "country_code": "NL",
    "latitude": "52.00583000",
    "longitude": "5.96250000",
    "wikiDataId": null
  },
  {
    "id": 78650,
    "name": "Ruurlo",
    "state_id": 2611,
    "state_code": "GE",
    "country_id": 156,
    "country_code": "NL",
    "latitude": "52.08833000",
    "longitude": "6.45000000",
    "wikiDataId": null
  },
  {
    "id": 78666,
    "name": "Scherpenzeel",
    "state_id": 2611,
    "state_code": "GE",
    "country_id": 156,
    "country_code": "NL",
    "latitude": "52.08000000",
    "longitude": "5.48889000",
    "wikiDataId": null
  },
  {
    "id": 78692,
    "name": "Silvolde",
    "state_id": 2611,
    "state_code": "GE",
    "country_id": 156,
    "country_code": "NL",
    "latitude": "51.90917000",
    "longitude": "6.38750000",
    "wikiDataId": null
  },
  {
    "id": 78716,
    "name": "Sluisoord",
    "state_id": 2611,
    "state_code": "GE",
    "country_id": 156,
    "country_code": "NL",
    "latitude": "52.22291000",
    "longitude": "5.98145000",
    "wikiDataId": null
  },
  {
    "id": 78724,
    "name": "Spainkbos",
    "state_id": 2611,
    "state_code": "GE",
    "country_id": 156,
    "country_code": "NL",
    "latitude": "52.22228000",
    "longitude": "5.94738000",
    "wikiDataId": null
  },
  {
    "id": 78735,
    "name": "Sprengenbos",
    "state_id": 2611,
    "state_code": "GE",
    "country_id": 156,
    "country_code": "NL",
    "latitude": "52.21902000",
    "longitude": "5.94163000",
    "wikiDataId": null
  },
  {
    "id": 78736,
    "name": "Sprengenweg-Noord",
    "state_id": 2611,
    "state_code": "GE",
    "country_id": 156,
    "country_code": "NL",
    "latitude": "52.21839000",
    "longitude": "5.95068000",
    "wikiDataId": null
  },
  {
    "id": 78737,
    "name": "Sprenkelaar",
    "state_id": 2611,
    "state_code": "GE",
    "country_id": 156,
    "country_code": "NL",
    "latitude": "52.22512000",
    "longitude": "5.99922000",
    "wikiDataId": null
  },
  {
    "id": 78739,
    "name": "Staatsliedenkwartier",
    "state_id": 2611,
    "state_code": "GE",
    "country_id": 156,
    "country_code": "NL",
    "latitude": "52.19951000",
    "longitude": "5.97691000",
    "wikiDataId": null
  },
  {
    "id": 78749,
    "name": "Steenderen",
    "state_id": 2611,
    "state_code": "GE",
    "country_id": 156,
    "country_code": "NL",
    "latitude": "52.06417000",
    "longitude": "6.18750000",
    "wikiDataId": null
  },
  {
    "id": 78753,
    "name": "Stegeslag",
    "state_id": 2611,
    "state_code": "GE",
    "country_id": 156,
    "country_code": "NL",
    "latitude": "51.94151000",
    "longitude": "6.06194000",
    "wikiDataId": null
  },
  {
    "id": 78757,
    "name": "Sterrenberg",
    "state_id": 2611,
    "state_code": "GE",
    "country_id": 156,
    "country_code": "NL",
    "latitude": "51.99350000",
    "longitude": "5.88387000",
    "wikiDataId": null
  },
  {
    "id": 78770,
    "name": "Terborg",
    "state_id": 2611,
    "state_code": "GE",
    "country_id": 156,
    "country_code": "NL",
    "latitude": "51.92000000",
    "longitude": "6.35417000",
    "wikiDataId": null
  },
  {
    "id": 78775,
    "name": "Terschuur",
    "state_id": 2611,
    "state_code": "GE",
    "country_id": 156,
    "country_code": "NL",
    "latitude": "52.16500000",
    "longitude": "5.51667000",
    "wikiDataId": null
  },
  {
    "id": 78777,
    "name": "Terwolde",
    "state_id": 2611,
    "state_code": "GE",
    "country_id": 156,
    "country_code": "NL",
    "latitude": "52.28333000",
    "longitude": "6.10000000",
    "wikiDataId": null
  },
  {
    "id": 78783,
    "name": "Tiel",
    "state_id": 2611,
    "state_code": "GE",
    "country_id": 156,
    "country_code": "NL",
    "latitude": "51.88667000",
    "longitude": "5.42917000",
    "wikiDataId": null
  },
  {
    "id": 78789,
    "name": "Tolkamer",
    "state_id": 2611,
    "state_code": "GE",
    "country_id": 156,
    "country_code": "NL",
    "latitude": "51.85500000",
    "longitude": "6.10278000",
    "wikiDataId": null
  },
  {
    "id": 78791,
    "name": "Tricht",
    "state_id": 2611,
    "state_code": "GE",
    "country_id": 156,
    "country_code": "NL",
    "latitude": "51.89083000",
    "longitude": "5.26806000",
    "wikiDataId": null
  },
  {
    "id": 78798,
    "name": "Twello",
    "state_id": 2611,
    "state_code": "GE",
    "country_id": 156,
    "country_code": "NL",
    "latitude": "52.23667000",
    "longitude": "6.10278000",
    "wikiDataId": null
  },
  {
    "id": 78806,
    "name": "Uddel",
    "state_id": 2611,
    "state_code": "GE",
    "country_id": 156,
    "country_code": "NL",
    "latitude": "52.25917000",
    "longitude": "5.78056000",
    "wikiDataId": null
  },
  {
    "id": 78810,
    "name": "Ugchelen",
    "state_id": 2611,
    "state_code": "GE",
    "country_id": 156,
    "country_code": "NL",
    "latitude": "52.18464000",
    "longitude": "5.93177000",
    "wikiDataId": null
  },
  {
    "id": 78825,
    "name": "Vaassen",
    "state_id": 2611,
    "state_code": "GE",
    "country_id": 156,
    "country_code": "NL",
    "latitude": "52.28583000",
    "longitude": "5.96667000",
    "wikiDataId": null
  },
  {
    "id": 78826,
    "name": "Valburg",
    "state_id": 2611,
    "state_code": "GE",
    "country_id": 156,
    "country_code": "NL",
    "latitude": "51.91167000",
    "longitude": "5.79028000",
    "wikiDataId": null
  },
  {
    "id": 78827,
    "name": "Valendries",
    "state_id": 2611,
    "state_code": "GE",
    "country_id": 156,
    "country_code": "NL",
    "latitude": "51.80658000",
    "longitude": "5.73445000",
    "wikiDataId": null
  },
  {
    "id": 78834,
    "name": "Varsseveld",
    "state_id": 2611,
    "state_code": "GE",
    "country_id": 156,
    "country_code": "NL",
    "latitude": "51.94333000",
    "longitude": "6.45833000",
    "wikiDataId": null
  },
  {
    "id": 78842,
    "name": "Velp",
    "state_id": 2611,
    "state_code": "GE",
    "country_id": 156,
    "country_code": "NL",
    "latitude": "51.99500000",
    "longitude": "5.97361000",
    "wikiDataId": null
  },
  {
    "id": 78867,
    "name": "Vogelkwartier",
    "state_id": 2611,
    "state_code": "GE",
    "country_id": 156,
    "country_code": "NL",
    "latitude": "52.19777000",
    "longitude": "5.96721000",
    "wikiDataId": null
  },
  {
    "id": 78877,
    "name": "Voorst",
    "state_id": 2611,
    "state_code": "GE",
    "country_id": 156,
    "country_code": "NL",
    "latitude": "52.17000000",
    "longitude": "6.14167000",
    "wikiDataId": null
  },
  {
    "id": 78878,
    "name": "Voorthuizen",
    "state_id": 2611,
    "state_code": "GE",
    "country_id": 156,
    "country_code": "NL",
    "latitude": "52.18667000",
    "longitude": "5.60556000",
    "wikiDataId": null
  },
  {
    "id": 78879,
    "name": "Vorden",
    "state_id": 2611,
    "state_code": "GE",
    "country_id": 156,
    "country_code": "NL",
    "latitude": "52.10500000",
    "longitude": "6.30972000",
    "wikiDataId": null
  },
  {
    "id": 78881,
    "name": "Vredenburg",
    "state_id": 2611,
    "state_code": "GE",
    "country_id": 156,
    "country_code": "NL",
    "latitude": "51.95355000",
    "longitude": "5.90284000",
    "wikiDataId": null
  },
  {
    "id": 78889,
    "name": "Vuren",
    "state_id": 2611,
    "state_code": "GE",
    "country_id": 156,
    "country_code": "NL",
    "latitude": "51.82500000",
    "longitude": "5.04583000",
    "wikiDataId": null
  },
  {
    "id": 78894,
    "name": "Waardenburg",
    "state_id": 2611,
    "state_code": "GE",
    "country_id": 156,
    "country_code": "NL",
    "latitude": "51.83250000",
    "longitude": "5.25694000",
    "wikiDataId": null
  },
  {
    "id": 78900,
    "name": "Wageningen",
    "state_id": 2611,
    "state_code": "GE",
    "country_id": 156,
    "country_code": "NL",
    "latitude": "51.97000000",
    "longitude": "5.66667000",
    "wikiDataId": null
  },
  {
    "id": 78903,
    "name": "Wapenveld",
    "state_id": 2611,
    "state_code": "GE",
    "country_id": 156,
    "country_code": "NL",
    "latitude": "52.42917000",
    "longitude": "6.07361000",
    "wikiDataId": null
  },
  {
    "id": 78907,
    "name": "Warnsveld",
    "state_id": 2611,
    "state_code": "GE",
    "country_id": 156,
    "country_code": "NL",
    "latitude": "52.13750000",
    "longitude": "6.23056000",
    "wikiDataId": null
  },
  {
    "id": 78918,
    "name": "Wekerom",
    "state_id": 2611,
    "state_code": "GE",
    "country_id": 156,
    "country_code": "NL",
    "latitude": "52.11250000",
    "longitude": "5.71389000",
    "wikiDataId": null
  },
  {
    "id": 78920,
    "name": "Welgelegen",
    "state_id": 2611,
    "state_code": "GE",
    "country_id": 156,
    "country_code": "NL",
    "latitude": "52.21397000",
    "longitude": "5.97643000",
    "wikiDataId": null
  },
  {
    "id": 78928,
    "name": "West Betuwe",
    "state_id": 2611,
    "state_code": "GE",
    "country_id": 156,
    "country_code": "NL",
    "latitude": "51.86158000",
    "longitude": "5.20935000",
    "wikiDataId": null
  },
  {
    "id": 78933,
    "name": "Westeneng",
    "state_id": 2611,
    "state_code": "GE",
    "country_id": 156,
    "country_code": "NL",
    "latitude": "52.12750000",
    "longitude": "5.71528000",
    "wikiDataId": null
  },
  {
    "id": 78934,
    "name": "Westenenk",
    "state_id": 2611,
    "state_code": "GE",
    "country_id": 156,
    "country_code": "NL",
    "latitude": "52.19624000",
    "longitude": "5.95656000",
    "wikiDataId": null
  },
  {
    "id": 78939,
    "name": "Westervoort",
    "state_id": 2611,
    "state_code": "GE",
    "country_id": 156,
    "country_code": "NL",
    "latitude": "51.95583000",
    "longitude": "5.97222000",
    "wikiDataId": null
  },
  {
    "id": 78950,
    "name": "Wijchen",
    "state_id": 2611,
    "state_code": "GE",
    "country_id": 156,
    "country_code": "NL",
    "latitude": "51.80917000",
    "longitude": "5.72500000",
    "wikiDataId": null
  },
  {
    "id": 78962,
    "name": "Winkewijert",
    "state_id": 2611,
    "state_code": "GE",
    "country_id": 156,
    "country_code": "NL",
    "latitude": "52.19082000",
    "longitude": "5.95794000",
    "wikiDataId": null
  },
  {
    "id": 78965,
    "name": "Winterswijk",
    "state_id": 2611,
    "state_code": "GE",
    "country_id": 156,
    "country_code": "NL",
    "latitude": "51.97250000",
    "longitude": "6.71944000",
    "wikiDataId": null
  },
  {
    "id": 78967,
    "name": "Wisch",
    "state_id": 2611,
    "state_code": "GE",
    "country_id": 156,
    "country_code": "NL",
    "latitude": "51.92648000",
    "longitude": "6.41705000",
    "wikiDataId": null
  },
  {
    "id": 78975,
    "name": "Wolfheze",
    "state_id": 2611,
    "state_code": "GE",
    "country_id": 156,
    "country_code": "NL",
    "latitude": "52.00333000",
    "longitude": "5.79028000",
    "wikiDataId": null
  },
  {
    "id": 78985,
    "name": "Woudhuis",
    "state_id": 2611,
    "state_code": "GE",
    "country_id": 156,
    "country_code": "NL",
    "latitude": "52.21323000",
    "longitude": "6.01124000",
    "wikiDataId": null
  },
  {
    "id": 78996,
    "name": "Zaltbommel",
    "state_id": 2611,
    "state_code": "GE",
    "country_id": 156,
    "country_code": "NL",
    "latitude": "51.81000000",
    "longitude": "5.24444000",
    "wikiDataId": null
  },
  {
    "id": 78999,
    "name": "Zeddam",
    "state_id": 2611,
    "state_code": "GE",
    "country_id": 156,
    "country_code": "NL",
    "latitude": "51.90333000",
    "longitude": "6.25972000",
    "wikiDataId": null
  },
  {
    "id": 79006,
    "name": "Zelhem",
    "state_id": 2611,
    "state_code": "GE",
    "country_id": 156,
    "country_code": "NL",
    "latitude": "52.00667000",
    "longitude": "6.34861000",
    "wikiDataId": null
  },
  {
    "id": 79008,
    "name": "Zetten",
    "state_id": 2611,
    "state_code": "GE",
    "country_id": 156,
    "country_code": "NL",
    "latitude": "51.92833000",
    "longitude": "5.71389000",
    "wikiDataId": null
  },
  {
    "id": 79009,
    "name": "Zevenaar",
    "state_id": 2611,
    "state_code": "GE",
    "country_id": 156,
    "country_code": "NL",
    "latitude": "51.93000000",
    "longitude": "6.07083000",
    "wikiDataId": null
  },
  {
    "id": 79012,
    "name": "Zevenhuizen",
    "state_id": 2611,
    "state_code": "GE",
    "country_id": 156,
    "country_code": "NL",
    "latitude": "52.21816000",
    "longitude": "5.97841000",
    "wikiDataId": null
  },
  {
    "id": 79015,
    "name": "Zoelen",
    "state_id": 2611,
    "state_code": "GE",
    "country_id": 156,
    "country_code": "NL",
    "latitude": "51.91250000",
    "longitude": "5.40278000",
    "wikiDataId": null
  },
  {
    "id": 79019,
    "name": "Zonnemaat",
    "state_id": 2611,
    "state_code": "GE",
    "country_id": 156,
    "country_code": "NL",
    "latitude": "51.93115000",
    "longitude": "6.06235000",
    "wikiDataId": null
  },
  {
    "id": 79030,
    "name": "Zuilichem",
    "state_id": 2611,
    "state_code": "GE",
    "country_id": 156,
    "country_code": "NL",
    "latitude": "51.80917000",
    "longitude": "5.13611000",
    "wikiDataId": null
  },
  {
    "id": 79032,
    "name": "Zutphen",
    "state_id": 2611,
    "state_code": "GE",
    "country_id": 156,
    "country_code": "NL",
    "latitude": "52.13833000",
    "longitude": "6.20139000",
    "wikiDataId": null
  }
]