[
  {
    "id": 150201,
    "name": "Abouzeidabad",
    "state_id": 3923,
    "state_code": "10",
    "country_id": 103,
    "country_code": "IR",
    "latitude": "33.90165760",
    "longitude": "51.74337370",
    "wikiDataId": null
  },
  {
    "id": 134557,
    "name": "Abrisham",
    "state_id": 3923,
    "state_code": "10",
    "country_id": 103,
    "country_code": "IR",
    "latitude": "32.55613000",
    "longitude": "51.57325000",
    "wikiDataId": null
  },
  {
    "id": 150226,
    "name": "Afus",
    "state_id": 3923,
    "state_code": "10",
    "country_id": 103,
    "country_code": "IR",
    "latitude": "33.02495550",
    "longitude": "50.08812900",
    "wikiDataId": null
  },
  {
    "id": 150282,
    "name": "Alavijeh",
    "state_id": 3923,
    "state_code": "10",
    "country_id": 103,
    "country_code": "IR",
    "latitude": "33.05169010",
    "longitude": "51.05992540",
    "wikiDataId": null
  },
  {
    "id": 150277,
    "name": "Anarak",
    "state_id": 3923,
    "state_code": "10",
    "country_id": 103,
    "country_code": "IR",
    "latitude": "33.30702060",
    "longitude": "53.68767500",
    "wikiDataId": null
  },
  {
    "id": 135084,
    "name": "Aran va Bidgol",
    "state_id": 3923,
    "state_code": "10",
    "country_id": 103,
    "country_code": "IR",
    "latitude": "34.10000000",
    "longitude": "51.90000000",
    "wikiDataId": null
  },
  {
    "id": 134570,
    "name": "Ardestan",
    "state_id": 3923,
    "state_code": "10",
    "country_id": 103,
    "country_code": "IR",
    "latitude": "33.37610000",
    "longitude": "52.36940000",
    "wikiDataId": null
  },
  {
    "id": 150230,
    "name": "Asghar Abad",
    "state_id": 3923,
    "state_code": "10",
    "country_id": 103,
    "country_code": "IR",
    "latitude": "32.65260910",
    "longitude": "51.47119400",
    "wikiDataId": null
  },
  {
    "id": 150228,
    "name": "Askaran",
    "state_id": 3923,
    "state_code": "10",
    "country_id": 103,
    "country_code": "IR",
    "latitude": "32.86623280",
    "longitude": "50.84719420",
    "wikiDataId": null
  },
  {
    "id": 150285,
    "name": "Badroud",
    "state_id": 3923,
    "state_code": "10",
    "country_id": 103,
    "country_code": "IR",
    "latitude": "33.68939670",
    "longitude": "51.99780820",
    "wikiDataId": null
  },
  {
    "id": 150278,
    "name": "BafrƒÅn",
    "state_id": 3923,
    "state_code": "10",
    "country_id": 103,
    "country_code": "IR",
    "latitude": "32.83938320",
    "longitude": "53.13662050",
    "wikiDataId": null
  },
  {
    "id": 150263,
    "name": "Baghbahadoran",
    "state_id": 3923,
    "state_code": "10",
    "country_id": 103,
    "country_code": "IR",
    "latitude": "32.37872850",
    "longitude": "51.18191240",
    "wikiDataId": null
  },
  {
    "id": 150264,
    "name": "Baghshad",
    "state_id": 3923,
    "state_code": "10",
    "country_id": 103,
    "country_code": "IR",
    "latitude": "32.38226100",
    "longitude": "51.22944130",
    "wikiDataId": null
  },
  {
    "id": 150250,
    "name": "Baharan Shahr",
    "state_id": 3923,
    "state_code": "10",
    "country_id": 103,
    "country_code": "IR",
    "latitude": "32.65097430",
    "longitude": "51.72070930",
    "wikiDataId": null
  },
  {
    "id": 150207,
    "name": "Baharestan",
    "state_id": 3923,
    "state_code": "10",
    "country_id": 103,
    "country_code": "IR",
    "latitude": "32.48391000",
    "longitude": "51.73393190",
    "wikiDataId": null
  },
  {
    "id": 150247,
    "name": "Barf Anbar",
    "state_id": 3923,
    "state_code": "10",
    "country_id": 103,
    "country_code": "IR",
    "latitude": "32.99523650",
    "longitude": "50.17576210",
    "wikiDataId": null
  },
  {
    "id": 150255,
    "name": "Barzok",
    "state_id": 3923,
    "state_code": "10",
    "country_id": 103,
    "country_code": "IR",
    "latitude": "33.77699410",
    "longitude": "51.19740420",
    "wikiDataId": null
  },
  {
    "id": 134812,
    "name": "Borkhvar",
    "state_id": 3923,
    "state_code": "10",
    "country_id": 103,
    "country_code": "IR",
    "latitude": "32.98333000",
    "longitude": "51.76667000",
    "wikiDataId": null
  },
  {
    "id": 134593,
    "name": "Buin va Miandasht",
    "state_id": 3923,
    "state_code": "10",
    "country_id": 103,
    "country_code": "IR",
    "latitude": "33.07241000",
    "longitude": "50.14641000",
    "wikiDataId": null
  },
  {
    "id": 134609,
    "name": "Chadegan",
    "state_id": 3923,
    "state_code": "10",
    "country_id": 103,
    "country_code": "IR",
    "latitude": "32.76825000",
    "longitude": "50.62873000",
    "wikiDataId": null
  },
  {
    "id": 150266,
    "name": "Chamgordan",
    "state_id": 3923,
    "state_code": "10",
    "country_id": 103,
    "country_code": "IR",
    "latitude": "32.39291670",
    "longitude": "51.33082860",
    "wikiDataId": null
  },
  {
    "id": 150265,
    "name": "Chermahin",
    "state_id": 3923,
    "state_code": "10",
    "country_id": 103,
    "country_code": "IR",
    "latitude": "32.32433430",
    "longitude": "51.14324500",
    "wikiDataId": null
  },
  {
    "id": 150246,
    "name": "Damaneh",
    "state_id": 3923,
    "state_code": "10",
    "country_id": 103,
    "country_code": "IR",
    "latitude": "33.01758740",
    "longitude": "50.47904490",
    "wikiDataId": null
  },
  {
    "id": 134627,
    "name": "Daran",
    "state_id": 3923,
    "state_code": "10",
    "country_id": 103,
    "country_code": "IR",
    "latitude": "32.98871000",
    "longitude": "50.41267000",
    "wikiDataId": null
  },
  {
    "id": 150221,
    "name": "Dastgerd",
    "state_id": 3923,
    "state_code": "10",
    "country_id": 103,
    "country_code": "IR",
    "latitude": "32.80222710",
    "longitude": "51.65711400",
    "wikiDataId": null
  },
  {
    "id": 150281,
    "name": "Dehagh",
    "state_id": 3923,
    "state_code": "10",
    "country_id": 103,
    "country_code": "IR",
    "latitude": "33.10728330",
    "longitude": "50.93896840",
    "wikiDataId": null
  },
  {
    "id": 150236,
    "name": "Dehaghan",
    "state_id": 3923,
    "state_code": "10",
    "country_id": 103,
    "country_code": "IR",
    "latitude": "31.93724900",
    "longitude": "51.64522640",
    "wikiDataId": null
  },
  {
    "id": 134618,
    "name": "Dehaqan",
    "state_id": 3923,
    "state_code": "10",
    "country_id": 103,
    "country_code": "IR",
    "latitude": "31.94004000",
    "longitude": "51.64786000",
    "wikiDataId": null
  },
  {
    "id": 150272,
    "name": "Diziche",
    "state_id": 3923,
    "state_code": "10",
    "country_id": 103,
    "country_code": "IR",
    "latitude": "32.40433490",
    "longitude": "51.48476550",
    "wikiDataId": null
  },
  {
    "id": 150222,
    "name": "Dolatabad",
    "state_id": 3923,
    "state_code": "10",
    "country_id": 103,
    "country_code": "IR",
    "latitude": "32.80826470",
    "longitude": "51.67975170",
    "wikiDataId": null
  },
  {
    "id": 150231,
    "name": "Dorcheh",
    "state_id": 3923,
    "state_code": "10",
    "country_id": 103,
    "country_code": "IR",
    "latitude": "32.61500960",
    "longitude": "51.53461450",
    "wikiDataId": null
  },
  {
    "id": 134623,
    "name": "Dorcheh Piaz",
    "state_id": 3923,
    "state_code": "10",
    "country_id": 103,
    "country_code": "IR",
    "latitude": "32.61528000",
    "longitude": "51.55556000",
    "wikiDataId": null
  },
  {
    "id": 134624,
    "name": "Dowlatabad",
    "state_id": 3923,
    "state_code": "10",
    "country_id": 103,
    "country_code": "IR",
    "latitude": "32.79978000",
    "longitude": "51.69553000",
    "wikiDataId": null
  },
  {
    "id": 134863,
    "name": "Esfahan",
    "state_id": 3923,
    "state_code": "10",
    "country_id": 103,
    "country_code": "IR",
    "latitude": "32.26667000",
    "longitude": "52.45000000",
    "wikiDataId": null
  },
  {
    "id": 150206,
    "name": "Ezhieh",
    "state_id": 3923,
    "state_code": "10",
    "country_id": 103,
    "country_code": "IR",
    "latitude": "32.44236700",
    "longitude": "52.37182610",
    "wikiDataId": null
  },
  {
    "id": 134632,
    "name": "Falavarjan",
    "state_id": 3923,
    "state_code": "10",
    "country_id": 103,
    "country_code": "IR",
    "latitude": "32.55530000",
    "longitude": "51.50973000",
    "wikiDataId": null
  },
  {
    "id": 134636,
    "name": "Fareydunshahr",
    "state_id": 3923,
    "state_code": "10",
    "country_id": 103,
    "country_code": "IR",
    "latitude": "32.94098000",
    "longitude": "50.12100000",
    "wikiDataId": null
  },
  {
    "id": 150235,
    "name": "Farrokhi",
    "state_id": 3923,
    "state_code": "10",
    "country_id": 103,
    "country_code": "IR",
    "latitude": "33.84195750",
    "longitude": "54.94378560",
    "wikiDataId": null
  },
  {
    "id": 134639,
    "name": "Fereydan",
    "state_id": 3923,
    "state_code": "10",
    "country_id": 103,
    "country_code": "IR",
    "latitude": "33.10000000",
    "longitude": "50.26667000",
    "wikiDataId": null
  },
  {
    "id": 150248,
    "name": "Fereydun Shahr",
    "state_id": 3923,
    "state_code": "10",
    "country_id": 103,
    "country_code": "IR",
    "latitude": "32.93718600",
    "longitude": "50.12029390",
    "wikiDataId": null
  },
  {
    "id": 150270,
    "name": "Fooladshahr",
    "state_id": 3923,
    "state_code": "10",
    "country_id": 103,
    "country_code": "IR",
    "latitude": "32.52549510",
    "longitude": "51.29630090",
    "wikiDataId": null
  },
  {
    "id": 150242,
    "name": "Gazborkhar",
    "state_id": 3923,
    "state_code": "10",
    "country_id": 103,
    "country_code": "IR",
    "latitude": "32.80222200",
    "longitude": "51.62111100",
    "wikiDataId": null
  },
  {
    "id": 150253,
    "name": "Ghahderijan",
    "state_id": 3923,
    "state_code": "10",
    "country_id": 103,
    "country_code": "IR",
    "latitude": "32.56889540",
    "longitude": "51.40953480",
    "wikiDataId": null
  },
  {
    "id": 150257,
    "name": "Ghamsar",
    "state_id": 3923,
    "state_code": "10",
    "country_id": 103,
    "country_code": "IR",
    "latitude": "33.74066420",
    "longitude": "51.41000730",
    "wikiDataId": null
  },
  {
    "id": 150284,
    "name": "Goldasht",
    "state_id": 3923,
    "state_code": "10",
    "country_id": 103,
    "country_code": "IR",
    "latitude": "32.62173270",
    "longitude": "51.42737730",
    "wikiDataId": null
  },
  {
    "id": 134645,
    "name": "Golpayegan",
    "state_id": 3923,
    "state_code": "10",
    "country_id": 103,
    "country_code": "IR",
    "latitude": "33.45370000",
    "longitude": "50.28836000",
    "wikiDataId": null
  },
  {
    "id": 150261,
    "name": "Golshahr",
    "state_id": 3923,
    "state_code": "10",
    "country_id": 103,
    "country_code": "IR",
    "latitude": "33.50595700",
    "longitude": "50.45278070",
    "wikiDataId": null
  },
  {
    "id": 150237,
    "name": "Golshan",
    "state_id": 3923,
    "state_code": "10",
    "country_id": 103,
    "country_code": "IR",
    "latitude": "31.92651440",
    "longitude": "51.72279540",
    "wikiDataId": null
  },
  {
    "id": 150262,
    "name": "Googad",
    "state_id": 3923,
    "state_code": "10",
    "country_id": 103,
    "country_code": "IR",
    "latitude": "33.47637670",
    "longitude": "50.34423700",
    "wikiDataId": null
  },
  {
    "id": 150241,
    "name": "Gorgab",
    "state_id": 3923,
    "state_code": "10",
    "country_id": 103,
    "country_code": "IR",
    "latitude": "32.86625040",
    "longitude": "51.58879270",
    "wikiDataId": null
  },
  {
    "id": 150219,
    "name": "Habibabad",
    "state_id": 3923,
    "state_code": "10",
    "country_id": 103,
    "country_code": "IR",
    "latitude": "32.83124240",
    "longitude": "51.76599030",
    "wikiDataId": null
  },
  {
    "id": 150238,
    "name": "Hanna",
    "state_id": 3923,
    "state_code": "10",
    "country_id": 103,
    "country_code": "IR",
    "latitude": "31.19744850",
    "longitude": "51.71396600",
    "wikiDataId": null
  },
  {
    "id": 150218,
    "name": "Harand",
    "state_id": 3923,
    "state_code": "10",
    "country_id": 103,
    "country_code": "IR",
    "latitude": "32.57486500",
    "longitude": "52.39937730",
    "wikiDataId": null
  },
  {
    "id": 150209,
    "name": "Hassan Abad",
    "state_id": 3923,
    "state_code": "10",
    "country_id": 103,
    "country_code": "IR",
    "latitude": "32.13927970",
    "longitude": "52.62129300",
    "wikiDataId": null
  },
  {
    "id": 150249,
    "name": "Imanshahr",
    "state_id": 3923,
    "state_code": "10",
    "country_id": 103,
    "country_code": "IR",
    "latitude": "32.48392420",
    "longitude": "51.43493040",
    "wikiDataId": null
  },
  {
    "id": 134656,
    "name": "Isfahan",
    "state_id": 3923,
    "state_code": "10",
    "country_id": 103,
    "country_code": "IR",
    "latitude": "32.65246000",
    "longitude": "51.67462000",
    "wikiDataId": null
  },
  {
    "id": 150234,
    "name": "Jandaq",
    "state_id": 3923,
    "state_code": "10",
    "country_id": 103,
    "country_code": "IR",
    "latitude": "34.04261310",
    "longitude": "54.40511230",
    "wikiDataId": null
  },
  {
    "id": 150256,
    "name": "Josheqaneqali",
    "state_id": 3923,
    "state_code": "10",
    "country_id": 103,
    "country_code": "IR",
    "latitude": "33.55601380",
    "longitude": "51.13534680",
    "wikiDataId": null
  },
  {
    "id": 150258,
    "name": "Jowsheqan va Kamu",
    "state_id": 3923,
    "state_code": "10",
    "country_id": 103,
    "country_code": "IR",
    "latitude": "33.60000000",
    "longitude": "51.23333300",
    "wikiDataId": null
  },
  {
    "id": 150280,
    "name": "Jowzdan",
    "state_id": 3923,
    "state_code": "10",
    "country_id": 103,
    "country_code": "IR",
    "latitude": "32.55601720",
    "longitude": "51.35696400",
    "wikiDataId": null
  },
  {
    "id": 150283,
    "name": "Kahrizsang",
    "state_id": 3923,
    "state_code": "10",
    "country_id": 103,
    "country_code": "IR",
    "latitude": "32.63252520",
    "longitude": "51.46807190",
    "wikiDataId": null
  },
  {
    "id": 150275,
    "name": "Karkevand",
    "state_id": 3923,
    "state_code": "10",
    "country_id": 103,
    "country_code": "IR",
    "latitude": "32.34227880",
    "longitude": "51.43751610",
    "wikiDataId": null
  },
  {
    "id": 134935,
    "name": "Kashan",
    "state_id": 3923,
    "state_code": "10",
    "country_id": 103,
    "country_code": "IR",
    "latitude": "33.88333000",
    "longitude": "51.28333000",
    "wikiDataId": null
  },
  {
    "id": 150254,
    "name": "Kelishad and Soderjaan",
    "state_id": 3923,
    "state_code": "10",
    "country_id": 103,
    "country_code": "IR",
    "latitude": "32.55185850",
    "longitude": "51.52158730",
    "wikiDataId": null
  },
  {
    "id": 134666,
    "name": "Kelishad va Sudarjan",
    "state_id": 3923,
    "state_code": "10",
    "country_id": 103,
    "country_code": "IR",
    "latitude": "32.55118000",
    "longitude": "51.52758000",
    "wikiDataId": null
  },
  {
    "id": 150286,
    "name": "Khaled Abad",
    "state_id": 3923,
    "state_code": "10",
    "country_id": 103,
    "country_code": "IR",
    "latitude": "33.70071610",
    "longitude": "51.98288430",
    "wikiDataId": null
  },
  {
    "id": 150233,
    "name": "Khansar",
    "state_id": 3923,
    "state_code": "10",
    "country_id": 103,
    "country_code": "IR",
    "latitude": "33.26748190",
    "longitude": "50.24871590",
    "wikiDataId": null
  },
  {
    "id": 134672,
    "name": "Khomeyni Shahr",
    "state_id": 3923,
    "state_code": "10",
    "country_id": 103,
    "country_code": "IR",
    "latitude": "32.68560000",
    "longitude": "51.53609000",
    "wikiDataId": null
  },
  {
    "id": 150220,
    "name": "Khorzugh",
    "state_id": 3923,
    "state_code": "10",
    "country_id": 103,
    "country_code": "IR",
    "latitude": "32.78003800",
    "longitude": "51.62544240",
    "wikiDataId": null
  },
  {
    "id": 134680,
    "name": "Khur",
    "state_id": 3923,
    "state_code": "10",
    "country_id": 103,
    "country_code": "IR",
    "latitude": "33.77512000",
    "longitude": "55.08329000",
    "wikiDataId": null
  },
  {
    "id": 134677,
    "name": "Khvansar",
    "state_id": 3923,
    "state_code": "10",
    "country_id": 103,
    "country_code": "IR",
    "latitude": "33.22052000",
    "longitude": "50.31497000",
    "wikiDataId": null
  },
  {
    "id": 150239,
    "name": "Komeh",
    "state_id": 3923,
    "state_code": "10",
    "country_id": 103,
    "country_code": "IR",
    "latitude": "31.06320870",
    "longitude": "51.58456560",
    "wikiDataId": null
  },
  {
    "id": 150225,
    "name": "Komshecheh",
    "state_id": 3923,
    "state_code": "10",
    "country_id": 103,
    "country_code": "IR",
    "latitude": "32.90664920",
    "longitude": "51.80178170",
    "wikiDataId": null
  },
  {
    "id": 150232,
    "name": "Kooshk",
    "state_id": 3923,
    "state_code": "10",
    "country_id": 103,
    "country_code": "IR",
    "latitude": "32.63866920",
    "longitude": "51.49090280",
    "wikiDataId": null
  },
  {
    "id": 150213,
    "name": "Kuhpayeh",
    "state_id": 3923,
    "state_code": "10",
    "country_id": 103,
    "country_code": "IR",
    "latitude": "32.70287470",
    "longitude": "52.42220820",
    "wikiDataId": null
  },
  {
    "id": 150243,
    "name": "Laybid",
    "state_id": 3923,
    "state_code": "10",
    "country_id": 103,
    "country_code": "IR",
    "latitude": "33.45682060",
    "longitude": "50.68666930",
    "wikiDataId": null
  },
  {
    "id": 134942,
    "name": "Lenjan",
    "state_id": 3923,
    "state_code": "10",
    "country_id": 103,
    "country_code": "IR",
    "latitude": "32.36667000",
    "longitude": "51.20000000",
    "wikiDataId": null
  },
  {
    "id": 150205,
    "name": "Mahabad",
    "state_id": 3923,
    "state_code": "10",
    "country_id": 103,
    "country_code": "IR",
    "latitude": "33.52890960",
    "longitude": "52.21336130",
    "wikiDataId": null
  },
  {
    "id": 150276,
    "name": "Majlesi",
    "state_id": 3923,
    "state_code": "10",
    "country_id": 103,
    "country_code": "IR",
    "latitude": "32.19536780",
    "longitude": "51.48369300",
    "wikiDataId": null
  },
  {
    "id": 150245,
    "name": "Manzariyeh",
    "state_id": 3923,
    "state_code": "10",
    "country_id": 103,
    "country_code": "IR",
    "latitude": "31.94638130",
    "longitude": "51.87130450",
    "wikiDataId": null
  },
  {
    "id": 150259,
    "name": "Mashkat",
    "state_id": 3923,
    "state_code": "10",
    "country_id": 103,
    "country_code": "IR",
    "latitude": "34.18385200",
    "longitude": "51.25709940",
    "wikiDataId": null
  },
  {
    "id": 135043,
    "name": "Meymeh",
    "state_id": 3923,
    "state_code": "10",
    "country_id": 103,
    "country_code": "IR",
    "latitude": "33.44504910",
    "longitude": "51.16345880",
    "wikiDataId": null
  },
  {
    "id": 134703,
    "name": "Mobarakeh",
    "state_id": 3923,
    "state_code": "10",
    "country_id": 103,
    "country_code": "IR",
    "latitude": "32.34651000",
    "longitude": "51.50449000",
    "wikiDataId": null
  },
  {
    "id": 150214,
    "name": "Mohammad Abad",
    "state_id": 3923,
    "state_code": "10",
    "country_id": 103,
    "country_code": "IR",
    "latitude": "32.31742670",
    "longitude": "52.09172950",
    "wikiDataId": null
  },
  {
    "id": 150279,
    "name": "Naein",
    "state_id": 3923,
    "state_code": "10",
    "country_id": 103,
    "country_code": "IR",
    "latitude": "32.86148940",
    "longitude": "53.07443600",
    "wikiDataId": null
  },
  {
    "id": 134718,
    "name": "Nain",
    "state_id": 3923,
    "state_code": "10",
    "country_id": 103,
    "country_code": "IR",
    "latitude": "32.86006000",
    "longitude": "53.08749000",
    "wikiDataId": null
  },
  {
    "id": 134707,
    "name": "Najafabad",
    "state_id": 3923,
    "state_code": "10",
    "country_id": 103,
    "country_code": "IR",
    "latitude": "32.63440000",
    "longitude": "51.36680000",
    "wikiDataId": null
  },
  {
    "id": 150215,
    "name": "Nasr Abad",
    "state_id": 3923,
    "state_code": "10",
    "country_id": 103,
    "country_code": "IR",
    "latitude": "32.28016610",
    "longitude": "52.05294370",
    "wikiDataId": null
  },
  {
    "id": 134711,
    "name": "Natanz",
    "state_id": 3923,
    "state_code": "10",
    "country_id": 103,
    "country_code": "IR",
    "latitude": "33.51118000",
    "longitude": "51.91808000",
    "wikiDataId": null
  },
  {
    "id": 150260,
    "name": "Niasar",
    "state_id": 3923,
    "state_code": "10",
    "country_id": 103,
    "country_code": "IR",
    "latitude": "33.97745700",
    "longitude": "51.14122850",
    "wikiDataId": null
  },
  {
    "id": 150216,
    "name": "Nik Abad",
    "state_id": 3923,
    "state_code": "10",
    "country_id": 103,
    "country_code": "IR",
    "latitude": "32.30380070",
    "longitude": "52.18973630",
    "wikiDataId": null
  },
  {
    "id": 150203,
    "name": "Nushabad",
    "state_id": 3923,
    "state_code": "10",
    "country_id": 103,
    "country_code": "IR",
    "latitude": "34.07957060",
    "longitude": "51.42786020",
    "wikiDataId": null
  },
  {
    "id": 150251,
    "name": "Pir Bakran",
    "state_id": 3923,
    "state_code": "10",
    "country_id": 103,
    "country_code": "IR",
    "latitude": "32.46747760",
    "longitude": "51.53905380",
    "wikiDataId": null
  },
  {
    "id": 134735,
    "name": "Qahderijan",
    "state_id": 3923,
    "state_code": "10",
    "country_id": 103,
    "country_code": "IR",
    "latitude": "32.57670000",
    "longitude": "51.45500000",
    "wikiDataId": null
  },
  {
    "id": 150212,
    "name": "Qahjavarestan",
    "state_id": 3923,
    "state_code": "10",
    "country_id": 103,
    "country_code": "IR",
    "latitude": "32.70272036",
    "longitude": "51.82802440",
    "wikiDataId": null
  },
  {
    "id": 134751,
    "name": "Rehnan",
    "state_id": 3923,
    "state_code": "10",
    "country_id": 103,
    "country_code": "IR",
    "latitude": "32.68325000",
    "longitude": "51.60158000",
    "wikiDataId": null
  },
  {
    "id": 150227,
    "name": "Rezvanshahr",
    "state_id": 3923,
    "state_code": "10",
    "country_id": 103,
    "country_code": "IR",
    "latitude": "32.66581050",
    "longitude": "51.02359710",
    "wikiDataId": null
  },
  {
    "id": 150229,
    "name": "Rezveh",
    "state_id": 3923,
    "state_code": "10",
    "country_id": 103,
    "country_code": "IR",
    "latitude": "32.83687710",
    "longitude": "50.56521890",
    "wikiDataId": null
  },
  {
    "id": 150269,
    "name": "Sedeh Lenjan",
    "state_id": 3923,
    "state_code": "10",
    "country_id": 103,
    "country_code": "IR",
    "latitude": "32.37447790",
    "longitude": "51.30912400",
    "wikiDataId": null
  },
  {
    "id": 150202,
    "name": "Sefid Shahr",
    "state_id": 3923,
    "state_code": "10",
    "country_id": 103,
    "country_code": "IR",
    "latitude": "34.12406120",
    "longitude": "51.34705070",
    "wikiDataId": null
  },
  {
    "id": 150211,
    "name": "Sejzi",
    "state_id": 3923,
    "state_code": "10",
    "country_id": 103,
    "country_code": "IR",
    "latitude": "32.69866640",
    "longitude": "52.06674040",
    "wikiDataId": null
  },
  {
    "id": 135034,
    "name": "Semirom",
    "state_id": 3923,
    "state_code": "10",
    "country_id": 103,
    "country_code": "IR",
    "latitude": "31.30000000",
    "longitude": "51.53333000",
    "wikiDataId": null
  },
  {
    "id": 135111,
    "name": "Shahin Shahr",
    "state_id": 3923,
    "state_code": "10",
    "country_id": 103,
    "country_code": "IR",
    "latitude": "32.85788000",
    "longitude": "51.55290000",
    "wikiDataId": null
  },
  {
    "id": 135104,
    "name": "Shahreza",
    "state_id": 3923,
    "state_code": "10",
    "country_id": 103,
    "country_code": "IR",
    "latitude": "32.00890000",
    "longitude": "51.86680000",
    "wikiDataId": null
  },
  {
    "id": 150224,
    "name": "Shapur Abad",
    "state_id": 3923,
    "state_code": "10",
    "country_id": 103,
    "country_code": "IR",
    "latitude": "32.84337640",
    "longitude": "51.73918970",
    "wikiDataId": null
  },
  {
    "id": 150223,
    "name": "Sin",
    "state_id": 3923,
    "state_code": "10",
    "country_id": 103,
    "country_code": "IR",
    "latitude": "32.85028040",
    "longitude": "51.64761890",
    "wikiDataId": null
  },
  {
    "id": 150274,
    "name": "Talkhooncheh",
    "state_id": 3923,
    "state_code": "10",
    "country_id": 103,
    "country_code": "IR",
    "latitude": "32.24999310",
    "longitude": "51.51884030",
    "wikiDataId": null
  },
  {
    "id": 150287,
    "name": "Tarq Rud",
    "state_id": 3923,
    "state_code": "10",
    "country_id": 103,
    "country_code": "IR",
    "latitude": "33.34682690",
    "longitude": "51.79114390",
    "wikiDataId": null
  },
  {
    "id": 135136,
    "name": "Tiran",
    "state_id": 3923,
    "state_code": "10",
    "country_id": 103,
    "country_code": "IR",
    "latitude": "32.70260000",
    "longitude": "51.15370000",
    "wikiDataId": null
  },
  {
    "id": 150208,
    "name": "Toodeshk",
    "state_id": 3923,
    "state_code": "10",
    "country_id": 103,
    "country_code": "IR",
    "latitude": "32.72089190",
    "longitude": "52.65622610",
    "wikiDataId": null
  },
  {
    "id": 150240,
    "name": "Vanak",
    "state_id": 3923,
    "state_code": "10",
    "country_id": 103,
    "country_code": "IR",
    "latitude": "31.52755750",
    "longitude": "51.32147620",
    "wikiDataId": null
  },
  {
    "id": 150271,
    "name": "Varnamkhast",
    "state_id": 3923,
    "state_code": "10",
    "country_id": 103,
    "country_code": "IR",
    "latitude": "32.35522120",
    "longitude": "51.37205960",
    "wikiDataId": null
  },
  {
    "id": 150217,
    "name": "Varzaneh",
    "state_id": 3923,
    "state_code": "10",
    "country_id": 103,
    "country_code": "IR",
    "latitude": "32.41767450",
    "longitude": "52.63817870",
    "wikiDataId": null
  },
  {
    "id": 150244,
    "name": "Vazvan",
    "state_id": 3923,
    "state_code": "10",
    "country_id": 103,
    "country_code": "IR",
    "latitude": "33.41799110",
    "longitude": "51.17397300",
    "wikiDataId": null
  },
  {
    "id": 150268,
    "name": "Zarinshahr",
    "state_id": 3923,
    "state_code": "10",
    "country_id": 103,
    "country_code": "IR",
    "latitude": "32.41176360",
    "longitude": "51.36318620",
    "wikiDataId": null
  },
  {
    "id": 135144,
    "name": "Zarrin Shahr",
    "state_id": 3923,
    "state_code": "10",
    "country_id": 103,
    "country_code": "IR",
    "latitude": "32.38970000",
    "longitude": "51.37660000",
    "wikiDataId": null
  },
  {
    "id": 150204,
    "name": "Zavareh",
    "state_id": 3923,
    "state_code": "10",
    "country_id": 103,
    "country_code": "IR",
    "latitude": "33.44411680",
    "longitude": "52.46542430",
    "wikiDataId": null
  },
  {
    "id": 150267,
    "name": "Zayandehrod",
    "state_id": 3923,
    "state_code": "10",
    "country_id": 103,
    "country_code": "IR",
    "latitude": "32.38257720",
    "longitude": "51.25747000",
    "wikiDataId": null
  },
  {
    "id": 150252,
    "name": "Zazeran",
    "state_id": 3923,
    "state_code": "10",
    "country_id": 103,
    "country_code": "IR",
    "latitude": "32.59599600",
    "longitude": "51.48399340",
    "wikiDataId": null
  },
  {
    "id": 150210,
    "name": "Ziar",
    "state_id": 3923,
    "state_code": "10",
    "country_id": 103,
    "country_code": "IR",
    "latitude": "32.51124460",
    "longitude": "51.92680470",
    "wikiDataId": null
  },
  {
    "id": 150273,
    "name": "Zibashahr",
    "state_id": 3923,
    "state_code": "10",
    "country_id": 103,
    "country_code": "IR",
    "latitude": "32.38680810",
    "longitude": "51.54482590",
    "wikiDataId": null
  }
]