[
  {
    "id": 130237,
    "name": "Huyện Bắc Sơn",
    "state_id": 3792,
    "state_code": "09",
    "country_id": 240,
    "country_code": "VN",
    "latitude": "21.83801000",
    "longitude": "106.27690000",
    "wikiDataId": null
  },
  {
    "id": 130220,
    "name": "Huyện Bình Gia",
    "state_id": 3792,
    "state_code": "09",
    "country_id": 240,
    "country_code": "VN",
    "latitude": "22.07281000",
    "longitude": "106.30410000",
    "wikiDataId": null
  },
  {
    "id": 130244,
    "name": "Huyện Cao Lộc",
    "state_id": 3792,
    "state_code": "09",
    "country_id": 240,
    "country_code": "VN",
    "latitude": "21.89857000",
    "longitude": "106.85435000",
    "wikiDataId": null
  },
  {
    "id": 130246,
    "name": "Huyện Chi Lăng",
    "state_id": 3792,
    "state_code": "09",
    "country_id": 240,
    "country_code": "VN",
    "latitude": "21.67602000",
    "longitude": "106.62925000",
    "wikiDataId": null
  },
  {
    "id": 130531,
    "name": "Huyện Đình Lập",
    "state_id": 3792,
    "state_code": "09",
    "country_id": 240,
    "country_code": "VN",
    "latitude": "21.54210000",
    "longitude": "107.12925000",
    "wikiDataId": null
  },
  {
    "id": 130308,
    "name": "Huyện Hũu Lũng",
    "state_id": 3792,
    "state_code": "09",
    "country_id": 240,
    "country_code": "VN",
    "latitude": "21.54474000",
    "longitude": "106.34386000",
    "wikiDataId": null
  },
  {
    "id": 130507,
    "name": "Huyện Vặn Quan",
    "state_id": 3792,
    "state_code": "09",
    "country_id": 240,
    "country_code": "VN",
    "latitude": "21.83333000",
    "longitude": "106.54942000",
    "wikiDataId": null
  },
  {
    "id": 130572,
    "name": "Lạng Sơn",
    "state_id": 3792,
    "state_code": "09",
    "country_id": 240,
    "country_code": "VN",
    "latitude": "21.85264000",
    "longitude": "106.76101000",
    "wikiDataId": null
  }
]