[
  {
    "id": 48709,
    "name": "Brixworth",
    "state_id": 5461,
    "state_code": "NNH",
    "country_id": 232,
    "country_code": "GB",
    "latitude": "52.32912000",
    "longitude": "-0.90350000",
    "wikiDataId": null
  },
  {
    "id": 48790,
    "name": "Burton Latimer",
    "state_id": 5461,
    "state_code": "NNH",
    "country_id": 232,
    "country_code": "GB",
    "latitude": "52.36368000",
    "longitude": "-0.67853000",
    "wikiDataId": null
  },
  {
    "id": 49117,
    "name": "Cottingham",
    "state_id": 5461,
    "state_code": "NNH",
    "country_id": 232,
    "country_code": "GB",
    "latitude": "52.50243000",
    "longitude": "-0.75540000",
    "wikiDataId": null
  },
  {
    "id": 49157,
    "name": "Crick",
    "state_id": 5461,
    "state_code": "NNH",
    "country_id": 232,
    "country_code": "GB",
    "latitude": "52.34808000",
    "longitude": "-1.13708000",
    "wikiDataId": null
  },
  {
    "id": 49275,
    "name": "Desborough",
    "state_id": 5461,
    "state_code": "NNH",
    "country_id": 232,
    "country_code": "GB",
    "latitude": "52.44183000",
    "longitude": "-0.82126000",
    "wikiDataId": null
  },
  {
    "id": 49634,
    "name": "Geddington",
    "state_id": 5461,
    "state_code": "NNH",
    "country_id": 232,
    "country_code": "GB",
    "latitude": "52.43757000",
    "longitude": "-0.68965000",
    "wikiDataId": null
  },
  {
    "id": 49813,
    "name": "Harpole",
    "state_id": 5461,
    "state_code": "NNH",
    "country_id": 232,
    "country_code": "GB",
    "latitude": "52.24246000",
    "longitude": "-0.98937000",
    "wikiDataId": null
  },
  {
    "id": 50033,
    "name": "Husbands Bosworth",
    "state_id": 5461,
    "state_code": "NNH",
    "country_id": 232,
    "country_code": "GB",
    "latitude": "52.45232000",
    "longitude": "-1.05557000",
    "wikiDataId": null
  },
  {
    "id": 50129,
    "name": "Kettering",
    "state_id": 5461,
    "state_code": "NNH",
    "country_id": 232,
    "country_code": "GB",
    "latitude": "52.39836000",
    "longitude": "-0.72571000",
    "wikiDataId": null
  },
  {
    "id": 50214,
    "name": "Kislingbury",
    "state_id": 5461,
    "state_code": "NNH",
    "country_id": 232,
    "country_code": "GB",
    "latitude": "52.22976000",
    "longitude": "-0.97914000",
    "wikiDataId": null
  },
  {
    "id": 50392,
    "name": "Long Buckby",
    "state_id": 5461,
    "state_code": "NNH",
    "country_id": 232,
    "country_code": "GB",
    "latitude": "52.30260000",
    "longitude": "-1.08113000",
    "wikiDataId": null
  },
  {
    "id": 50440,
    "name": "Lutterworth",
    "state_id": 5461,
    "state_code": "NNH",
    "country_id": 232,
    "country_code": "GB",
    "latitude": "52.45634000",
    "longitude": "-1.20218000",
    "wikiDataId": null
  },
  {
    "id": 50500,
    "name": "Market Harborough",
    "state_id": 5461,
    "state_code": "NNH",
    "country_id": 232,
    "country_code": "GB",
    "latitude": "52.47760000",
    "longitude": "-0.92053000",
    "wikiDataId": null
  },
  {
    "id": 50773,
    "name": "Northampton",
    "state_id": 5461,
    "state_code": "NNH",
    "country_id": 232,
    "country_code": "GB",
    "latitude": "52.25000000",
    "longitude": "-0.88333000",
    "wikiDataId": null
  },
  {
    "id": 50774,
    "name": "Northamptonshire",
    "state_id": 5461,
    "state_code": "NNH",
    "country_id": 232,
    "country_code": "GB",
    "latitude": "52.25000000",
    "longitude": "-0.83333000",
    "wikiDataId": null
  },
  {
    "id": 51122,
    "name": "Rothwell",
    "state_id": 5461,
    "state_code": "NNH",
    "country_id": 232,
    "country_code": "GB",
    "latitude": "52.41667000",
    "longitude": "-0.80000000",
    "wikiDataId": null
  },
  {
    "id": 51392,
    "name": "Spratton",
    "state_id": 5461,
    "state_code": "NNH",
    "country_id": 232,
    "country_code": "GB",
    "latitude": "52.32447000",
    "longitude": "-0.95386000",
    "wikiDataId": null
  },
  {
    "id": 51542,
    "name": "Sywell",
    "state_id": 5461,
    "state_code": "NNH",
    "country_id": 232,
    "country_code": "GB",
    "latitude": "52.29856000",
    "longitude": "-0.79728000",
    "wikiDataId": null
  },
  {
    "id": 51785,
    "name": "Welford",
    "state_id": 5461,
    "state_code": "NNH",
    "country_id": 232,
    "country_code": "GB",
    "latitude": "52.41706000",
    "longitude": "-1.05871000",
    "wikiDataId": null
  },
  {
    "id": 51818,
    "name": "West Haddon",
    "state_id": 5461,
    "state_code": "NNH",
    "country_id": 232,
    "country_code": "GB",
    "latitude": "52.34168000",
    "longitude": "-1.07804000",
    "wikiDataId": null
  }
]