[
  {
    "id": 18946,
    "name": "Antofagasta",
    "state_id": 2832,
    "state_code": "AN",
    "country_id": 44,
    "country_code": "CL",
    "latitude": "-23.65236000",
    "longitude": "-70.39540000",
    "wikiDataId": null
  },
  {
    "id": 18952,
    "name": "Calama",
    "state_id": 2832,
    "state_code": "AN",
    "country_id": 44,
    "country_code": "CL",
    "latitude": "-22.45667000",
    "longitude": "-68.92371000",
    "wikiDataId": null
  },
  {
    "id": 148326,
    "name": "María Elena",
    "state_id": 2832,
    "state_code": "AN",
    "country_id": 44,
    "country_code": "CL",
    "latitude": "-22.35000000",
    "longitude": "-69.66666667",
    "wikiDataId": null
  },
  {
    "id": 19033,
    "name": "Mejillones",
    "state_id": 2832,
    "state_code": "AN",
    "country_id": 44,
    "country_code": "CL",
    "latitude": "-23.10000000",
    "longitude": "-70.45000000",
    "wikiDataId": null
  },
  {
    "id": 19074,
    "name": "Ollagüe",
    "state_id": 2832,
    "state_code": "AN",
    "country_id": 44,
    "country_code": "CL",
    "latitude": "-21.22496000",
    "longitude": "-68.25352000",
    "wikiDataId": null
  },
  {
    "id": 19107,
    "name": "San Pedro de Atacama",
    "state_id": 2832,
    "state_code": "AN",
    "country_id": 44,
    "country_code": "CL",
    "latitude": "-22.91110000",
    "longitude": "-68.20113000",
    "wikiDataId": null
  },
  {
    "id": 19051,
    "name": "Sierra Gorda",
    "state_id": 2832,
    "state_code": "AN",
    "country_id": 44,
    "country_code": "CL",
    "latitude": "-22.88333333",
    "longitude": "-69.31666667",
    "wikiDataId": null
  },
  {
    "id": 19115,
    "name": "Taltal",
    "state_id": 2832,
    "state_code": "AN",
    "country_id": 44,
    "country_code": "CL",
    "latitude": "-25.40713000",
    "longitude": "-70.48554000",
    "wikiDataId": null
  },
  {
    "id": 19118,
    "name": "Tocopilla",
    "state_id": 2832,
    "state_code": "AN",
    "country_id": 44,
    "country_code": "CL",
    "latitude": "-22.09198000",
    "longitude": "-70.19792000",
    "wikiDataId": null
  }
]