[
  {
    "id": 79040,
    "name": "Alvdal",
    "state_id": 1009,
    "state_code": "34",
    "country_id": 165,
    "country_code": "NO",
    "latitude": "62.10854000",
    "longitude": "10.63483000",
    "wikiDataId": null
  },
  {
    "id": 79679,
    "name": "Åmot",
    "state_id": 1009,
    "state_code": "34",
    "country_id": 165,
    "country_code": "NO",
    "latitude": "61.13199000",
    "longitude": "11.37328000",
    "wikiDataId": null
  },
  {
    "id": 79690,
    "name": "Åsnes",
    "state_id": 1009,
    "state_code": "34",
    "country_id": 165,
    "country_code": "NO",
    "latitude": "60.61363000",
    "longitude": "12.01200000",
    "wikiDataId": null
  },
  {
    "id": 79059,
    "name": "Bagn",
    "state_id": 1009,
    "state_code": "34",
    "country_id": 165,
    "country_code": "NO",
    "latitude": "60.82249000",
    "longitude": "9.55207000",
    "wikiDataId": null
  },
  {
    "id": 79089,
    "name": "Brumunddal",
    "state_id": 1009,
    "state_code": "34",
    "country_id": 165,
    "country_code": "NO",
    "latitude": "60.88095000",
    "longitude": "10.93948000",
    "wikiDataId": null
  },
  {
    "id": 79101,
    "name": "Dokka",
    "state_id": 1009,
    "state_code": "34",
    "country_id": 165,
    "country_code": "NO",
    "latitude": "60.83500000",
    "longitude": "10.07362000",
    "wikiDataId": null
  },
  {
    "id": 79102,
    "name": "Dombås",
    "state_id": 1009,
    "state_code": "34",
    "country_id": 165,
    "country_code": "NO",
    "latitude": "62.07554000",
    "longitude": "9.12785000",
    "wikiDataId": null
  },
  {
    "id": 79103,
    "name": "Dovre",
    "state_id": 1009,
    "state_code": "34",
    "country_id": 165,
    "country_code": "NO",
    "latitude": "61.98582000",
    "longitude": "9.24947000",
    "wikiDataId": null
  },
  {
    "id": 79114,
    "name": "Eidskog",
    "state_id": 1009,
    "state_code": "34",
    "country_id": 165,
    "country_code": "NO",
    "latitude": "59.98556000",
    "longitude": "12.12502000",
    "wikiDataId": null
  },
  {
    "id": 79122,
    "name": "Elverum",
    "state_id": 1009,
    "state_code": "34",
    "country_id": 165,
    "country_code": "NO",
    "latitude": "60.88159000",
    "longitude": "11.56314000",
    "wikiDataId": null
  },
  {
    "id": 79124,
    "name": "Engerdal",
    "state_id": 1009,
    "state_code": "34",
    "country_id": 165,
    "country_code": "NO",
    "latitude": "61.75774000",
    "longitude": "11.95966000",
    "wikiDataId": null
  },
  {
    "id": 79127,
    "name": "Etnedal",
    "state_id": 1009,
    "state_code": "34",
    "country_id": 165,
    "country_code": "NO",
    "latitude": "60.88872000",
    "longitude": "9.64031000",
    "wikiDataId": null
  },
  {
    "id": 79131,
    "name": "Fagernes",
    "state_id": 1009,
    "state_code": "34",
    "country_id": 165,
    "country_code": "NO",
    "latitude": "60.98584000",
    "longitude": "9.23236000",
    "wikiDataId": null
  },
  {
    "id": 79154,
    "name": "Folldal",
    "state_id": 1009,
    "state_code": "34",
    "country_id": 165,
    "country_code": "NO",
    "latitude": "62.13329000",
    "longitude": "9.99710000",
    "wikiDataId": null
  },
  {
    "id": 79157,
    "name": "Fossbergom",
    "state_id": 1009,
    "state_code": "34",
    "country_id": 165,
    "country_code": "NO",
    "latitude": "61.83772000",
    "longitude": "8.56842000",
    "wikiDataId": null
  },
  {
    "id": 79173,
    "name": "Gausdal",
    "state_id": 1009,
    "state_code": "34",
    "country_id": 165,
    "country_code": "NO",
    "latitude": "61.22685000",
    "longitude": "10.22145000",
    "wikiDataId": null
  },
  {
    "id": 79180,
    "name": "Gjøvik",
    "state_id": 1009,
    "state_code": "34",
    "country_id": 165,
    "country_code": "NO",
    "latitude": "60.79472000",
    "longitude": "10.69287000",
    "wikiDataId": null
  },
  {
    "id": 79185,
    "name": "Gran",
    "state_id": 1009,
    "state_code": "34",
    "country_id": 165,
    "country_code": "NO",
    "latitude": "60.39293000",
    "longitude": "10.56045000",
    "wikiDataId": null
  },
  {
    "id": 79191,
    "name": "Grua",
    "state_id": 1009,
    "state_code": "34",
    "country_id": 165,
    "country_code": "NO",
    "latitude": "60.25701000",
    "longitude": "10.66222000",
    "wikiDataId": null
  },
  {
    "id": 79192,
    "name": "Grue",
    "state_id": 1009,
    "state_code": "34",
    "country_id": 165,
    "country_code": "NO",
    "latitude": "60.45133000",
    "longitude": "12.05489000",
    "wikiDataId": null
  },
  {
    "id": 79201,
    "name": "Hamar",
    "state_id": 1009,
    "state_code": "34",
    "country_id": 165,
    "country_code": "NO",
    "latitude": "60.79450000",
    "longitude": "11.06798000",
    "wikiDataId": null
  },
  {
    "id": 79237,
    "name": "Hov",
    "state_id": 1009,
    "state_code": "34",
    "country_id": 165,
    "country_code": "NO",
    "latitude": "60.69870000",
    "longitude": "10.35193000",
    "wikiDataId": null
  },
  {
    "id": 79238,
    "name": "Hundorp",
    "state_id": 1009,
    "state_code": "34",
    "country_id": 165,
    "country_code": "NO",
    "latitude": "61.55523000",
    "longitude": "9.94069000",
    "wikiDataId": null
  },
  {
    "id": 79254,
    "name": "Innbygda",
    "state_id": 1009,
    "state_code": "34",
    "country_id": 165,
    "country_code": "NO",
    "latitude": "61.31484000",
    "longitude": "12.26374000",
    "wikiDataId": null
  },
  {
    "id": 79257,
    "name": "Jevnaker",
    "state_id": 1009,
    "state_code": "34",
    "country_id": 165,
    "country_code": "NO",
    "latitude": "60.24060000",
    "longitude": "10.38587000",
    "wikiDataId": null
  },
  {
    "id": 79271,
    "name": "Kirkenær",
    "state_id": 1009,
    "state_code": "34",
    "country_id": 165,
    "country_code": "NO",
    "latitude": "60.45790000",
    "longitude": "12.05855000",
    "wikiDataId": null
  },
  {
    "id": 79282,
    "name": "Kongsvinger",
    "state_id": 1009,
    "state_code": "34",
    "country_id": 165,
    "country_code": "NO",
    "latitude": "60.19117000",
    "longitude": "11.99916000",
    "wikiDataId": null
  },
  {
    "id": 79284,
    "name": "Koppang",
    "state_id": 1009,
    "state_code": "34",
    "country_id": 165,
    "country_code": "NO",
    "latitude": "61.57219000",
    "longitude": "11.04659000",
    "wikiDataId": null
  },
  {
    "id": 79315,
    "name": "Lena",
    "state_id": 1009,
    "state_code": "34",
    "country_id": 165,
    "country_code": "NO",
    "latitude": "60.67391000",
    "longitude": "10.81317000",
    "wikiDataId": null
  },
  {
    "id": 79318,
    "name": "Lesja",
    "state_id": 1009,
    "state_code": "34",
    "country_id": 165,
    "country_code": "NO",
    "latitude": "62.11785000",
    "longitude": "8.86262000",
    "wikiDataId": null
  },
  {
    "id": 79323,
    "name": "Lillehammer",
    "state_id": 1009,
    "state_code": "34",
    "country_id": 165,
    "country_code": "NO",
    "latitude": "61.11464000",
    "longitude": "10.46743000",
    "wikiDataId": null
  },
  {
    "id": 79327,
    "name": "Lom",
    "state_id": 1009,
    "state_code": "34",
    "country_id": 165,
    "country_code": "NO",
    "latitude": "61.83639000",
    "longitude": "8.56811000",
    "wikiDataId": null
  },
  {
    "id": 79347,
    "name": "Løten",
    "state_id": 1009,
    "state_code": "34",
    "country_id": 165,
    "country_code": "NO",
    "latitude": "60.81771000",
    "longitude": "11.34373000",
    "wikiDataId": null
  },
  {
    "id": 79333,
    "name": "Lunner",
    "state_id": 1009,
    "state_code": "34",
    "country_id": 165,
    "country_code": "NO",
    "latitude": "60.29462000",
    "longitude": "10.60860000",
    "wikiDataId": null
  },
  {
    "id": 79369,
    "name": "Moelv",
    "state_id": 1009,
    "state_code": "34",
    "country_id": 165,
    "country_code": "NO",
    "latitude": "60.93333000",
    "longitude": "10.70000000",
    "wikiDataId": null
  },
  {
    "id": 79402,
    "name": "Nord-Aurdal",
    "state_id": 1009,
    "state_code": "34",
    "country_id": 165,
    "country_code": "NO",
    "latitude": "60.98531000",
    "longitude": "9.23661000",
    "wikiDataId": null
  },
  {
    "id": 79403,
    "name": "Nord-Fron",
    "state_id": 1009,
    "state_code": "34",
    "country_id": 165,
    "country_code": "NO",
    "latitude": "61.59556000",
    "longitude": "9.74830000",
    "wikiDataId": null
  },
  {
    "id": 79404,
    "name": "Nord-Odal",
    "state_id": 1009,
    "state_code": "34",
    "country_id": 165,
    "country_code": "NO",
    "latitude": "60.39195000",
    "longitude": "11.54151000",
    "wikiDataId": null
  },
  {
    "id": 79408,
    "name": "Nordre Land",
    "state_id": 1009,
    "state_code": "34",
    "country_id": 165,
    "country_code": "NO",
    "latitude": "60.83471000",
    "longitude": "10.07543000",
    "wikiDataId": null
  },
  {
    "id": 79422,
    "name": "Os",
    "state_id": 1009,
    "state_code": "34",
    "country_id": 165,
    "country_code": "NO",
    "latitude": "62.49536000",
    "longitude": "11.22807000",
    "wikiDataId": null
  },
  {
    "id": 79427,
    "name": "Otta",
    "state_id": 1009,
    "state_code": "34",
    "country_id": 165,
    "country_code": "NO",
    "latitude": "61.77120000",
    "longitude": "9.53529000",
    "wikiDataId": null
  },
  {
    "id": 79699,
    "name": "Østre Toten",
    "state_id": 1009,
    "state_code": "34",
    "country_id": 165,
    "country_code": "NO",
    "latitude": "60.67659000",
    "longitude": "10.81997000",
    "wikiDataId": null
  },
  {
    "id": 79701,
    "name": "Øyer",
    "state_id": 1009,
    "state_code": "34",
    "country_id": 165,
    "country_code": "NO",
    "latitude": "61.26495000",
    "longitude": "10.41297000",
    "wikiDataId": null
  },
  {
    "id": 79704,
    "name": "Øystre Slidre",
    "state_id": 1009,
    "state_code": "34",
    "country_id": 165,
    "country_code": "NO",
    "latitude": "61.13377000",
    "longitude": "9.07872000",
    "wikiDataId": null
  },
  {
    "id": 79439,
    "name": "Raufoss",
    "state_id": 1009,
    "state_code": "34",
    "country_id": 165,
    "country_code": "NO",
    "latitude": "60.72604000",
    "longitude": "10.61330000",
    "wikiDataId": null
  },
  {
    "id": 79443,
    "name": "Reinsvoll",
    "state_id": 1009,
    "state_code": "34",
    "country_id": 165,
    "country_code": "NO",
    "latitude": "60.67977000",
    "longitude": "10.62175000",
    "wikiDataId": null
  },
  {
    "id": 79444,
    "name": "Rena",
    "state_id": 1009,
    "state_code": "34",
    "country_id": 165,
    "country_code": "NO",
    "latitude": "61.13222000",
    "longitude": "11.37156000",
    "wikiDataId": null
  },
  {
    "id": 79445,
    "name": "Rendalen",
    "state_id": 1009,
    "state_code": "34",
    "country_id": 165,
    "country_code": "NO",
    "latitude": "61.89004000",
    "longitude": "11.07694000",
    "wikiDataId": null
  },
  {
    "id": 79450,
    "name": "Ringebu",
    "state_id": 1009,
    "state_code": "34",
    "country_id": 165,
    "country_code": "NO",
    "latitude": "61.52980000",
    "longitude": "10.14180000",
    "wikiDataId": null
  },
  {
    "id": 79452,
    "name": "Ringsaker",
    "state_id": 1009,
    "state_code": "34",
    "country_id": 165,
    "country_code": "NO",
    "latitude": "60.88216000",
    "longitude": "10.95030000",
    "wikiDataId": null
  },
  {
    "id": 79477,
    "name": "Sand",
    "state_id": 1009,
    "state_code": "34",
    "country_id": 165,
    "country_code": "NO",
    "latitude": "60.39220000",
    "longitude": "11.54030000",
    "wikiDataId": null
  },
  {
    "id": 79490,
    "name": "Sel",
    "state_id": 1009,
    "state_code": "34",
    "country_id": 165,
    "country_code": "NO",
    "latitude": "61.77278000",
    "longitude": "9.53415000",
    "wikiDataId": null
  },
  {
    "id": 79504,
    "name": "Skarnes",
    "state_id": 1009,
    "state_code": "34",
    "country_id": 165,
    "country_code": "NO",
    "latitude": "60.25391000",
    "longitude": "11.68485000",
    "wikiDataId": null
  },
  {
    "id": 79512,
    "name": "Skjåk",
    "state_id": 1009,
    "state_code": "34",
    "country_id": 165,
    "country_code": "NO",
    "latitude": "61.88349000",
    "longitude": "8.26490000",
    "wikiDataId": null
  },
  {
    "id": 79519,
    "name": "Skotterud",
    "state_id": 1009,
    "state_code": "34",
    "country_id": 165,
    "country_code": "NO",
    "latitude": "59.98281000",
    "longitude": "12.12825000",
    "wikiDataId": null
  },
  {
    "id": 79520,
    "name": "Skreia",
    "state_id": 1009,
    "state_code": "34",
    "country_id": 165,
    "country_code": "NO",
    "latitude": "60.65257000",
    "longitude": "10.93564000",
    "wikiDataId": null
  },
  {
    "id": 79578,
    "name": "Søndre Land",
    "state_id": 1009,
    "state_code": "34",
    "country_id": 165,
    "country_code": "NO",
    "latitude": "60.69944000",
    "longitude": "10.35086000",
    "wikiDataId": null
  },
  {
    "id": 79579,
    "name": "Sør-Aurdal",
    "state_id": 1009,
    "state_code": "34",
    "country_id": 165,
    "country_code": "NO",
    "latitude": "60.82242000",
    "longitude": "9.54836000",
    "wikiDataId": null
  },
  {
    "id": 79580,
    "name": "Sør-Fron",
    "state_id": 1009,
    "state_code": "34",
    "country_id": 165,
    "country_code": "NO",
    "latitude": "61.55652000",
    "longitude": "9.93949000",
    "wikiDataId": null
  },
  {
    "id": 79581,
    "name": "Sør-Odal",
    "state_id": 1009,
    "state_code": "34",
    "country_id": 165,
    "country_code": "NO",
    "latitude": "60.25455000",
    "longitude": "11.68246000",
    "wikiDataId": null
  },
  {
    "id": 79535,
    "name": "Spetalen",
    "state_id": 1009,
    "state_code": "34",
    "country_id": 165,
    "country_code": "NO",
    "latitude": "60.18333000",
    "longitude": "11.90000000",
    "wikiDataId": null
  },
  {
    "id": 79537,
    "name": "Stange",
    "state_id": 1009,
    "state_code": "34",
    "country_id": 165,
    "country_code": "NO",
    "latitude": "60.71576000",
    "longitude": "11.19069000",
    "wikiDataId": null
  },
  {
    "id": 79547,
    "name": "Stor-Elvdal",
    "state_id": 1009,
    "state_code": "34",
    "country_id": 165,
    "country_code": "NO",
    "latitude": "61.57198000",
    "longitude": "11.04759000",
    "wikiDataId": null
  },
  {
    "id": 79599,
    "name": "Tolga",
    "state_id": 1009,
    "state_code": "34",
    "country_id": 165,
    "country_code": "NO",
    "latitude": "62.40984000",
    "longitude": "10.99770000",
    "wikiDataId": null
  },
  {
    "id": 79606,
    "name": "Tretten",
    "state_id": 1009,
    "state_code": "34",
    "country_id": 165,
    "country_code": "NO",
    "latitude": "61.31423000",
    "longitude": "10.30066000",
    "wikiDataId": null
  },
  {
    "id": 79610,
    "name": "Trysil",
    "state_id": 1009,
    "state_code": "34",
    "country_id": 165,
    "country_code": "NO",
    "latitude": "61.31549000",
    "longitude": "12.26422000",
    "wikiDataId": null
  },
  {
    "id": 79615,
    "name": "Tynset",
    "state_id": 1009,
    "state_code": "34",
    "country_id": 165,
    "country_code": "NO",
    "latitude": "62.27387000",
    "longitude": "10.77626000",
    "wikiDataId": null
  },
  {
    "id": 79665,
    "name": "Vågå",
    "state_id": 1009,
    "state_code": "34",
    "country_id": 165,
    "country_code": "NO",
    "latitude": "61.87565000",
    "longitude": "9.09572000",
    "wikiDataId": null
  },
  {
    "id": 79666,
    "name": "Vågåmo",
    "state_id": 1009,
    "state_code": "34",
    "country_id": 165,
    "country_code": "NO",
    "latitude": "61.87505000",
    "longitude": "9.09671000",
    "wikiDataId": null
  },
  {
    "id": 79667,
    "name": "Våler",
    "state_id": 1009,
    "state_code": "34",
    "country_id": 165,
    "country_code": "NO",
    "latitude": "60.67845000",
    "longitude": "11.83314000",
    "wikiDataId": null
  },
  {
    "id": 79630,
    "name": "Vang",
    "state_id": 1009,
    "state_code": "34",
    "country_id": 165,
    "country_code": "NO",
    "latitude": "61.12564000",
    "longitude": "8.57167000",
    "wikiDataId": null
  },
  {
    "id": 79645,
    "name": "Vestre Slidre",
    "state_id": 1009,
    "state_code": "34",
    "country_id": 165,
    "country_code": "NO",
    "latitude": "61.08842000",
    "longitude": "8.98196000",
    "wikiDataId": null
  },
  {
    "id": 79646,
    "name": "Vestre Toten",
    "state_id": 1009,
    "state_code": "34",
    "country_id": 165,
    "country_code": "NO",
    "latitude": "60.72593000",
    "longitude": "10.60764000",
    "wikiDataId": null
  },
  {
    "id": 79659,
    "name": "Vinstra",
    "state_id": 1009,
    "state_code": "34",
    "country_id": 165,
    "country_code": "NO",
    "latitude": "61.59496000",
    "longitude": "9.75134000",
    "wikiDataId": null
  }
]