[
  {
    "id": 48171,
    "name": "Aberdour",
    "state_id": 2428,
    "state_code": "EDH",
    "country_id": 232,
    "country_code": "GB",
    "latitude": "56.05417000",
    "longitude": "-3.30058000",
    "wikiDataId": null
  },
  {
    "id": 48348,
    "name": "Ballingry",
    "state_id": 2428,
    "state_code": "EDH",
    "country_id": 232,
    "country_code": "GB",
    "latitude": "56.16392000",
    "longitude": "-3.32841000",
    "wikiDataId": null
  },
  {
    "id": 48780,
    "name": "Burntisland",
    "state_id": 2428,
    "state_code": "EDH",
    "country_id": 232,
    "country_code": "GB",
    "latitude": "56.06248000",
    "longitude": "-3.23176000",
    "wikiDataId": null
  },
  {
    "id": 48853,
    "name": "Cardenden",
    "state_id": 2428,
    "state_code": "EDH",
    "country_id": 232,
    "country_code": "GB",
    "latitude": "56.14310000",
    "longitude": "-3.25687000",
    "wikiDataId": null
  },
  {
    "id": 49008,
    "name": "City of Edinburgh",
    "state_id": 2428,
    "state_code": "EDH",
    "country_id": 232,
    "country_code": "GB",
    "latitude": "55.94973000",
    "longitude": "-3.19333000",
    "wikiDataId": null
  },
  {
    "id": 49051,
    "name": "Cockenzie",
    "state_id": 2428,
    "state_code": "EDH",
    "country_id": 232,
    "country_code": "GB",
    "latitude": "55.96823000",
    "longitude": "-2.96562000",
    "wikiDataId": null
  },
  {
    "id": 49069,
    "name": "Colinton",
    "state_id": 2428,
    "state_code": "EDH",
    "country_id": 232,
    "country_code": "GB",
    "latitude": "55.90739000",
    "longitude": "-3.25609000",
    "wikiDataId": null
  },
  {
    "id": 49130,
    "name": "Cowdenbeath",
    "state_id": 2428,
    "state_code": "EDH",
    "country_id": 232,
    "country_code": "GB",
    "latitude": "56.11194000",
    "longitude": "-3.34426000",
    "wikiDataId": null
  },
  {
    "id": 49176,
    "name": "Crossgates",
    "state_id": 2428,
    "state_code": "EDH",
    "country_id": 232,
    "country_code": "GB",
    "latitude": "56.08366000",
    "longitude": "-3.37712000",
    "wikiDataId": null
  },
  {
    "id": 49211,
    "name": "Currie",
    "state_id": 2428,
    "state_code": "EDH",
    "country_id": 232,
    "country_code": "GB",
    "latitude": "55.89640000",
    "longitude": "-3.30845000",
    "wikiDataId": null
  },
  {
    "id": 49221,
    "name": "Dalgety Bay",
    "state_id": 2428,
    "state_code": "EDH",
    "country_id": 232,
    "country_code": "GB",
    "latitude": "56.03496000",
    "longitude": "-3.35049000",
    "wikiDataId": null
  },
  {
    "id": 49231,
    "name": "Danderhall",
    "state_id": 2428,
    "state_code": "EDH",
    "country_id": 232,
    "country_code": "GB",
    "latitude": "55.91434000",
    "longitude": "-3.11062000",
    "wikiDataId": null
  },
  {
    "id": 49441,
    "name": "Edinburgh",
    "state_id": 2428,
    "state_code": "EDH",
    "country_id": 232,
    "country_code": "GB",
    "latitude": "55.95206000",
    "longitude": "-3.19648000",
    "wikiDataId": null
  },
  {
    "id": 50163,
    "name": "Kinghorn",
    "state_id": 2428,
    "state_code": "EDH",
    "country_id": 232,
    "country_code": "GB",
    "latitude": "56.06896000",
    "longitude": "-3.17607000",
    "wikiDataId": null
  },
  {
    "id": 50202,
    "name": "Kirkcaldy",
    "state_id": 2428,
    "state_code": "EDH",
    "country_id": 232,
    "country_code": "GB",
    "latitude": "56.11683000",
    "longitude": "-3.15999000",
    "wikiDataId": null
  },
  {
    "id": 50377,
    "name": "Lochgelly",
    "state_id": 2428,
    "state_code": "EDH",
    "country_id": 232,
    "country_code": "GB",
    "latitude": "56.12826000",
    "longitude": "-3.30964000",
    "wikiDataId": null
  },
  {
    "id": 50655,
    "name": "Musselburgh",
    "state_id": 2428,
    "state_code": "EDH",
    "country_id": 232,
    "country_code": "GB",
    "latitude": "55.94170000",
    "longitude": "-3.04991000",
    "wikiDataId": null
  },
  {
    "id": 50988,
    "name": "Prestonpans",
    "state_id": 2428,
    "state_code": "EDH",
    "country_id": 232,
    "country_code": "GB",
    "latitude": "55.95939000",
    "longitude": "-2.98038000",
    "wikiDataId": null
  },
  {
    "id": 51871,
    "name": "Whitecraig",
    "state_id": 2428,
    "state_code": "EDH",
    "country_id": 232,
    "country_code": "GB",
    "latitude": "55.91937000",
    "longitude": "-3.04231000",
    "wikiDataId": null
  }
]