[
  {
    "id": 49065,
    "name": "Coldstream",
    "state_id": 2346,
    "state_code": "SCB",
    "country_id": 232,
    "country_code": "GB",
    "latitude": "55.65111000",
    "longitude": "-2.25295000",
    "wikiDataId": null
  },
  {
    "id": 49381,
    "name": "Earlston",
    "state_id": 2346,
    "state_code": "SCB",
    "country_id": 232,
    "country_code": "GB",
    "latitude": "55.63856000",
    "longitude": "-2.67495000",
    "wikiDataId": null
  },
  {
    "id": 49622,
    "name": "Galashiels",
    "state_id": 2346,
    "state_code": "SCB",
    "country_id": 232,
    "country_code": "GB",
    "latitude": "55.61458000",
    "longitude": "-2.80695000",
    "wikiDataId": null
  },
  {
    "id": 49851,
    "name": "Hawick",
    "state_id": 2346,
    "state_code": "SCB",
    "country_id": 232,
    "country_code": "GB",
    "latitude": "55.42273000",
    "longitude": "-2.78666000",
    "wikiDataId": null
  },
  {
    "id": 50056,
    "name": "Innerleithen",
    "state_id": 2346,
    "state_code": "SCB",
    "country_id": 232,
    "country_code": "GB",
    "latitude": "55.61927000",
    "longitude": "-3.06301000",
    "wikiDataId": null
  },
  {
    "id": 50094,
    "name": "Jedburgh",
    "state_id": 2346,
    "state_code": "SCB",
    "country_id": 232,
    "country_code": "GB",
    "latitude": "55.47997000",
    "longitude": "-2.55200000",
    "wikiDataId": null
  },
  {
    "id": 50109,
    "name": "Kelso",
    "state_id": 2346,
    "state_code": "SCB",
    "country_id": 232,
    "country_code": "GB",
    "latitude": "55.59814000",
    "longitude": "-2.43382000",
    "wikiDataId": null
  },
  {
    "id": 50243,
    "name": "Langholm",
    "state_id": 2346,
    "state_code": "SCB",
    "country_id": 232,
    "country_code": "GB",
    "latitude": "55.15101000",
    "longitude": "-2.99889000",
    "wikiDataId": null
  },
  {
    "id": 50255,
    "name": "Lauder",
    "state_id": 2346,
    "state_code": "SCB",
    "country_id": 232,
    "country_code": "GB",
    "latitude": "55.71908000",
    "longitude": "-2.74755000",
    "wikiDataId": null
  },
  {
    "id": 50530,
    "name": "Maxwellheugh",
    "state_id": 2346,
    "state_code": "SCB",
    "country_id": 232,
    "country_code": "GB",
    "latitude": "55.59253000",
    "longitude": "-2.42871000",
    "wikiDataId": null
  },
  {
    "id": 50541,
    "name": "Melrose",
    "state_id": 2346,
    "state_code": "SCB",
    "country_id": 232,
    "country_code": "GB",
    "latitude": "55.59969000",
    "longitude": "-2.72770000",
    "wikiDataId": null
  },
  {
    "id": 50738,
    "name": "Newtown St Boswells",
    "state_id": 2346,
    "state_code": "SCB",
    "country_id": 232,
    "country_code": "GB",
    "latitude": "55.57887000",
    "longitude": "-2.66874000",
    "wikiDataId": null
  },
  {
    "id": 51166,
    "name": "Saint Boswells",
    "state_id": 2346,
    "state_code": "SCB",
    "country_id": 232,
    "country_code": "GB",
    "latitude": "55.57301000",
    "longitude": "-2.64410000",
    "wikiDataId": null
  },
  {
    "id": 51235,
    "name": "Selkirk",
    "state_id": 2346,
    "state_code": "SCB",
    "country_id": 232,
    "country_code": "GB",
    "latitude": "55.54738000",
    "longitude": "-2.83911000",
    "wikiDataId": null
  },
  {
    "id": 51589,
    "name": "The Scottish Borders",
    "state_id": 2346,
    "state_code": "SCB",
    "country_id": 232,
    "country_code": "GB",
    "latitude": "55.58333000",
    "longitude": "-2.83333000",
    "wikiDataId": null
  },
  {
    "id": 51682,
    "name": "Tweedbank",
    "state_id": 2346,
    "state_code": "SCB",
    "country_id": 232,
    "country_code": "GB",
    "latitude": "55.60449000",
    "longitude": "-2.76692000",
    "wikiDataId": null
  }
]