[
  {
    "id": 85783,
    "name": "Alwernia",
    "state_id": 1635,
    "state_code": "12",
    "country_id": 176,
    "country_code": "PL",
    "latitude": "50.06056000",
    "longitude": "19.53953000",
    "wikiDataId": null
  },
  {
    "id": 85785,
    "name": "Andrychów",
    "state_id": 1635,
    "state_code": "12",
    "country_id": 176,
    "country_code": "PL",
    "latitude": "49.85497000",
    "longitude": "19.33834000",
    "wikiDataId": null
  },
  {
    "id": 85790,
    "name": "Babice",
    "state_id": 1635,
    "state_code": "12",
    "country_id": 176,
    "country_code": "PL",
    "latitude": "50.05565000",
    "longitude": "19.19955000",
    "wikiDataId": null
  },
  {
    "id": 85794,
    "name": "Bachowice",
    "state_id": 1635,
    "state_code": "12",
    "country_id": 176,
    "country_code": "PL",
    "latitude": "49.95812000",
    "longitude": "19.49369000",
    "wikiDataId": null
  },
  {
    "id": 85795,
    "name": "Balice",
    "state_id": 1635,
    "state_code": "12",
    "country_id": 176,
    "country_code": "PL",
    "latitude": "50.08799000",
    "longitude": "19.79462000",
    "wikiDataId": null
  },
  {
    "id": 85797,
    "name": "Balin",
    "state_id": 1635,
    "state_code": "12",
    "country_id": 176,
    "country_code": "PL",
    "latitude": "50.16799000",
    "longitude": "19.38340000",
    "wikiDataId": null
  },
  {
    "id": 85815,
    "name": "Barwałd Górny",
    "state_id": 1635,
    "state_code": "12",
    "country_id": 176,
    "country_code": "PL",
    "latitude": "49.86211000",
    "longitude": "19.61746000",
    "wikiDataId": null
  },
  {
    "id": 85816,
    "name": "Barwałd Średni",
    "state_id": 1635,
    "state_code": "12",
    "country_id": 176,
    "country_code": "PL",
    "latitude": "49.86632000",
    "longitude": "19.59360000",
    "wikiDataId": null
  },
  {
    "id": 86010,
    "name": "Bębło",
    "state_id": 1635,
    "state_code": "12",
    "country_id": 176,
    "country_code": "PL",
    "latitude": "50.18053000",
    "longitude": "19.78741000",
    "wikiDataId": null
  },
  {
    "id": 86011,
    "name": "Bęczarka",
    "state_id": 1635,
    "state_code": "12",
    "country_id": 176,
    "country_code": "PL",
    "latitude": "49.87793000",
    "longitude": "19.86723000",
    "wikiDataId": null
  },
  {
    "id": 85840,
    "name": "Białka",
    "state_id": 1635,
    "state_code": "12",
    "country_id": 176,
    "country_code": "PL",
    "latitude": "49.69306000",
    "longitude": "19.67033000",
    "wikiDataId": null
  },
  {
    "id": 85841,
    "name": "Białka Tatrzańska",
    "state_id": 1635,
    "state_code": "12",
    "country_id": 176,
    "country_code": "PL",
    "latitude": "49.38975000",
    "longitude": "20.10507000",
    "wikiDataId": null
  },
  {
    "id": 85849,
    "name": "Biały Dunajec",
    "state_id": 1635,
    "state_code": "12",
    "country_id": 176,
    "country_code": "PL",
    "latitude": "49.37380000",
    "longitude": "20.00898000",
    "wikiDataId": null
  },
  {
    "id": 85851,
    "name": "Biecz",
    "state_id": 1635,
    "state_code": "12",
    "country_id": 176,
    "country_code": "PL",
    "latitude": "49.73596000",
    "longitude": "21.26301000",
    "wikiDataId": null
  },
  {
    "id": 85869,
    "name": "Bieńkówka",
    "state_id": 1635,
    "state_code": "12",
    "country_id": 176,
    "country_code": "PL",
    "latitude": "49.77600000",
    "longitude": "19.77179000",
    "wikiDataId": null
  },
  {
    "id": 85871,
    "name": "Binarowa",
    "state_id": 1635,
    "state_code": "12",
    "country_id": 176,
    "country_code": "PL",
    "latitude": "49.75621000",
    "longitude": "21.22816000",
    "wikiDataId": null
  },
  {
    "id": 85873,
    "name": "Biskupice Radłowskie",
    "state_id": 1635,
    "state_code": "12",
    "country_id": 176,
    "country_code": "PL",
    "latitude": "50.12069000",
    "longitude": "20.85943000",
    "wikiDataId": null
  },
  {
    "id": 85885,
    "name": "Bobowa",
    "state_id": 1635,
    "state_code": "12",
    "country_id": 176,
    "country_code": "PL",
    "latitude": "49.70866000",
    "longitude": "20.94767000",
    "wikiDataId": null
  },
  {
    "id": 85892,
    "name": "Bochnia",
    "state_id": 1635,
    "state_code": "12",
    "country_id": 176,
    "country_code": "PL",
    "latitude": "49.96905000",
    "longitude": "20.43028000",
    "wikiDataId": null
  },
  {
    "id": 85908,
    "name": "Bolechowice",
    "state_id": 1635,
    "state_code": "12",
    "country_id": 176,
    "country_code": "PL",
    "latitude": "50.14831000",
    "longitude": "19.79273000",
    "wikiDataId": null
  },
  {
    "id": 85916,
    "name": "Bolęcin",
    "state_id": 1635,
    "state_code": "12",
    "country_id": 176,
    "country_code": "PL",
    "latitude": "50.11750000",
    "longitude": "19.48116000",
    "wikiDataId": null
  },
  {
    "id": 85910,
    "name": "Bolesław",
    "state_id": 1635,
    "state_code": "12",
    "country_id": 176,
    "country_code": "PL",
    "latitude": "50.29729000",
    "longitude": "19.48073000",
    "wikiDataId": null
  },
  {
    "id": 85918,
    "name": "Borek",
    "state_id": 1635,
    "state_code": "12",
    "country_id": 176,
    "country_code": "PL",
    "latitude": "50.01778000",
    "longitude": "20.53087000",
    "wikiDataId": null
  },
  {
    "id": 85930,
    "name": "Borzęcin",
    "state_id": 1635,
    "state_code": "12",
    "country_id": 176,
    "country_code": "PL",
    "latitude": "50.06540000",
    "longitude": "20.71103000",
    "wikiDataId": null
  },
  {
    "id": 85931,
    "name": "Borzęta",
    "state_id": 1635,
    "state_code": "12",
    "country_id": 176,
    "country_code": "PL",
    "latitude": "49.86228000",
    "longitude": "19.97924000",
    "wikiDataId": null
  },
  {
    "id": 85949,
    "name": "Brodła",
    "state_id": 1635,
    "state_code": "12",
    "country_id": 176,
    "country_code": "PL",
    "latitude": "50.04331000",
    "longitude": "19.58879000",
    "wikiDataId": null
  },
  {
    "id": 85946,
    "name": "Brody",
    "state_id": 1635,
    "state_code": "12",
    "country_id": 176,
    "country_code": "PL",
    "latitude": "49.86742000",
    "longitude": "19.69746000",
    "wikiDataId": null
  },
  {
    "id": 85977,
    "name": "Brzączowice",
    "state_id": 1635,
    "state_code": "12",
    "country_id": 176,
    "country_code": "PL",
    "latitude": "49.87478000",
    "longitude": "20.03709000",
    "wikiDataId": null
  },
  {
    "id": 85960,
    "name": "Brzesko",
    "state_id": 1635,
    "state_code": "12",
    "country_id": 176,
    "country_code": "PL",
    "latitude": "49.96911000",
    "longitude": "20.60606000",
    "wikiDataId": null
  },
  {
    "id": 85961,
    "name": "Brzeszcze",
    "state_id": 1635,
    "state_code": "12",
    "country_id": 176,
    "country_code": "PL",
    "latitude": "49.98203000",
    "longitude": "19.15157000",
    "wikiDataId": null
  },
  {
    "id": 85962,
    "name": "Brzezinka",
    "state_id": 1635,
    "state_code": "12",
    "country_id": 176,
    "country_code": "PL",
    "latitude": "50.04237000",
    "longitude": "19.19020000",
    "wikiDataId": null
  },
  {
    "id": 85968,
    "name": "Brzeźnica",
    "state_id": 1635,
    "state_code": "12",
    "country_id": 176,
    "country_code": "PL",
    "latitude": "49.96497000",
    "longitude": "19.61952000",
    "wikiDataId": null
  },
  {
    "id": 85986,
    "name": "Budzów",
    "state_id": 1635,
    "state_code": "12",
    "country_id": 176,
    "country_code": "PL",
    "latitude": "49.77622000",
    "longitude": "19.67274000",
    "wikiDataId": null
  },
  {
    "id": 85990,
    "name": "Bukowina Tatrzańska",
    "state_id": 1635,
    "state_code": "12",
    "country_id": 176,
    "country_code": "PL",
    "latitude": "49.34302000",
    "longitude": "20.10807000",
    "wikiDataId": null
  },
  {
    "id": 85991,
    "name": "Bukowno",
    "state_id": 1635,
    "state_code": "12",
    "country_id": 176,
    "country_code": "PL",
    "latitude": "50.26474000",
    "longitude": "19.45962000",
    "wikiDataId": null
  },
  {
    "id": 85994,
    "name": "Bulowice",
    "state_id": 1635,
    "state_code": "12",
    "country_id": 176,
    "country_code": "PL",
    "latitude": "49.87650000",
    "longitude": "19.28873000",
    "wikiDataId": null
  },
  {
    "id": 86000,
    "name": "Bystra",
    "state_id": 1635,
    "state_code": "12",
    "country_id": 176,
    "country_code": "PL",
    "latitude": "49.64796000",
    "longitude": "19.77994000",
    "wikiDataId": null
  },
  {
    "id": 86029,
    "name": "Chełmek",
    "state_id": 1635,
    "state_code": "12",
    "country_id": 176,
    "country_code": "PL",
    "latitude": "50.10163000",
    "longitude": "19.24801000",
    "wikiDataId": null
  },
  {
    "id": 86030,
    "name": "Chełmiec",
    "state_id": 1635,
    "state_code": "12",
    "country_id": 176,
    "country_code": "PL",
    "latitude": "49.63051000",
    "longitude": "20.66425000",
    "wikiDataId": null
  },
  {
    "id": 86043,
    "name": "Chocznia",
    "state_id": 1635,
    "state_code": "12",
    "country_id": 176,
    "country_code": "PL",
    "latitude": "49.87417000",
    "longitude": "19.45438000",
    "wikiDataId": null
  },
  {
    "id": 86062,
    "name": "Chrzanów",
    "state_id": 1635,
    "state_code": "12",
    "country_id": 176,
    "country_code": "PL",
    "latitude": "50.13546000",
    "longitude": "19.40203000",
    "wikiDataId": null
  },
  {
    "id": 86071,
    "name": "Chyżne",
    "state_id": 1635,
    "state_code": "12",
    "country_id": 176,
    "country_code": "PL",
    "latitude": "49.42672000",
    "longitude": "19.66956000",
    "wikiDataId": null
  },
  {
    "id": 86094,
    "name": "Ciężkowice",
    "state_id": 1635,
    "state_code": "12",
    "country_id": 176,
    "country_code": "PL",
    "latitude": "49.78575000",
    "longitude": "20.97324000",
    "wikiDataId": null
  },
  {
    "id": 86107,
    "name": "Czarna Góra",
    "state_id": 1635,
    "state_code": "12",
    "country_id": 176,
    "country_code": "PL",
    "latitude": "49.37662000",
    "longitude": "20.13047000",
    "wikiDataId": null
  },
  {
    "id": 86112,
    "name": "Czarnochowice",
    "state_id": 1635,
    "state_code": "12",
    "country_id": 176,
    "country_code": "PL",
    "latitude": "50.00471000",
    "longitude": "20.06790000",
    "wikiDataId": null
  },
  {
    "id": 86118,
    "name": "Czarny Dunajec",
    "state_id": 1635,
    "state_code": "12",
    "country_id": 176,
    "country_code": "PL",
    "latitude": "49.43663000",
    "longitude": "19.85161000",
    "wikiDataId": null
  },
  {
    "id": 86121,
    "name": "Czchów",
    "state_id": 1635,
    "state_code": "12",
    "country_id": 176,
    "country_code": "PL",
    "latitude": "49.83726000",
    "longitude": "20.68056000",
    "wikiDataId": null
  },
  {
    "id": 86133,
    "name": "Czernichów",
    "state_id": 1635,
    "state_code": "12",
    "country_id": 176,
    "country_code": "PL",
    "latitude": "49.98920000",
    "longitude": "19.68115000",
    "wikiDataId": null
  },
  {
    "id": 86147,
    "name": "Czułów",
    "state_id": 1635,
    "state_code": "12",
    "country_id": 176,
    "country_code": "PL",
    "latitude": "50.05956000",
    "longitude": "19.70106000",
    "wikiDataId": null
  },
  {
    "id": 86241,
    "name": "Dąbrowa Tarnowska",
    "state_id": 1635,
    "state_code": "12",
    "country_id": 176,
    "country_code": "PL",
    "latitude": "50.17462000",
    "longitude": "20.98633000",
    "wikiDataId": null
  },
  {
    "id": 86251,
    "name": "Dębno",
    "state_id": 1635,
    "state_code": "12",
    "country_id": 176,
    "country_code": "PL",
    "latitude": "49.96701000",
    "longitude": "20.71979000",
    "wikiDataId": null
  },
  {
    "id": 86164,
    "name": "Dobczyce",
    "state_id": 1635,
    "state_code": "12",
    "country_id": 176,
    "country_code": "PL",
    "latitude": "49.88109000",
    "longitude": "20.08936000",
    "wikiDataId": null
  },
  {
    "id": 86167,
    "name": "Dobra",
    "state_id": 1635,
    "state_code": "12",
    "country_id": 176,
    "country_code": "PL",
    "latitude": "49.71793000",
    "longitude": "20.25347000",
    "wikiDataId": null
  },
  {
    "id": 86226,
    "name": "Dziewin",
    "state_id": 1635,
    "state_code": "12",
    "country_id": 176,
    "country_code": "PL",
    "latitude": "50.07554000",
    "longitude": "20.45491000",
    "wikiDataId": null
  },
  {
    "id": 86269,
    "name": "Filipowice",
    "state_id": 1635,
    "state_code": "12",
    "country_id": 176,
    "country_code": "PL",
    "latitude": "50.15573000",
    "longitude": "19.56579000",
    "wikiDataId": null
  },
  {
    "id": 86277,
    "name": "Frydman",
    "state_id": 1635,
    "state_code": "12",
    "country_id": 176,
    "country_code": "PL",
    "latitude": "49.44927000",
    "longitude": "20.22961000",
    "wikiDataId": null
  },
  {
    "id": 86278,
    "name": "Frydrychowice",
    "state_id": 1635,
    "state_code": "12",
    "country_id": 176,
    "country_code": "PL",
    "latitude": "49.90481000",
    "longitude": "19.41936000",
    "wikiDataId": null
  },
  {
    "id": 86293,
    "name": "Gdów",
    "state_id": 1635,
    "state_code": "12",
    "country_id": 176,
    "country_code": "PL",
    "latitude": "49.90818000",
    "longitude": "20.19879000",
    "wikiDataId": null
  },
  {
    "id": 86295,
    "name": "Giebułtów",
    "state_id": 1635,
    "state_code": "12",
    "country_id": 176,
    "country_code": "PL",
    "latitude": "50.14556000",
    "longitude": "19.87856000",
    "wikiDataId": null
  },
  {
    "id": 86298,
    "name": "Gierałtowice",
    "state_id": 1635,
    "state_code": "12",
    "country_id": 176,
    "country_code": "PL",
    "latitude": "49.94426000",
    "longitude": "19.39070000",
    "wikiDataId": null
  },
  {
    "id": 86426,
    "name": "Głogoczów",
    "state_id": 1635,
    "state_code": "12",
    "country_id": 176,
    "country_code": "PL",
    "latitude": "49.89452000",
    "longitude": "19.87410000",
    "wikiDataId": null
  },
  {
    "id": 86315,
    "name": "Gnojnik",
    "state_id": 1635,
    "state_code": "12",
    "country_id": 176,
    "country_code": "PL",
    "latitude": "49.89397000",
    "longitude": "20.60863000",
    "wikiDataId": null
  },
  {
    "id": 86333,
    "name": "Gorenice",
    "state_id": 1635,
    "state_code": "12",
    "country_id": 176,
    "country_code": "PL",
    "latitude": "50.20800000",
    "longitude": "19.62038000",
    "wikiDataId": null
  },
  {
    "id": 86334,
    "name": "Gorlice",
    "state_id": 1635,
    "state_code": "12",
    "country_id": 176,
    "country_code": "PL",
    "latitude": "49.65563000",
    "longitude": "21.16035000",
    "wikiDataId": null
  },
  {
    "id": 86402,
    "name": "Gręboszów",
    "state_id": 1635,
    "state_code": "12",
    "country_id": 176,
    "country_code": "PL",
    "latitude": "50.24501000",
    "longitude": "20.77669000",
    "wikiDataId": null
  },
  {
    "id": 86379,
    "name": "Grojec",
    "state_id": 1635,
    "state_code": "12",
    "country_id": 176,
    "country_code": "PL",
    "latitude": "49.98147000",
    "longitude": "19.23792000",
    "wikiDataId": null
  },
  {
    "id": 86381,
    "name": "Gromnik",
    "state_id": 1635,
    "state_code": "12",
    "country_id": 176,
    "country_code": "PL",
    "latitude": "49.83843000",
    "longitude": "20.96123000",
    "wikiDataId": null
  },
  {
    "id": 86387,
    "name": "Gruszów Wielki",
    "state_id": 1635,
    "state_code": "12",
    "country_id": 176,
    "country_code": "PL",
    "latitude": "50.19163000",
    "longitude": "21.03144000",
    "wikiDataId": null
  },
  {
    "id": 86389,
    "name": "Grybów",
    "state_id": 1635,
    "state_code": "12",
    "country_id": 176,
    "country_code": "PL",
    "latitude": "49.62439000",
    "longitude": "20.94797000",
    "wikiDataId": null
  },
  {
    "id": 86393,
    "name": "Grzechynia",
    "state_id": 1635,
    "state_code": "12",
    "country_id": 176,
    "country_code": "PL",
    "latitude": "49.71360000",
    "longitude": "19.64561000",
    "wikiDataId": null
  },
  {
    "id": 86443,
    "name": "Harbutowice",
    "state_id": 1635,
    "state_code": "12",
    "country_id": 176,
    "country_code": "PL",
    "latitude": "49.81235000",
    "longitude": "19.78045000",
    "wikiDataId": null
  },
  {
    "id": 86461,
    "name": "Inwałd",
    "state_id": 1635,
    "state_code": "12",
    "country_id": 176,
    "country_code": "PL",
    "latitude": "49.86355000",
    "longitude": "19.39276000",
    "wikiDataId": null
  },
  {
    "id": 86465,
    "name": "Iwkowa",
    "state_id": 1635,
    "state_code": "12",
    "country_id": 176,
    "country_code": "PL",
    "latitude": "49.81716000",
    "longitude": "20.59018000",
    "wikiDataId": null
  },
  {
    "id": 86471,
    "name": "Izdebnik",
    "state_id": 1635,
    "state_code": "12",
    "country_id": 176,
    "country_code": "PL",
    "latitude": "49.87218000",
    "longitude": "19.76801000",
    "wikiDataId": null
  },
  {
    "id": 86480,
    "name": "Jabłonka",
    "state_id": 1635,
    "state_code": "12",
    "country_id": 176,
    "country_code": "PL",
    "latitude": "49.47968000",
    "longitude": "19.69370000",
    "wikiDataId": null
  },
  {
    "id": 86487,
    "name": "Jadowniki",
    "state_id": 1635,
    "state_code": "12",
    "country_id": 176,
    "country_code": "PL",
    "latitude": "49.95884000",
    "longitude": "20.64434000",
    "wikiDataId": null
  },
  {
    "id": 86488,
    "name": "Jadowniki Mokre",
    "state_id": 1635,
    "state_code": "12",
    "country_id": 176,
    "country_code": "PL",
    "latitude": "50.16546000",
    "longitude": "20.72845000",
    "wikiDataId": null
  },
  {
    "id": 86497,
    "name": "Janowice",
    "state_id": 1635,
    "state_code": "12",
    "country_id": 176,
    "country_code": "PL",
    "latitude": "49.89154000",
    "longitude": "20.86081000",
    "wikiDataId": null
  },
  {
    "id": 86510,
    "name": "Jaroszowice",
    "state_id": 1635,
    "state_code": "12",
    "country_id": 176,
    "country_code": "PL",
    "latitude": "49.86267000",
    "longitude": "19.51962000",
    "wikiDataId": null
  },
  {
    "id": 86517,
    "name": "Jasień",
    "state_id": 1635,
    "state_code": "12",
    "country_id": 176,
    "country_code": "PL",
    "latitude": "49.96988000",
    "longitude": "20.57190000",
    "wikiDataId": null
  },
  {
    "id": 86513,
    "name": "Jasienica",
    "state_id": 1635,
    "state_code": "12",
    "country_id": 176,
    "country_code": "PL",
    "latitude": "49.82281000",
    "longitude": "19.84191000",
    "wikiDataId": null
  },
  {
    "id": 86526,
    "name": "Jastrzębia",
    "state_id": 1635,
    "state_code": "12",
    "country_id": 176,
    "country_code": "PL",
    "latitude": "49.79733000",
    "longitude": "20.88089000",
    "wikiDataId": null
  },
  {
    "id": 86533,
    "name": "Jawornik",
    "state_id": 1635,
    "state_code": "12",
    "country_id": 176,
    "country_code": "PL",
    "latitude": "49.85580000",
    "longitude": "19.89315000",
    "wikiDataId": null
  },
  {
    "id": 86554,
    "name": "Jerzmanowice",
    "state_id": 1635,
    "state_code": "12",
    "country_id": 176,
    "country_code": "PL",
    "latitude": "50.21267000",
    "longitude": "19.74672000",
    "wikiDataId": null
  },
  {
    "id": 86564,
    "name": "Jodłówka",
    "state_id": 1635,
    "state_code": "12",
    "country_id": 176,
    "country_code": "PL",
    "latitude": "49.99295000",
    "longitude": "20.54821000",
    "wikiDataId": null
  },
  {
    "id": 86565,
    "name": "Jodłówka-Wałki",
    "state_id": 1635,
    "state_code": "12",
    "country_id": 176,
    "country_code": "PL",
    "latitude": "50.04992000",
    "longitude": "21.13332000",
    "wikiDataId": null
  },
  {
    "id": 86568,
    "name": "Jordanów",
    "state_id": 1635,
    "state_code": "12",
    "country_id": 176,
    "country_code": "PL",
    "latitude": "49.64935000",
    "longitude": "19.82981000",
    "wikiDataId": null
  },
  {
    "id": 86571,
    "name": "Juszczyn",
    "state_id": 1635,
    "state_code": "12",
    "country_id": 176,
    "country_code": "PL",
    "latitude": "49.69290000",
    "longitude": "19.69128000",
    "wikiDataId": null
  },
  {
    "id": 86588,
    "name": "Kalwaria Zebrzydowska",
    "state_id": 1635,
    "state_code": "12",
    "country_id": 176,
    "country_code": "PL",
    "latitude": "49.86759000",
    "longitude": "19.67720000",
    "wikiDataId": null
  },
  {
    "id": 86599,
    "name": "Kamień",
    "state_id": 1635,
    "state_code": "12",
    "country_id": 176,
    "country_code": "PL",
    "latitude": "50.01215000",
    "longitude": "19.58536000",
    "wikiDataId": null
  },
  {
    "id": 86590,
    "name": "Kamienica",
    "state_id": 1635,
    "state_code": "12",
    "country_id": 176,
    "country_code": "PL",
    "latitude": "49.57533000",
    "longitude": "20.34505000",
    "wikiDataId": null
  },
  {
    "id": 86604,
    "name": "Kamionka Wielka",
    "state_id": 1635,
    "state_code": "12",
    "country_id": 176,
    "country_code": "PL",
    "latitude": "49.56848000",
    "longitude": "20.82364000",
    "wikiDataId": null
  },
  {
    "id": 86619,
    "name": "Kasina Wielka",
    "state_id": 1635,
    "state_code": "12",
    "country_id": 176,
    "country_code": "PL",
    "latitude": "49.72969000",
    "longitude": "20.13554000",
    "wikiDataId": null
  },
  {
    "id": 86620,
    "name": "Kaszów",
    "state_id": 1635,
    "state_code": "12",
    "country_id": 176,
    "country_code": "PL",
    "latitude": "50.03884000",
    "longitude": "19.71934000",
    "wikiDataId": null
  },
  {
    "id": 86859,
    "name": "Kęty",
    "state_id": 1635,
    "state_code": "12",
    "country_id": 176,
    "country_code": "PL",
    "latitude": "49.88214000",
    "longitude": "19.22333000",
    "wikiDataId": null
  },
  {
    "id": 86642,
    "name": "Klecza Dolna",
    "state_id": 1635,
    "state_code": "12",
    "country_id": 176,
    "country_code": "PL",
    "latitude": "49.88291000",
    "longitude": "19.53764000",
    "wikiDataId": null
  },
  {
    "id": 86649,
    "name": "Klikuszowa",
    "state_id": 1635,
    "state_code": "12",
    "country_id": 176,
    "country_code": "PL",
    "latitude": "49.51930000",
    "longitude": "19.98490000",
    "wikiDataId": null
  },
  {
    "id": 86651,
    "name": "Klimontów",
    "state_id": 1635,
    "state_code": "12",
    "country_id": 176,
    "country_code": "PL",
    "latitude": "50.22843000",
    "longitude": "20.31990000",
    "wikiDataId": null
  },
  {
    "id": 86654,
    "name": "Klucze",
    "state_id": 1635,
    "state_code": "12",
    "country_id": 176,
    "country_code": "PL",
    "latitude": "50.33565000",
    "longitude": "19.56236000",
    "wikiDataId": null
  },
  {
    "id": 86656,
    "name": "Kluszkowce",
    "state_id": 1635,
    "state_code": "12",
    "country_id": 176,
    "country_code": "PL",
    "latitude": "49.45100000",
    "longitude": "20.30179000",
    "wikiDataId": null
  },
  {
    "id": 86860,
    "name": "Kłaj",
    "state_id": 1635,
    "state_code": "12",
    "country_id": 176,
    "country_code": "PL",
    "latitude": "49.99246000",
    "longitude": "20.29904000",
    "wikiDataId": null
  },
  {
    "id": 86664,
    "name": "Kobylanka",
    "state_id": 1635,
    "state_code": "12",
    "country_id": 176,
    "country_code": "PL",
    "latitude": "49.66891000",
    "longitude": "21.22293000",
    "wikiDataId": null
  },
  {
    "id": 86675,
    "name": "Kokotów",
    "state_id": 1635,
    "state_code": "12",
    "country_id": 176,
    "country_code": "PL",
    "latitude": "50.01254000",
    "longitude": "20.07829000",
    "wikiDataId": null
  },
  {
    "id": 86709,
    "name": "Korzenna",
    "state_id": 1635,
    "state_code": "12",
    "country_id": 176,
    "country_code": "PL",
    "latitude": "49.68635000",
    "longitude": "20.84355000",
    "wikiDataId": null
  },
  {
    "id": 86755,
    "name": "Kościelisko",
    "state_id": 1635,
    "state_code": "12",
    "country_id": 176,
    "country_code": "PL",
    "latitude": "49.29073000",
    "longitude": "19.88929000",
    "wikiDataId": null
  },
  {
    "id": 86718,
    "name": "Koszyce",
    "state_id": 1635,
    "state_code": "12",
    "country_id": 176,
    "country_code": "PL",
    "latitude": "49.97226000",
    "longitude": "20.94166000",
    "wikiDataId": null
  },
  {
    "id": 86719,
    "name": "Koszyce Wielkie",
    "state_id": 1635,
    "state_code": "12",
    "country_id": 176,
    "country_code": "PL",
    "latitude": "49.98076000",
    "longitude": "20.94552000",
    "wikiDataId": null
  },
  {
    "id": 86739,
    "name": "Kozłów",
    "state_id": 1635,
    "state_code": "12",
    "country_id": 176,
    "country_code": "PL",
    "latitude": "50.48394000",
    "longitude": "20.02456000",
    "wikiDataId": null
  },
  {
    "id": 86763,
    "name": "Kraków",
    "state_id": 1635,
    "state_code": "12",
    "country_id": 176,
    "country_code": "PL",
    "latitude": "50.07262000",
    "longitude": "19.93250000",
    "wikiDataId": null
  },
  {
    "id": 86787,
    "name": "Krościenko nad Dunajcem",
    "state_id": 1635,
    "state_code": "12",
    "country_id": 176,
    "country_code": "PL",
    "latitude": "49.44081000",
    "longitude": "20.42624000",
    "wikiDataId": null
  },
  {
    "id": 86788,
    "name": "Krośnica",
    "state_id": 1635,
    "state_code": "12",
    "country_id": 176,
    "country_code": "PL",
    "latitude": "49.44787000",
    "longitude": "20.33956000",
    "wikiDataId": null
  },
  {
    "id": 86795,
    "name": "Krynica-Zdrój",
    "state_id": 1635,
    "state_code": "12",
    "country_id": 176,
    "country_code": "PL",
    "latitude": "49.42225000",
    "longitude": "20.95942000",
    "wikiDataId": null
  },
  {
    "id": 86799,
    "name": "Kryspinów",
    "state_id": 1635,
    "state_code": "12",
    "country_id": 176,
    "country_code": "PL",
    "latitude": "50.04380000",
    "longitude": "19.79822000",
    "wikiDataId": null
  },
  {
    "id": 86801,
    "name": "Krzczonów",
    "state_id": 1635,
    "state_code": "12",
    "country_id": 176,
    "country_code": "PL",
    "latitude": "49.73813000",
    "longitude": "19.91821000",
    "wikiDataId": null
  },
  {
    "id": 86827,
    "name": "Krzęcin",
    "state_id": 1635,
    "state_code": "12",
    "country_id": 176,
    "country_code": "PL",
    "latitude": "49.94316000",
    "longitude": "19.74157000",
    "wikiDataId": null
  },
  {
    "id": 86804,
    "name": "Krzeczów",
    "state_id": 1635,
    "state_code": "12",
    "country_id": 176,
    "country_code": "PL",
    "latitude": "49.98876000",
    "longitude": "20.48779000",
    "wikiDataId": null
  },
  {
    "id": 86812,
    "name": "Krzeszów",
    "state_id": 1635,
    "state_code": "12",
    "country_id": 176,
    "country_code": "PL",
    "latitude": "49.75915000",
    "longitude": "19.48915000",
    "wikiDataId": null
  },
  {
    "id": 86808,
    "name": "Krzeszowice",
    "state_id": 1635,
    "state_code": "12",
    "country_id": 176,
    "country_code": "PL",
    "latitude": "50.14248000",
    "longitude": "19.63223000",
    "wikiDataId": null
  },
  {
    "id": 86816,
    "name": "Krzyszkowice",
    "state_id": 1635,
    "state_code": "12",
    "country_id": 176,
    "country_code": "PL",
    "latitude": "49.88346000",
    "longitude": "19.92285000",
    "wikiDataId": null
  },
  {
    "id": 86817,
    "name": "Krzywaczka",
    "state_id": 1635,
    "state_code": "12",
    "country_id": 176,
    "country_code": "PL",
    "latitude": "49.89353000",
    "longitude": "19.83221000",
    "wikiDataId": null
  },
  {
    "id": 86836,
    "name": "Kuków",
    "state_id": 1635,
    "state_code": "12",
    "country_id": 176,
    "country_code": "PL",
    "latitude": "49.73252000",
    "longitude": "19.48485000",
    "wikiDataId": null
  },
  {
    "id": 86848,
    "name": "Kwaczała",
    "state_id": 1635,
    "state_code": "12",
    "country_id": 176,
    "country_code": "PL",
    "latitude": "50.06408000",
    "longitude": "19.49215000",
    "wikiDataId": null
  },
  {
    "id": 86868,
    "name": "Lachowice",
    "state_id": 1635,
    "state_code": "12",
    "country_id": 176,
    "country_code": "PL",
    "latitude": "49.71555000",
    "longitude": "19.47455000",
    "wikiDataId": null
  },
  {
    "id": 86870,
    "name": "Lanckorona",
    "state_id": 1635,
    "state_code": "12",
    "country_id": 176,
    "country_code": "PL",
    "latitude": "49.84496000",
    "longitude": "19.71578000",
    "wikiDataId": null
  },
  {
    "id": 86871,
    "name": "Lasek",
    "state_id": 1635,
    "state_code": "12",
    "country_id": 176,
    "country_code": "PL",
    "latitude": "49.50883000",
    "longitude": "19.98078000",
    "wikiDataId": null
  },
  {
    "id": 86872,
    "name": "Laskowa",
    "state_id": 1635,
    "state_code": "12",
    "country_id": 176,
    "country_code": "PL",
    "latitude": "49.76147000",
    "longitude": "20.45045000",
    "wikiDataId": null
  },
  {
    "id": 86887,
    "name": "Leńcze",
    "state_id": 1635,
    "state_code": "12",
    "country_id": 176,
    "country_code": "PL",
    "latitude": "49.89895000",
    "longitude": "19.73539000",
    "wikiDataId": null
  },
  {
    "id": 86891,
    "name": "Leśnica",
    "state_id": 1635,
    "state_code": "12",
    "country_id": 176,
    "country_code": "PL",
    "latitude": "49.40092000",
    "longitude": "20.06001000",
    "wikiDataId": null
  },
  {
    "id": 86896,
    "name": "Libertów",
    "state_id": 1635,
    "state_code": "12",
    "country_id": 176,
    "country_code": "PL",
    "latitude": "49.97242000",
    "longitude": "19.89461000",
    "wikiDataId": null
  },
  {
    "id": 86897,
    "name": "Libiąż",
    "state_id": 1635,
    "state_code": "12",
    "country_id": 176,
    "country_code": "PL",
    "latitude": "50.10396000",
    "longitude": "19.31568000",
    "wikiDataId": null
  },
  {
    "id": 86902,
    "name": "Limanowa",
    "state_id": 1635,
    "state_code": "12",
    "country_id": 176,
    "country_code": "PL",
    "latitude": "49.70594000",
    "longitude": "20.42204000",
    "wikiDataId": null
  },
  {
    "id": 86908,
    "name": "Lipinki",
    "state_id": 1635,
    "state_code": "12",
    "country_id": 176,
    "country_code": "PL",
    "latitude": "49.67296000",
    "longitude": "21.29288000",
    "wikiDataId": null
  },
  {
    "id": 86913,
    "name": "Lipnica Mała",
    "state_id": 1635,
    "state_code": "12",
    "country_id": 176,
    "country_code": "PL",
    "latitude": "49.51507000",
    "longitude": "19.63497000",
    "wikiDataId": null
  },
  {
    "id": 86914,
    "name": "Lipnica Wielka",
    "state_id": 1635,
    "state_code": "12",
    "country_id": 176,
    "country_code": "PL",
    "latitude": "49.70489000",
    "longitude": "20.86844000",
    "wikiDataId": null
  },
  {
    "id": 86915,
    "name": "Lipnik",
    "state_id": 1635,
    "state_code": "12",
    "country_id": 176,
    "country_code": "PL",
    "latitude": "49.78902000",
    "longitude": "20.08455000",
    "wikiDataId": null
  },
  {
    "id": 86926,
    "name": "Lisia Góra",
    "state_id": 1635,
    "state_code": "12",
    "country_id": 176,
    "country_code": "PL",
    "latitude": "50.08039000",
    "longitude": "21.04397000",
    "wikiDataId": null
  },
  {
    "id": 86928,
    "name": "Liszki",
    "state_id": 1635,
    "state_code": "12",
    "country_id": 176,
    "country_code": "PL",
    "latitude": "50.03884000",
    "longitude": "19.76835000",
    "wikiDataId": null
  },
  {
    "id": 86942,
    "name": "Lubień",
    "state_id": 1635,
    "state_code": "12",
    "country_id": 176,
    "country_code": "PL",
    "latitude": "49.71921000",
    "longitude": "19.97847000",
    "wikiDataId": null
  },
  {
    "id": 86952,
    "name": "Lubomierz",
    "state_id": 1635,
    "state_code": "12",
    "country_id": 176,
    "country_code": "PL",
    "latitude": "49.60854000",
    "longitude": "20.20214000",
    "wikiDataId": null
  },
  {
    "id": 86965,
    "name": "Ludźmierz",
    "state_id": 1635,
    "state_code": "12",
    "country_id": 176,
    "country_code": "PL",
    "latitude": "49.46656000",
    "longitude": "19.98250000",
    "wikiDataId": null
  },
  {
    "id": 86966,
    "name": "Luszowice",
    "state_id": 1635,
    "state_code": "12",
    "country_id": 176,
    "country_code": "PL",
    "latitude": "50.17415000",
    "longitude": "19.40426000",
    "wikiDataId": null
  },
  {
    "id": 88756,
    "name": "Łabowa",
    "state_id": 1635,
    "state_code": "12",
    "country_id": 176,
    "country_code": "PL",
    "latitude": "49.52766000",
    "longitude": "20.85497000",
    "wikiDataId": null
  },
  {
    "id": 88812,
    "name": "Łącko",
    "state_id": 1635,
    "state_code": "12",
    "country_id": 176,
    "country_code": "PL",
    "latitude": "49.55757000",
    "longitude": "20.43586000",
    "wikiDataId": null
  },
  {
    "id": 88813,
    "name": "Łączany",
    "state_id": 1635,
    "state_code": "12",
    "country_id": 176,
    "country_code": "PL",
    "latitude": "49.98407000",
    "longitude": "19.57867000",
    "wikiDataId": null
  },
  {
    "id": 88765,
    "name": "Łapanów",
    "state_id": 1635,
    "state_code": "12",
    "country_id": 176,
    "country_code": "PL",
    "latitude": "49.86538000",
    "longitude": "20.29149000",
    "wikiDataId": null
  },
  {
    "id": 88766,
    "name": "Łapczyca",
    "state_id": 1635,
    "state_code": "12",
    "country_id": 176,
    "country_code": "PL",
    "latitude": "49.95994000",
    "longitude": "20.38445000",
    "wikiDataId": null
  },
  {
    "id": 88767,
    "name": "Łapsze Niżne",
    "state_id": 1635,
    "state_code": "12",
    "country_id": 176,
    "country_code": "PL",
    "latitude": "49.39807000",
    "longitude": "20.24343000",
    "wikiDataId": null
  },
  {
    "id": 88828,
    "name": "Łętownia",
    "state_id": 1635,
    "state_code": "12",
    "country_id": 176,
    "country_code": "PL",
    "latitude": "49.69745000",
    "longitude": "19.87109000",
    "wikiDataId": null
  },
  {
    "id": 88790,
    "name": "Łopuszna",
    "state_id": 1635,
    "state_code": "12",
    "country_id": 176,
    "country_code": "PL",
    "latitude": "49.47281000",
    "longitude": "20.13021000",
    "wikiDataId": null
  },
  {
    "id": 88794,
    "name": "Łososina Dolna",
    "state_id": 1635,
    "state_code": "12",
    "country_id": 176,
    "country_code": "PL",
    "latitude": "49.74977000",
    "longitude": "20.63129000",
    "wikiDataId": null
  },
  {
    "id": 88802,
    "name": "Łukowa",
    "state_id": 1635,
    "state_code": "12",
    "country_id": 176,
    "country_code": "PL",
    "latitude": "50.09300000",
    "longitude": "20.97548000",
    "wikiDataId": null
  },
  {
    "id": 88804,
    "name": "Łukowica",
    "state_id": 1635,
    "state_code": "12",
    "country_id": 176,
    "country_code": "PL",
    "latitude": "49.61110000",
    "longitude": "20.48289000",
    "wikiDataId": null
  },
  {
    "id": 88806,
    "name": "Łużna",
    "state_id": 1635,
    "state_code": "12",
    "country_id": 176,
    "country_code": "PL",
    "latitude": "49.71288000",
    "longitude": "21.04637000",
    "wikiDataId": null
  },
  {
    "id": 86984,
    "name": "Maków Podhalański",
    "state_id": 1635,
    "state_code": "12",
    "country_id": 176,
    "country_code": "PL",
    "latitude": "49.73008000",
    "longitude": "19.67711000",
    "wikiDataId": null
  },
  {
    "id": 86988,
    "name": "Malec",
    "state_id": 1635,
    "state_code": "12",
    "country_id": 176,
    "country_code": "PL",
    "latitude": "49.92106000",
    "longitude": "19.24530000",
    "wikiDataId": null
  },
  {
    "id": 86990,
    "name": "Maniowy",
    "state_id": 1635,
    "state_code": "12",
    "country_id": 176,
    "country_code": "PL",
    "latitude": "49.45976000",
    "longitude": "20.26454000",
    "wikiDataId": null
  },
  {
    "id": 87002,
    "name": "Maszkienice",
    "state_id": 1635,
    "state_code": "12",
    "country_id": 176,
    "country_code": "PL",
    "latitude": "49.98920000",
    "longitude": "20.68657000",
    "wikiDataId": null
  },
  {
    "id": 87125,
    "name": "Mędrzechów",
    "state_id": 1635,
    "state_code": "12",
    "country_id": 176,
    "country_code": "PL",
    "latitude": "50.28221000",
    "longitude": "20.94749000",
    "wikiDataId": null
  },
  {
    "id": 87126,
    "name": "Mętków",
    "state_id": 1635,
    "state_code": "12",
    "country_id": 176,
    "country_code": "PL",
    "latitude": "50.05251000",
    "longitude": "19.37525000",
    "wikiDataId": null
  },
  {
    "id": 87020,
    "name": "Michałowice",
    "state_id": 1635,
    "state_code": "12",
    "country_id": 176,
    "country_code": "PL",
    "latitude": "50.15898000",
    "longitude": "19.98044000",
    "wikiDataId": null
  },
  {
    "id": 87026,
    "name": "Miechów",
    "state_id": 1635,
    "state_code": "12",
    "country_id": 176,
    "country_code": "PL",
    "latitude": "50.35648000",
    "longitude": "20.02788000",
    "wikiDataId": null
  },
  {
    "id": 87027,
    "name": "Miechów Charsznica",
    "state_id": 1635,
    "state_code": "12",
    "country_id": 176,
    "country_code": "PL",
    "latitude": "50.39599000",
    "longitude": "19.95031000",
    "wikiDataId": null
  },
  {
    "id": 87067,
    "name": "Miękinia",
    "state_id": 1635,
    "state_code": "12",
    "country_id": 176,
    "country_code": "PL",
    "latitude": "50.15557000",
    "longitude": "19.60871000",
    "wikiDataId": null
  },
  {
    "id": 87077,
    "name": "Mników",
    "state_id": 1635,
    "state_code": "12",
    "country_id": 176,
    "country_code": "PL",
    "latitude": "50.06044000",
    "longitude": "19.72595000",
    "wikiDataId": null
  },
  {
    "id": 87082,
    "name": "Modlnica",
    "state_id": 1635,
    "state_code": "12",
    "country_id": 176,
    "country_code": "PL",
    "latitude": "50.12958000",
    "longitude": "19.86461000",
    "wikiDataId": null
  },
  {
    "id": 87083,
    "name": "Modlniczka",
    "state_id": 1635,
    "state_code": "12",
    "country_id": 176,
    "country_code": "PL",
    "latitude": "50.11739000",
    "longitude": "19.85530000",
    "wikiDataId": null
  },
  {
    "id": 87085,
    "name": "Mogilany",
    "state_id": 1635,
    "state_code": "12",
    "country_id": 176,
    "country_code": "PL",
    "latitude": "49.93890000",
    "longitude": "19.88972000",
    "wikiDataId": null
  },
  {
    "id": 87098,
    "name": "Moszczenica",
    "state_id": 1635,
    "state_code": "12",
    "country_id": 176,
    "country_code": "PL",
    "latitude": "49.73668000",
    "longitude": "21.09238000",
    "wikiDataId": null
  },
  {
    "id": 87109,
    "name": "Mszana Dolna",
    "state_id": 1635,
    "state_code": "12",
    "country_id": 176,
    "country_code": "PL",
    "latitude": "49.67432000",
    "longitude": "20.07992000",
    "wikiDataId": null
  },
  {
    "id": 87110,
    "name": "Mszana Górna",
    "state_id": 1635,
    "state_code": "12",
    "country_id": 176,
    "country_code": "PL",
    "latitude": "49.66202000",
    "longitude": "20.09734000",
    "wikiDataId": null
  },
  {
    "id": 87115,
    "name": "Muszyna",
    "state_id": 1635,
    "state_code": "12",
    "country_id": 176,
    "country_code": "PL",
    "latitude": "49.35661000",
    "longitude": "20.89718000",
    "wikiDataId": null
  },
  {
    "id": 87122,
    "name": "Myślachowice",
    "state_id": 1635,
    "state_code": "12",
    "country_id": 176,
    "country_code": "PL",
    "latitude": "50.18514000",
    "longitude": "19.48116000",
    "wikiDataId": null
  },
  {
    "id": 87123,
    "name": "Myślenice",
    "state_id": 1635,
    "state_code": "12",
    "country_id": 176,
    "country_code": "PL",
    "latitude": "49.83383000",
    "longitude": "19.93830000",
    "wikiDataId": null
  },
  {
    "id": 87137,
    "name": "Naprawa",
    "state_id": 1635,
    "state_code": "12",
    "country_id": 176,
    "country_code": "PL",
    "latitude": "49.64657000",
    "longitude": "19.87916000",
    "wikiDataId": null
  },
  {
    "id": 87142,
    "name": "Nawojowa",
    "state_id": 1635,
    "state_code": "12",
    "country_id": 176,
    "country_code": "PL",
    "latitude": "49.56686000",
    "longitude": "20.73927000",
    "wikiDataId": null
  },
  {
    "id": 87145,
    "name": "Nidek",
    "state_id": 1635,
    "state_code": "12",
    "country_id": 176,
    "country_code": "PL",
    "latitude": "49.90492000",
    "longitude": "19.32461000",
    "wikiDataId": null
  },
  {
    "id": 87154,
    "name": "Niedomice",
    "state_id": 1635,
    "state_code": "12",
    "country_id": 176,
    "country_code": "PL",
    "latitude": "50.10737000",
    "longitude": "20.89548000",
    "wikiDataId": null
  },
  {
    "id": 87156,
    "name": "Niedzica",
    "state_id": 1635,
    "state_code": "12",
    "country_id": 176,
    "country_code": "PL",
    "latitude": "49.41008000",
    "longitude": "20.30273000",
    "wikiDataId": null
  },
  {
    "id": 87159,
    "name": "Niedźwiedź",
    "state_id": 1635,
    "state_code": "12",
    "country_id": 176,
    "country_code": "PL",
    "latitude": "49.62100000",
    "longitude": "20.07794000",
    "wikiDataId": null
  },
  {
    "id": 87167,
    "name": "Niepołomice",
    "state_id": 1635,
    "state_code": "12",
    "country_id": 176,
    "country_code": "PL",
    "latitude": "50.04066000",
    "longitude": "20.22257000",
    "wikiDataId": null
  },
  {
    "id": 87172,
    "name": "Nowa Góra",
    "state_id": 1635,
    "state_code": "12",
    "country_id": 176,
    "country_code": "PL",
    "latitude": "50.17305000",
    "longitude": "19.59120000",
    "wikiDataId": null
  },
  {
    "id": 87177,
    "name": "Nowa Wieś",
    "state_id": 1635,
    "state_code": "12",
    "country_id": 176,
    "country_code": "PL",
    "latitude": "49.90746000",
    "longitude": "19.21646000",
    "wikiDataId": null
  },
  {
    "id": 87181,
    "name": "Nowe Brzesko",
    "state_id": 1635,
    "state_code": "12",
    "country_id": 176,
    "country_code": "PL",
    "latitude": "50.13222000",
    "longitude": "20.37663000",
    "wikiDataId": null
  },
  {
    "id": 87206,
    "name": "Nowy Sącz",
    "state_id": 1635,
    "state_code": "12",
    "country_id": 176,
    "country_code": "PL",
    "latitude": "49.62177000",
    "longitude": "20.69705000",
    "wikiDataId": null
  },
  {
    "id": 87207,
    "name": "Nowy Targ",
    "state_id": 1635,
    "state_code": "12",
    "country_id": 176,
    "country_code": "PL",
    "latitude": "49.47783000",
    "longitude": "20.03228000",
    "wikiDataId": null
  },
  {
    "id": 87209,
    "name": "Nowy Wiśnicz",
    "state_id": 1635,
    "state_code": "12",
    "country_id": 176,
    "country_code": "PL",
    "latitude": "49.91465000",
    "longitude": "20.46109000",
    "wikiDataId": null
  },
  {
    "id": 87225,
    "name": "Ochojno",
    "state_id": 1635,
    "state_code": "12",
    "country_id": 176,
    "country_code": "PL",
    "latitude": "49.95255000",
    "longitude": "19.97452000",
    "wikiDataId": null
  },
  {
    "id": 87227,
    "name": "Ochotnica Dolna",
    "state_id": 1635,
    "state_code": "12",
    "country_id": 176,
    "country_code": "PL",
    "latitude": "49.52682000",
    "longitude": "20.34265000",
    "wikiDataId": null
  },
  {
    "id": 87233,
    "name": "Okocim",
    "state_id": 1635,
    "state_code": "12",
    "country_id": 176,
    "country_code": "PL",
    "latitude": "49.94890000",
    "longitude": "20.60160000",
    "wikiDataId": null
  },
  {
    "id": 87237,
    "name": "Olesno",
    "state_id": 1635,
    "state_code": "12",
    "country_id": 176,
    "country_code": "PL",
    "latitude": "50.20152000",
    "longitude": "20.92578000",
    "wikiDataId": null
  },
  {
    "id": 87242,
    "name": "Olkusz",
    "state_id": 1635,
    "state_code": "12",
    "country_id": 176,
    "country_code": "PL",
    "latitude": "50.28130000",
    "longitude": "19.56503000",
    "wikiDataId": null
  },
  {
    "id": 87243,
    "name": "Olszana",
    "state_id": 1635,
    "state_code": "12",
    "country_id": 176,
    "country_code": "PL",
    "latitude": "49.56748000",
    "longitude": "20.52126000",
    "wikiDataId": null
  },
  {
    "id": 87251,
    "name": "Olszówka",
    "state_id": 1635,
    "state_code": "12",
    "country_id": 176,
    "country_code": "PL",
    "latitude": "49.61455000",
    "longitude": "20.02885000",
    "wikiDataId": null
  },
  {
    "id": 87323,
    "name": "Ołpiny",
    "state_id": 1635,
    "state_code": "12",
    "country_id": 176,
    "country_code": "PL",
    "latitude": "49.80686000",
    "longitude": "21.20464000",
    "wikiDataId": null
  },
  {
    "id": 87278,
    "name": "Osieczany",
    "state_id": 1635,
    "state_code": "12",
    "country_id": 176,
    "country_code": "PL",
    "latitude": "49.84252000",
    "longitude": "19.98207000",
    "wikiDataId": null
  },
  {
    "id": 87284,
    "name": "Osiek",
    "state_id": 1635,
    "state_code": "12",
    "country_id": 176,
    "country_code": "PL",
    "latitude": "50.24353000",
    "longitude": "19.60047000",
    "wikiDataId": null
  },
  {
    "id": 87291,
    "name": "Osielec",
    "state_id": 1635,
    "state_code": "12",
    "country_id": 176,
    "country_code": "PL",
    "latitude": "49.68079000",
    "longitude": "19.78243000",
    "wikiDataId": null
  },
  {
    "id": 87314,
    "name": "Ostrężnica",
    "state_id": 1635,
    "state_code": "12",
    "country_id": 176,
    "country_code": "PL",
    "latitude": "50.19262000",
    "longitude": "19.57077000",
    "wikiDataId": null
  },
  {
    "id": 87302,
    "name": "Ostrowsko",
    "state_id": 1635,
    "state_code": "12",
    "country_id": 176,
    "country_code": "PL",
    "latitude": "49.47616000",
    "longitude": "20.10052000",
    "wikiDataId": null
  },
  {
    "id": 87325,
    "name": "Oświęcim",
    "state_id": 1635,
    "state_code": "12",
    "country_id": 176,
    "country_code": "PL",
    "latitude": "50.03437000",
    "longitude": "19.21037000",
    "wikiDataId": null
  },
  {
    "id": 87339,
    "name": "Palcza",
    "state_id": 1635,
    "state_code": "12",
    "country_id": 176,
    "country_code": "PL",
    "latitude": "49.80454000",
    "longitude": "19.74389000",
    "wikiDataId": null
  },
  {
    "id": 87354,
    "name": "Pawlikowice",
    "state_id": 1635,
    "state_code": "12",
    "country_id": 176,
    "country_code": "PL",
    "latitude": "49.95310000",
    "longitude": "20.05486000",
    "wikiDataId": null
  },
  {
    "id": 87361,
    "name": "Pcim",
    "state_id": 1635,
    "state_code": "12",
    "country_id": 176,
    "country_code": "PL",
    "latitude": "49.75166000",
    "longitude": "19.97108000",
    "wikiDataId": null
  },
  {
    "id": 87375,
    "name": "Piekary",
    "state_id": 1635,
    "state_code": "12",
    "country_id": 176,
    "country_code": "PL",
    "latitude": "50.02495000",
    "longitude": "19.79616000",
    "wikiDataId": null
  },
  {
    "id": 87377,
    "name": "Piekielnik",
    "state_id": 1635,
    "state_code": "12",
    "country_id": 176,
    "country_code": "PL",
    "latitude": "49.47688000",
    "longitude": "19.76810000",
    "wikiDataId": null
  },
  {
    "id": 87400,
    "name": "Piwniczna-Zdrój",
    "state_id": 1635,
    "state_code": "12",
    "country_id": 176,
    "country_code": "PL",
    "latitude": "49.44056000",
    "longitude": "20.71423000",
    "wikiDataId": null
  },
  {
    "id": 87408,
    "name": "Pleśna",
    "state_id": 1635,
    "state_code": "12",
    "country_id": 176,
    "country_code": "PL",
    "latitude": "49.92642000",
    "longitude": "20.94526000",
    "wikiDataId": null
  },
  {
    "id": 87863,
    "name": "Płaza",
    "state_id": 1635,
    "state_code": "12",
    "country_id": 176,
    "country_code": "PL",
    "latitude": "50.09988000",
    "longitude": "19.46451000",
    "wikiDataId": null
  },
  {
    "id": 87415,
    "name": "Podegrodzie",
    "state_id": 1635,
    "state_code": "12",
    "country_id": 176,
    "country_code": "PL",
    "latitude": "49.57688000",
    "longitude": "20.58855000",
    "wikiDataId": null
  },
  {
    "id": 87419,
    "name": "Podłęże",
    "state_id": 1635,
    "state_code": "12",
    "country_id": 176,
    "country_code": "PL",
    "latitude": "50.01458000",
    "longitude": "20.16781000",
    "wikiDataId": null
  },
  {
    "id": 87418,
    "name": "Podwilk",
    "state_id": 1635,
    "state_code": "12",
    "country_id": 176,
    "country_code": "PL",
    "latitude": "49.54760000",
    "longitude": "19.73874000",
    "wikiDataId": null
  },
  {
    "id": 87424,
    "name": "Pogórska Wola",
    "state_id": 1635,
    "state_code": "12",
    "country_id": 176,
    "country_code": "PL",
    "latitude": "50.01855000",
    "longitude": "21.15795000",
    "wikiDataId": null
  },
  {
    "id": 87421,
    "name": "Pogorzyce",
    "state_id": 1635,
    "state_code": "12",
    "country_id": 176,
    "country_code": "PL",
    "latitude": "50.10186000",
    "longitude": "19.42228000",
    "wikiDataId": null
  },
  {
    "id": 87431,
    "name": "Polanka Wielka",
    "state_id": 1635,
    "state_code": "12",
    "country_id": 176,
    "country_code": "PL",
    "latitude": "49.98501000",
    "longitude": "19.32615000",
    "wikiDataId": null
  },
  {
    "id": 87441,
    "name": "Ponikiew",
    "state_id": 1635,
    "state_code": "12",
    "country_id": 176,
    "country_code": "PL",
    "latitude": "49.83311000",
    "longitude": "19.46571000",
    "wikiDataId": null
  },
  {
    "id": 87447,
    "name": "Porąbka Uszewska",
    "state_id": 1635,
    "state_code": "12",
    "country_id": 176,
    "country_code": "PL",
    "latitude": "49.94260000",
    "longitude": "20.69052000",
    "wikiDataId": null
  },
  {
    "id": 87448,
    "name": "Poręba",
    "state_id": 1635,
    "state_code": "12",
    "country_id": 176,
    "country_code": "PL",
    "latitude": "49.79645000",
    "longitude": "20.01718000",
    "wikiDataId": null
  },
  {
    "id": 87450,
    "name": "Poręba Spytkowska",
    "state_id": 1635,
    "state_code": "12",
    "country_id": 176,
    "country_code": "PL",
    "latitude": "49.93995000",
    "longitude": "20.55405000",
    "wikiDataId": null
  },
  {
    "id": 87451,
    "name": "Poręba Wielka",
    "state_id": 1635,
    "state_code": "12",
    "country_id": 176,
    "country_code": "PL",
    "latitude": "50.01116000",
    "longitude": "19.28375000",
    "wikiDataId": null
  },
  {
    "id": 87445,
    "name": "Poronin",
    "state_id": 1635,
    "state_code": "12",
    "country_id": 176,
    "country_code": "PL",
    "latitude": "49.33781000",
    "longitude": "20.00291000",
    "wikiDataId": null
  },
  {
    "id": 87792,
    "name": "Proszowice",
    "state_id": 1635,
    "state_code": "12",
    "country_id": 176,
    "country_code": "PL",
    "latitude": "50.19275000",
    "longitude": "20.28909000",
    "wikiDataId": null
  },
  {
    "id": 87802,
    "name": "Przecieszyn",
    "state_id": 1635,
    "state_code": "12",
    "country_id": 176,
    "country_code": "PL",
    "latitude": "49.97838000",
    "longitude": "19.17046000",
    "wikiDataId": null
  },
  {
    "id": 87803,
    "name": "Przeciszów",
    "state_id": 1635,
    "state_code": "12",
    "country_id": 176,
    "country_code": "PL",
    "latitude": "50.00647000",
    "longitude": "19.37576000",
    "wikiDataId": null
  },
  {
    "id": 87809,
    "name": "Przeginia",
    "state_id": 1635,
    "state_code": "12",
    "country_id": 176,
    "country_code": "PL",
    "latitude": "50.23831000",
    "longitude": "19.68853000",
    "wikiDataId": null
  },
  {
    "id": 87820,
    "name": "Przyborów",
    "state_id": 1635,
    "state_code": "12",
    "country_id": 176,
    "country_code": "PL",
    "latitude": "50.03035000",
    "longitude": "20.66279000",
    "wikiDataId": null
  },
  {
    "id": 87830,
    "name": "Przytkowice",
    "state_id": 1635,
    "state_code": "12",
    "country_id": 176,
    "country_code": "PL",
    "latitude": "49.91785000",
    "longitude": "19.68570000",
    "wikiDataId": null
  },
  {
    "id": 87840,
    "name": "Psary",
    "state_id": 1635,
    "state_code": "12",
    "country_id": 176,
    "country_code": "PL",
    "latitude": "50.17242000",
    "longitude": "19.52953000",
    "wikiDataId": null
  },
  {
    "id": 87869,
    "name": "Raba Wyżna",
    "state_id": 1635,
    "state_code": "12",
    "country_id": 176,
    "country_code": "PL",
    "latitude": "49.56681000",
    "longitude": "19.87967000",
    "wikiDataId": null
  },
  {
    "id": 87870,
    "name": "Rabka-Zdrój",
    "state_id": 1635,
    "state_code": "12",
    "country_id": 176,
    "country_code": "PL",
    "latitude": "49.60889000",
    "longitude": "19.96654000",
    "wikiDataId": null
  },
  {
    "id": 87877,
    "name": "Racławice",
    "state_id": 1635,
    "state_code": "12",
    "country_id": 176,
    "country_code": "PL",
    "latitude": "50.19344000",
    "longitude": "19.67686000",
    "wikiDataId": null
  },
  {
    "id": 88036,
    "name": "Rączna",
    "state_id": 1635,
    "state_code": "12",
    "country_id": 176,
    "country_code": "PL",
    "latitude": "50.00984000",
    "longitude": "19.76784000",
    "wikiDataId": null
  },
  {
    "id": 87880,
    "name": "Radgoszcz",
    "state_id": 1635,
    "state_code": "12",
    "country_id": 176,
    "country_code": "PL",
    "latitude": "50.20580000",
    "longitude": "21.11315000",
    "wikiDataId": null
  },
  {
    "id": 87905,
    "name": "Radłów",
    "state_id": 1635,
    "state_code": "12",
    "country_id": 176,
    "country_code": "PL",
    "latitude": "50.08419000",
    "longitude": "20.84967000",
    "wikiDataId": null
  },
  {
    "id": 87883,
    "name": "Radocza",
    "state_id": 1635,
    "state_code": "12",
    "country_id": 176,
    "country_code": "PL",
    "latitude": "49.91774000",
    "longitude": "19.47498000",
    "wikiDataId": null
  },
  {
    "id": 87900,
    "name": "Radziszów",
    "state_id": 1635,
    "state_code": "12",
    "country_id": 176,
    "country_code": "PL",
    "latitude": "49.93531000",
    "longitude": "19.81522000",
    "wikiDataId": null
  },
  {
    "id": 87908,
    "name": "Rajsko",
    "state_id": 1635,
    "state_code": "12",
    "country_id": 176,
    "country_code": "PL",
    "latitude": "50.01193000",
    "longitude": "19.19294000",
    "wikiDataId": null
  },
  {
    "id": 87924,
    "name": "Regulice",
    "state_id": 1635,
    "state_code": "12",
    "country_id": 176,
    "country_code": "PL",
    "latitude": "50.08314000",
    "longitude": "19.52785000",
    "wikiDataId": null
  },
  {
    "id": 87942,
    "name": "Roczyny",
    "state_id": 1635,
    "state_code": "12",
    "country_id": 176,
    "country_code": "PL",
    "latitude": "49.85370000",
    "longitude": "19.31568000",
    "wikiDataId": null
  },
  {
    "id": 87953,
    "name": "Rokiciny",
    "state_id": 1635,
    "state_code": "12",
    "country_id": 176,
    "country_code": "PL",
    "latitude": "49.57243000",
    "longitude": "19.92302000",
    "wikiDataId": null
  },
  {
    "id": 87960,
    "name": "Ropa",
    "state_id": 1635,
    "state_code": "12",
    "country_id": 176,
    "country_code": "PL",
    "latitude": "49.59146000",
    "longitude": "21.04431000",
    "wikiDataId": null
  },
  {
    "id": 87973,
    "name": "Rudawa",
    "state_id": 1635,
    "state_code": "12",
    "country_id": 176,
    "country_code": "PL",
    "latitude": "50.12151000",
    "longitude": "19.71239000",
    "wikiDataId": null
  },
  {
    "id": 87980,
    "name": "Rudnik",
    "state_id": 1635,
    "state_code": "12",
    "country_id": 176,
    "country_code": "PL",
    "latitude": "49.85243000",
    "longitude": "19.84740000",
    "wikiDataId": null
  },
  {
    "id": 87989,
    "name": "Rusocice",
    "state_id": 1635,
    "state_code": "12",
    "country_id": 176,
    "country_code": "PL",
    "latitude": "49.99604000",
    "longitude": "19.60648000",
    "wikiDataId": null
  },
  {
    "id": 88003,
    "name": "Ryczów",
    "state_id": 1635,
    "state_code": "12",
    "country_id": 176,
    "country_code": "PL",
    "latitude": "49.98103000",
    "longitude": "19.55017000",
    "wikiDataId": null
  },
  {
    "id": 88006,
    "name": "Ryglice",
    "state_id": 1635,
    "state_code": "12",
    "country_id": 176,
    "country_code": "PL",
    "latitude": "49.87887000",
    "longitude": "21.13748000",
    "wikiDataId": null
  },
  {
    "id": 88013,
    "name": "Rytro",
    "state_id": 1635,
    "state_code": "12",
    "country_id": 176,
    "country_code": "PL",
    "latitude": "49.48904000",
    "longitude": "20.66631000",
    "wikiDataId": null
  },
  {
    "id": 88031,
    "name": "Rząska",
    "state_id": 1635,
    "state_code": "12",
    "country_id": 176,
    "country_code": "PL",
    "latitude": "50.09713000",
    "longitude": "19.84509000",
    "wikiDataId": null
  },
  {
    "id": 88021,
    "name": "Rzepiennik Strzyżewski",
    "state_id": 1635,
    "state_code": "12",
    "country_id": 176,
    "country_code": "PL",
    "latitude": "49.80542000",
    "longitude": "21.03599000",
    "wikiDataId": null
  },
  {
    "id": 88023,
    "name": "Rzeszotary",
    "state_id": 1635,
    "state_code": "12",
    "country_id": 176,
    "country_code": "PL",
    "latitude": "49.94625000",
    "longitude": "19.97280000",
    "wikiDataId": null
  },
  {
    "id": 88026,
    "name": "Rzezawa",
    "state_id": 1635,
    "state_code": "12",
    "country_id": 176,
    "country_code": "PL",
    "latitude": "49.98997000",
    "longitude": "20.51508000",
    "wikiDataId": null
  },
  {
    "id": 88029,
    "name": "Rzozów",
    "state_id": 1635,
    "state_code": "12",
    "country_id": 176,
    "country_code": "PL",
    "latitude": "49.95398000",
    "longitude": "19.79668000",
    "wikiDataId": null
  },
  {
    "id": 88030,
    "name": "Rzyki",
    "state_id": 1635,
    "state_code": "12",
    "country_id": 176,
    "country_code": "PL",
    "latitude": "49.81129000",
    "longitude": "19.39619000",
    "wikiDataId": null
  },
  {
    "id": 88047,
    "name": "Sanka",
    "state_id": 1635,
    "state_code": "12",
    "country_id": 176,
    "country_code": "PL",
    "latitude": "50.06871000",
    "longitude": "19.64596000",
    "wikiDataId": null
  },
  {
    "id": 88326,
    "name": "Sąspów",
    "state_id": 1635,
    "state_code": "12",
    "country_id": 176,
    "country_code": "PL",
    "latitude": "50.22887000",
    "longitude": "19.77007000",
    "wikiDataId": null
  },
  {
    "id": 88330,
    "name": "Sękowa",
    "state_id": 1635,
    "state_code": "12",
    "country_id": 176,
    "country_code": "PL",
    "latitude": "49.62217000",
    "longitude": "21.19769000",
    "wikiDataId": null
  },
  {
    "id": 88061,
    "name": "Sidzina",
    "state_id": 1635,
    "state_code": "12",
    "country_id": 176,
    "country_code": "PL",
    "latitude": "49.59146000",
    "longitude": "19.71119000",
    "wikiDataId": null
  },
  {
    "id": 88067,
    "name": "Siedliska",
    "state_id": 1635,
    "state_code": "12",
    "country_id": 176,
    "country_code": "PL",
    "latitude": "49.87163000",
    "longitude": "20.99625000",
    "wikiDataId": null
  },
  {
    "id": 88073,
    "name": "Siemiechów",
    "state_id": 1635,
    "state_code": "12",
    "country_id": 176,
    "country_code": "PL",
    "latitude": "49.85359000",
    "longitude": "20.90595000",
    "wikiDataId": null
  },
  {
    "id": 88078,
    "name": "Sieniawa",
    "state_id": 1635,
    "state_code": "12",
    "country_id": 176,
    "country_code": "PL",
    "latitude": "49.53947000",
    "longitude": "19.93014000",
    "wikiDataId": null
  },
  {
    "id": 88084,
    "name": "Siepraw",
    "state_id": 1635,
    "state_code": "12",
    "country_id": 176,
    "country_code": "PL",
    "latitude": "49.91437000",
    "longitude": "19.95864000",
    "wikiDataId": null
  },
  {
    "id": 88086,
    "name": "Sieradza",
    "state_id": 1635,
    "state_code": "12",
    "country_id": 176,
    "country_code": "PL",
    "latitude": "50.13499000",
    "longitude": "20.92947000",
    "wikiDataId": null
  },
  {
    "id": 88105,
    "name": "Skała",
    "state_id": 1635,
    "state_code": "12",
    "country_id": 176,
    "country_code": "PL",
    "latitude": "50.23052000",
    "longitude": "19.85363000",
    "wikiDataId": null
  },
  {
    "id": 88102,
    "name": "Skawica",
    "state_id": 1635,
    "state_code": "12",
    "country_id": 176,
    "country_code": "PL",
    "latitude": "49.67718000",
    "longitude": "19.62321000",
    "wikiDataId": null
  },
  {
    "id": 88103,
    "name": "Skawina",
    "state_id": 1635,
    "state_code": "12",
    "country_id": 176,
    "country_code": "PL",
    "latitude": "49.97524000",
    "longitude": "19.82869000",
    "wikiDataId": null
  },
  {
    "id": 88104,
    "name": "Skawinki",
    "state_id": 1635,
    "state_code": "12",
    "country_id": 176,
    "country_code": "PL",
    "latitude": "49.82281000",
    "longitude": "19.71256000",
    "wikiDataId": null
  },
  {
    "id": 88110,
    "name": "Skomielna Czarna",
    "state_id": 1635,
    "state_code": "12",
    "country_id": 176,
    "country_code": "PL",
    "latitude": "49.72709000",
    "longitude": "19.83633000",
    "wikiDataId": null
  },
  {
    "id": 88116,
    "name": "Skrzydlna",
    "state_id": 1635,
    "state_code": "12",
    "country_id": 176,
    "country_code": "PL",
    "latitude": "49.75343000",
    "longitude": "20.18618000",
    "wikiDataId": null
  },
  {
    "id": 88117,
    "name": "Skrzyszów",
    "state_id": 1635,
    "state_code": "12",
    "country_id": 176,
    "country_code": "PL",
    "latitude": "49.99373000",
    "longitude": "21.06139000",
    "wikiDataId": null
  },
  {
    "id": 88341,
    "name": "Słomniki",
    "state_id": 1635,
    "state_code": "12",
    "country_id": 176,
    "country_code": "PL",
    "latitude": "50.24012000",
    "longitude": "20.08224000",
    "wikiDataId": null
  },
  {
    "id": 88342,
    "name": "Słopnice",
    "state_id": 1635,
    "state_code": "12",
    "country_id": 176,
    "country_code": "PL",
    "latitude": "49.68496000",
    "longitude": "20.34325000",
    "wikiDataId": null
  },
  {
    "id": 88351,
    "name": "Słupiec",
    "state_id": 1635,
    "state_code": "12",
    "country_id": 176,
    "country_code": "PL",
    "latitude": "50.32787000",
    "longitude": "21.19374000",
    "wikiDataId": null
  },
  {
    "id": 88128,
    "name": "Smęgorzów",
    "state_id": 1635,
    "state_code": "12",
    "country_id": 176,
    "country_code": "PL",
    "latitude": "50.22843000",
    "longitude": "21.00414000",
    "wikiDataId": null
  },
  {
    "id": 88151,
    "name": "Sosnowice",
    "state_id": 1635,
    "state_code": "12",
    "country_id": 176,
    "country_code": "PL",
    "latitude": "49.93995000",
    "longitude": "19.71514000",
    "wikiDataId": null
  },
  {
    "id": 88162,
    "name": "Spytkowice",
    "state_id": 1635,
    "state_code": "12",
    "country_id": 176,
    "country_code": "PL",
    "latitude": "49.99671000",
    "longitude": "19.51103000",
    "wikiDataId": null
  },
  {
    "id": 88166,
    "name": "Stanisław Dolny",
    "state_id": 1635,
    "state_code": "12",
    "country_id": 176,
    "country_code": "PL",
    "latitude": "49.90470000",
    "longitude": "19.65334000",
    "wikiDataId": null
  },
  {
    "id": 88167,
    "name": "Stanisław Górny",
    "state_id": 1635,
    "state_code": "12",
    "country_id": 176,
    "country_code": "PL",
    "latitude": "49.91155000",
    "longitude": "19.62931000",
    "wikiDataId": null
  },
  {
    "id": 88168,
    "name": "Stanisławice",
    "state_id": 1635,
    "state_code": "12",
    "country_id": 176,
    "country_code": "PL",
    "latitude": "49.98550000",
    "longitude": "20.35123000",
    "wikiDataId": null
  },
  {
    "id": 88194,
    "name": "Stary Sącz",
    "state_id": 1635,
    "state_code": "12",
    "country_id": 176,
    "country_code": "PL",
    "latitude": "49.56364000",
    "longitude": "20.63496000",
    "wikiDataId": null
  },
  {
    "id": 88196,
    "name": "Stary Wiśnicz",
    "state_id": 1635,
    "state_code": "12",
    "country_id": 176,
    "country_code": "PL",
    "latitude": "49.92548000",
    "longitude": "20.48641000",
    "wikiDataId": null
  },
  {
    "id": 88216,
    "name": "Stronie",
    "state_id": 1635,
    "state_code": "12",
    "country_id": 176,
    "country_code": "PL",
    "latitude": "49.83056000",
    "longitude": "19.67497000",
    "wikiDataId": null
  },
  {
    "id": 88237,
    "name": "Stróża",
    "state_id": 1635,
    "state_code": "12",
    "country_id": 176,
    "country_code": "PL",
    "latitude": "49.79628000",
    "longitude": "19.92379000",
    "wikiDataId": null
  },
  {
    "id": 88220,
    "name": "Stryszawa",
    "state_id": 1635,
    "state_code": "12",
    "country_id": 176,
    "country_code": "PL",
    "latitude": "49.71327000",
    "longitude": "19.52185000",
    "wikiDataId": null
  },
  {
    "id": 88221,
    "name": "Stryszów",
    "state_id": 1635,
    "state_code": "12",
    "country_id": 176,
    "country_code": "PL",
    "latitude": "49.82569000",
    "longitude": "19.61763000",
    "wikiDataId": null
  },
  {
    "id": 88248,
    "name": "Sucha Beskidzka",
    "state_id": 1635,
    "state_code": "12",
    "country_id": 176,
    "country_code": "PL",
    "latitude": "49.74188000",
    "longitude": "19.59429000",
    "wikiDataId": null
  },
  {
    "id": 88262,
    "name": "Sulęcin",
    "state_id": 1635,
    "state_code": "12",
    "country_id": 176,
    "country_code": "PL",
    "latitude": "52.44429000",
    "longitude": "15.11676000",
    "wikiDataId": null
  },
  {
    "id": 88271,
    "name": "Sułkowice",
    "state_id": 1635,
    "state_code": "12",
    "country_id": 176,
    "country_code": "PL",
    "latitude": "49.84053000",
    "longitude": "19.80097000",
    "wikiDataId": null
  },
  {
    "id": 88272,
    "name": "Sułoszowa",
    "state_id": 1635,
    "state_code": "12",
    "country_id": 176,
    "country_code": "PL",
    "latitude": "50.26789000",
    "longitude": "19.73282000",
    "wikiDataId": null
  },
  {
    "id": 88863,
    "name": "Świątniki Górne",
    "state_id": 1635,
    "state_code": "12",
    "country_id": 176,
    "country_code": "PL",
    "latitude": "49.93429000",
    "longitude": "19.95364000",
    "wikiDataId": null
  },
  {
    "id": 88284,
    "name": "Szaflary",
    "state_id": 1635,
    "state_code": "12",
    "country_id": 176,
    "country_code": "PL",
    "latitude": "49.42655000",
    "longitude": "20.02713000",
    "wikiDataId": null
  },
  {
    "id": 88287,
    "name": "Szarów",
    "state_id": 1635,
    "state_code": "12",
    "country_id": 176,
    "country_code": "PL",
    "latitude": "49.99505000",
    "longitude": "20.26960000",
    "wikiDataId": null
  },
  {
    "id": 88290,
    "name": "Szczawnica",
    "state_id": 1635,
    "state_code": "12",
    "country_id": 176,
    "country_code": "PL",
    "latitude": "49.42437000",
    "longitude": "20.48487000",
    "wikiDataId": null
  },
  {
    "id": 88299,
    "name": "Szczucin",
    "state_id": 1635,
    "state_code": "12",
    "country_id": 176,
    "country_code": "PL",
    "latitude": "50.30957000",
    "longitude": "21.07444000",
    "wikiDataId": null
  },
  {
    "id": 88301,
    "name": "Szczurowa",
    "state_id": 1635,
    "state_code": "12",
    "country_id": 176,
    "country_code": "PL",
    "latitude": "50.11915000",
    "longitude": "20.63610000",
    "wikiDataId": null
  },
  {
    "id": 88309,
    "name": "Szerzyny",
    "state_id": 1635,
    "state_code": "12",
    "country_id": 176,
    "country_code": "PL",
    "latitude": "49.80919000",
    "longitude": "21.24670000",
    "wikiDataId": null
  },
  {
    "id": 88323,
    "name": "Szynwałd",
    "state_id": 1635,
    "state_code": "12",
    "country_id": 176,
    "country_code": "PL",
    "latitude": "49.96767000",
    "longitude": "21.12293000",
    "wikiDataId": null
  },
  {
    "id": 88355,
    "name": "Targanice",
    "state_id": 1635,
    "state_code": "12",
    "country_id": 176,
    "country_code": "PL",
    "latitude": "49.80575000",
    "longitude": "19.32444000",
    "wikiDataId": null
  },
  {
    "id": 88356,
    "name": "Targowisko",
    "state_id": 1635,
    "state_code": "12",
    "country_id": 176,
    "country_code": "PL",
    "latitude": "49.98473000",
    "longitude": "20.29346000",
    "wikiDataId": null
  },
  {
    "id": 88365,
    "name": "Tarnów",
    "state_id": 1635,
    "state_code": "12",
    "country_id": 176,
    "country_code": "PL",
    "latitude": "50.01381000",
    "longitude": "20.98698000",
    "wikiDataId": null
  },
  {
    "id": 88361,
    "name": "Tarnowiec",
    "state_id": 1635,
    "state_code": "12",
    "country_id": 176,
    "country_code": "PL",
    "latitude": "49.98164000",
    "longitude": "20.98655000",
    "wikiDataId": null
  },
  {
    "id": 88372,
    "name": "Tenczynek",
    "state_id": 1635,
    "state_code": "12",
    "country_id": 176,
    "country_code": "PL",
    "latitude": "50.11986000",
    "longitude": "19.61308000",
    "wikiDataId": null
  },
  {
    "id": 88376,
    "name": "Tokarnia",
    "state_id": 1635,
    "state_code": "12",
    "country_id": 176,
    "country_code": "PL",
    "latitude": "49.72720000",
    "longitude": "19.87161000",
    "wikiDataId": null
  },
  {
    "id": 88378,
    "name": "Tomaszkowice",
    "state_id": 1635,
    "state_code": "12",
    "country_id": 176,
    "country_code": "PL",
    "latitude": "49.97918000",
    "longitude": "20.09966000",
    "wikiDataId": null
  },
  {
    "id": 88381,
    "name": "Tomice",
    "state_id": 1635,
    "state_code": "12",
    "country_id": 176,
    "country_code": "PL",
    "latitude": "49.89773000",
    "longitude": "19.48357000",
    "wikiDataId": null
  },
  {
    "id": 88382,
    "name": "Toporzysko",
    "state_id": 1635,
    "state_code": "12",
    "country_id": 176,
    "country_code": "PL",
    "latitude": "49.62495000",
    "longitude": "19.80226000",
    "wikiDataId": null
  },
  {
    "id": 88414,
    "name": "Trąbki",
    "state_id": 1635,
    "state_code": "12",
    "country_id": 176,
    "country_code": "PL",
    "latitude": "49.96226000",
    "longitude": "20.14240000",
    "wikiDataId": null
  },
  {
    "id": 88395,
    "name": "Trzciana",
    "state_id": 1635,
    "state_code": "12",
    "country_id": 176,
    "country_code": "PL",
    "latitude": "49.84485000",
    "longitude": "20.37415000",
    "wikiDataId": null
  },
  {
    "id": 88407,
    "name": "Trzebinia",
    "state_id": 1635,
    "state_code": "12",
    "country_id": 176,
    "country_code": "PL",
    "latitude": "50.15931000",
    "longitude": "19.46966000",
    "wikiDataId": null
  },
  {
    "id": 88410,
    "name": "Trzebunia",
    "state_id": 1635,
    "state_code": "12",
    "country_id": 176,
    "country_code": "PL",
    "latitude": "49.79146000",
    "longitude": "19.84715000",
    "wikiDataId": null
  },
  {
    "id": 88412,
    "name": "Trzemeśnia",
    "state_id": 1635,
    "state_code": "12",
    "country_id": 176,
    "country_code": "PL",
    "latitude": "49.82752000",
    "longitude": "20.02207000",
    "wikiDataId": null
  },
  {
    "id": 88419,
    "name": "Tuchów",
    "state_id": 1635,
    "state_code": "12",
    "country_id": 176,
    "country_code": "PL",
    "latitude": "49.89485000",
    "longitude": "21.05407000",
    "wikiDataId": null
  },
  {
    "id": 88439,
    "name": "Tylicz",
    "state_id": 1635,
    "state_code": "12",
    "country_id": 176,
    "country_code": "PL",
    "latitude": "49.39598000",
    "longitude": "21.02368000",
    "wikiDataId": null
  },
  {
    "id": 88440,
    "name": "Tymbark",
    "state_id": 1635,
    "state_code": "12",
    "country_id": 176,
    "country_code": "PL",
    "latitude": "49.72859000",
    "longitude": "20.32539000",
    "wikiDataId": null
  },
  {
    "id": 88467,
    "name": "Uście Gorlickie",
    "state_id": 1635,
    "state_code": "12",
    "country_id": 176,
    "country_code": "PL",
    "latitude": "49.52192000",
    "longitude": "21.13821000",
    "wikiDataId": null
  },
  {
    "id": 88469,
    "name": "Wadowice",
    "state_id": 1635,
    "state_code": "12",
    "country_id": 176,
    "country_code": "PL",
    "latitude": "49.88335000",
    "longitude": "19.49292000",
    "wikiDataId": null
  },
  {
    "id": 88472,
    "name": "Waksmund",
    "state_id": 1635,
    "state_code": "12",
    "country_id": 176,
    "country_code": "PL",
    "latitude": "49.48207000",
    "longitude": "20.07563000",
    "wikiDataId": null
  },
  {
    "id": 88486,
    "name": "Wawrzeńczyce",
    "state_id": 1635,
    "state_code": "12",
    "country_id": 176,
    "country_code": "PL",
    "latitude": "50.11012000",
    "longitude": "20.31612000",
    "wikiDataId": null
  },
  {
    "id": 88640,
    "name": "Węglówka",
    "state_id": 1635,
    "state_code": "12",
    "country_id": 176,
    "country_code": "PL",
    "latitude": "49.73424000",
    "longitude": "20.08575000",
    "wikiDataId": null
  },
  {
    "id": 88644,
    "name": "Węgrzce Wielkie",
    "state_id": 1635,
    "state_code": "12",
    "country_id": 176,
    "country_code": "PL",
    "latitude": "50.01491000",
    "longitude": "20.11082000",
    "wikiDataId": null
  },
  {
    "id": 88502,
    "name": "Wieliczka",
    "state_id": 1635,
    "state_code": "12",
    "country_id": 176,
    "country_code": "PL",
    "latitude": "49.98738000",
    "longitude": "20.06473000",
    "wikiDataId": null
  },
  {
    "id": 88505,
    "name": "Wielka Wieś",
    "state_id": 1635,
    "state_code": "12",
    "country_id": 176,
    "country_code": "PL",
    "latitude": "49.93631000",
    "longitude": "20.82304000",
    "wikiDataId": null
  },
  {
    "id": 88514,
    "name": "Wieprz",
    "state_id": 1635,
    "state_code": "12",
    "country_id": 176,
    "country_code": "PL",
    "latitude": "49.89093000",
    "longitude": "19.35688000",
    "wikiDataId": null
  },
  {
    "id": 88523,
    "name": "Wierzchosławice",
    "state_id": 1635,
    "state_code": "12",
    "country_id": 176,
    "country_code": "PL",
    "latitude": "50.02478000",
    "longitude": "20.85677000",
    "wikiDataId": null
  },
  {
    "id": 88528,
    "name": "Wietrzychowice",
    "state_id": 1635,
    "state_code": "12",
    "country_id": 176,
    "country_code": "PL",
    "latitude": "50.19097000",
    "longitude": "20.76502000",
    "wikiDataId": null
  },
  {
    "id": 88563,
    "name": "Wiśniowa",
    "state_id": 1635,
    "state_code": "12",
    "country_id": 176,
    "country_code": "PL",
    "latitude": "49.78780000",
    "longitude": "20.11502000",
    "wikiDataId": null
  },
  {
    "id": 88548,
    "name": "Witanowice",
    "state_id": 1635,
    "state_code": "12",
    "country_id": 176,
    "country_code": "PL",
    "latitude": "49.91796000",
    "longitude": "19.52579000",
    "wikiDataId": null
  },
  {
    "id": 88550,
    "name": "Witkowice",
    "state_id": 1635,
    "state_code": "12",
    "country_id": 176,
    "country_code": "PL",
    "latitude": "49.90746000",
    "longitude": "19.27963000",
    "wikiDataId": null
  },
  {
    "id": 88652,
    "name": "Włosienica",
    "state_id": 1635,
    "state_code": "12",
    "country_id": 176,
    "country_code": "PL",
    "latitude": "50.01822000",
    "longitude": "19.31671000",
    "wikiDataId": null
  },
  {
    "id": 88577,
    "name": "Wojnicz",
    "state_id": 1635,
    "state_code": "12",
    "country_id": 176,
    "country_code": "PL",
    "latitude": "49.95800000",
    "longitude": "20.83785000",
    "wikiDataId": null
  },
  {
    "id": 88582,
    "name": "Wola Batorska",
    "state_id": 1635,
    "state_code": "12",
    "country_id": 176,
    "country_code": "PL",
    "latitude": "50.05262000",
    "longitude": "20.26617000",
    "wikiDataId": null
  },
  {
    "id": 88583,
    "name": "Wola Dębińska",
    "state_id": 1635,
    "state_code": "12",
    "country_id": 176,
    "country_code": "PL",
    "latitude": "49.98214000",
    "longitude": "20.68777000",
    "wikiDataId": null
  },
  {
    "id": 88584,
    "name": "Wola Filipowska",
    "state_id": 1635,
    "state_code": "12",
    "country_id": 176,
    "country_code": "PL",
    "latitude": "50.13433000",
    "longitude": "19.58013000",
    "wikiDataId": null
  },
  {
    "id": 88587,
    "name": "Wola Radziszowska",
    "state_id": 1635,
    "state_code": "12",
    "country_id": 176,
    "country_code": "PL",
    "latitude": "49.90558000",
    "longitude": "19.78827000",
    "wikiDataId": null
  },
  {
    "id": 88591,
    "name": "Wola Zabierzowska",
    "state_id": 1635,
    "state_code": "12",
    "country_id": 176,
    "country_code": "PL",
    "latitude": "50.07257000",
    "longitude": "20.33217000",
    "wikiDataId": null
  },
  {
    "id": 88594,
    "name": "Wolbrom",
    "state_id": 1635,
    "state_code": "12",
    "country_id": 176,
    "country_code": "PL",
    "latitude": "50.37957000",
    "longitude": "19.75831000",
    "wikiDataId": null
  },
  {
    "id": 88600,
    "name": "Wołowice",
    "state_id": 1635,
    "state_code": "12",
    "country_id": 176,
    "country_code": "PL",
    "latitude": "49.98876000",
    "longitude": "19.72630000",
    "wikiDataId": null
  },
  {
    "id": 88602,
    "name": "Woźniki",
    "state_id": 1635,
    "state_code": "12",
    "country_id": 176,
    "country_code": "PL",
    "latitude": "49.93774000",
    "longitude": "19.49078000",
    "wikiDataId": null
  },
  {
    "id": 88607,
    "name": "Wrząsowice",
    "state_id": 1635,
    "state_code": "12",
    "country_id": 176,
    "country_code": "PL",
    "latitude": "49.95862000",
    "longitude": "19.94654000",
    "wikiDataId": null
  },
  {
    "id": 88616,
    "name": "Wysoka",
    "state_id": 1635,
    "state_code": "12",
    "country_id": 176,
    "country_code": "PL",
    "latitude": "49.90713000",
    "longitude": "19.60356000",
    "wikiDataId": null
  },
  {
    "id": 88655,
    "name": "Zabierzów",
    "state_id": 1635,
    "state_code": "12",
    "country_id": 176,
    "country_code": "PL",
    "latitude": "50.11425000",
    "longitude": "19.79788000",
    "wikiDataId": null
  },
  {
    "id": 88656,
    "name": "Zabierzów Bocheński",
    "state_id": 1635,
    "state_code": "12",
    "country_id": 176,
    "country_code": "PL",
    "latitude": "50.06821000",
    "longitude": "20.31896000",
    "wikiDataId": null
  },
  {
    "id": 88871,
    "name": "Żabno",
    "state_id": 1635,
    "state_code": "12",
    "country_id": 176,
    "country_code": "PL",
    "latitude": "50.13334000",
    "longitude": "20.88615000",
    "wikiDataId": null
  },
  {
    "id": 88657,
    "name": "Zaborze",
    "state_id": 1635,
    "state_code": "12",
    "country_id": 176,
    "country_code": "PL",
    "latitude": "50.02175000",
    "longitude": "19.24067000",
    "wikiDataId": null
  },
  {
    "id": 88668,
    "name": "Zagórnik",
    "state_id": 1635,
    "state_code": "12",
    "country_id": 176,
    "country_code": "PL",
    "latitude": "49.83710000",
    "longitude": "19.37868000",
    "wikiDataId": null
  },
  {
    "id": 88670,
    "name": "Zagórze",
    "state_id": 1635,
    "state_code": "12",
    "country_id": 176,
    "country_code": "PL",
    "latitude": "50.09449000",
    "longitude": "19.40357000",
    "wikiDataId": null
  },
  {
    "id": 88673,
    "name": "Zakliczyn",
    "state_id": 1635,
    "state_code": "12",
    "country_id": 176,
    "country_code": "PL",
    "latitude": "49.85589000",
    "longitude": "20.80935000",
    "wikiDataId": null
  },
  {
    "id": 88675,
    "name": "Zakopane",
    "state_id": 1635,
    "state_code": "12",
    "country_id": 176,
    "country_code": "PL",
    "latitude": "49.29899000",
    "longitude": "19.94885000",
    "wikiDataId": null
  },
  {
    "id": 88680,
    "name": "Zakrzów",
    "state_id": 1635,
    "state_code": "12",
    "country_id": 176,
    "country_code": "PL",
    "latitude": "49.82558000",
    "longitude": "19.64973000",
    "wikiDataId": null
  },
  {
    "id": 88683,
    "name": "Zalas",
    "state_id": 1635,
    "state_code": "12",
    "country_id": 176,
    "country_code": "PL",
    "latitude": "50.08033000",
    "longitude": "19.62132000",
    "wikiDataId": null
  },
  {
    "id": 88874,
    "name": "Żarki",
    "state_id": 1635,
    "state_code": "12",
    "country_id": 176,
    "country_code": "PL",
    "latitude": "50.08259000",
    "longitude": "19.35199000",
    "wikiDataId": null
  },
  {
    "id": 88698,
    "name": "Zarzecze",
    "state_id": 1635,
    "state_code": "12",
    "country_id": 176,
    "country_code": "PL",
    "latitude": "50.36715000",
    "longitude": "19.69591000",
    "wikiDataId": null
  },
  {
    "id": 88699,
    "name": "Zator",
    "state_id": 1635,
    "state_code": "12",
    "country_id": 176,
    "country_code": "PL",
    "latitude": "49.99604000",
    "longitude": "19.43799000",
    "wikiDataId": null
  },
  {
    "id": 88706,
    "name": "Zawoja",
    "state_id": 1635,
    "state_code": "12",
    "country_id": 176,
    "country_code": "PL",
    "latitude": "49.64396000",
    "longitude": "19.54227000",
    "wikiDataId": null
  },
  {
    "id": 88720,
    "name": "Zebrzydowice",
    "state_id": 1635,
    "state_code": "12",
    "country_id": 176,
    "country_code": "PL",
    "latitude": "49.89032000",
    "longitude": "19.67291000",
    "wikiDataId": null
  },
  {
    "id": 88879,
    "name": "Żegocina",
    "state_id": 1635,
    "state_code": "12",
    "country_id": 176,
    "country_code": "PL",
    "latitude": "49.81395000",
    "longitude": "20.41964000",
    "wikiDataId": null
  },
  {
    "id": 88723,
    "name": "Zembrzyce",
    "state_id": 1635,
    "state_code": "12",
    "country_id": 176,
    "country_code": "PL",
    "latitude": "49.77517000",
    "longitude": "19.60120000",
    "wikiDataId": null
  },
  {
    "id": 88730,
    "name": "Zielonki",
    "state_id": 1635,
    "state_code": "12",
    "country_id": 176,
    "country_code": "PL",
    "latitude": "50.12091000",
    "longitude": "19.92156000",
    "wikiDataId": null
  },
  {
    "id": 88745,
    "name": "Złota",
    "state_id": 1635,
    "state_code": "12",
    "country_id": 176,
    "country_code": "PL",
    "latitude": "49.88059000",
    "longitude": "20.69326000",
    "wikiDataId": null
  },
  {
    "id": 88733,
    "name": "Zubrzyca Dolna",
    "state_id": 1635,
    "state_code": "12",
    "country_id": 176,
    "country_code": "PL",
    "latitude": "49.52688000",
    "longitude": "19.67342000",
    "wikiDataId": null
  },
  {
    "id": 88734,
    "name": "Zubrzyca Górna",
    "state_id": 1635,
    "state_code": "12",
    "country_id": 176,
    "country_code": "PL",
    "latitude": "49.56174000",
    "longitude": "19.64973000",
    "wikiDataId": null
  },
  {
    "id": 88896,
    "name": "Żurowa",
    "state_id": 1635,
    "state_code": "12",
    "country_id": 176,
    "country_code": "PL",
    "latitude": "49.82636000",
    "longitude": "21.16894000",
    "wikiDataId": null
  }
]