[
  {
    "id": 10053,
    "name": "Abadia de Goiás",
    "state_id": 2000,
    "state_code": "GO",
    "country_id": 31,
    "country_code": "BR",
    "latitude": "-16.77762000",
    "longitude": "-49.46841000",
    "wikiDataId": null
  },
  {
    "id": 10055,
    "name": "Abadiânia",
    "state_id": 2000,
    "state_code": "GO",
    "country_id": 31,
    "country_code": "BR",
    "latitude": "-16.22632000",
    "longitude": "-48.62681000",
    "wikiDataId": null
  },
  {
    "id": 10079,
    "name": "Acreúna",
    "state_id": 2000,
    "state_code": "GO",
    "country_id": 31,
    "country_code": "BR",
    "latitude": "-17.43605000",
    "longitude": "-50.26696000",
    "wikiDataId": null
  },
  {
    "id": 10081,
    "name": "Adelândia",
    "state_id": 2000,
    "state_code": "GO",
    "country_id": 31,
    "country_code": "BR",
    "latitude": "-16.38577000",
    "longitude": "-50.18846000",
    "wikiDataId": null
  },
  {
    "id": 15660,
    "name": "Água Fria de Goiás",
    "state_id": 2000,
    "state_code": "GO",
    "country_id": 31,
    "country_code": "BR",
    "latitude": "-14.96056000",
    "longitude": "-47.84963000",
    "wikiDataId": null
  },
  {
    "id": 15661,
    "name": "Água Limpa",
    "state_id": 2000,
    "state_code": "GO",
    "country_id": 31,
    "country_code": "BR",
    "latitude": "-18.07999000",
    "longitude": "-48.79951000",
    "wikiDataId": null
  },
  {
    "id": 15668,
    "name": "Águas Lindas de Goiás",
    "state_id": 2000,
    "state_code": "GO",
    "country_id": 31,
    "country_code": "BR",
    "latitude": "-15.76613000",
    "longitude": "-48.28611000",
    "wikiDataId": null
  },
  {
    "id": 10129,
    "name": "Alexânia",
    "state_id": 2000,
    "state_code": "GO",
    "country_id": 31,
    "country_code": "BR",
    "latitude": "-16.14926000",
    "longitude": "-48.45973000",
    "wikiDataId": null
  },
  {
    "id": 10146,
    "name": "Aloândia",
    "state_id": 2000,
    "state_code": "GO",
    "country_id": 31,
    "country_code": "BR",
    "latitude": "-17.69411000",
    "longitude": "-49.44985000",
    "wikiDataId": null
  },
  {
    "id": 10171,
    "name": "Alto Horizonte",
    "state_id": 2000,
    "state_code": "GO",
    "country_id": 31,
    "country_code": "BR",
    "latitude": "-14.20236000",
    "longitude": "-49.43500000",
    "wikiDataId": null
  },
  {
    "id": 10178,
    "name": "Alto Paraíso de Goiás",
    "state_id": 2000,
    "state_code": "GO",
    "country_id": 31,
    "country_code": "BR",
    "latitude": "-14.18198000",
    "longitude": "-47.45902000",
    "wikiDataId": null
  },
  {
    "id": 10199,
    "name": "Alvorada do Norte",
    "state_id": 2000,
    "state_code": "GO",
    "country_id": 31,
    "country_code": "BR",
    "latitude": "-14.52424000",
    "longitude": "-46.64133000",
    "wikiDataId": null
  },
  {
    "id": 10208,
    "name": "Amaralina",
    "state_id": 2000,
    "state_code": "GO",
    "country_id": 31,
    "country_code": "BR",
    "latitude": "-13.81390000",
    "longitude": "-49.63205000",
    "wikiDataId": null
  },
  {
    "id": 10214,
    "name": "Americano do Brasil",
    "state_id": 2000,
    "state_code": "GO",
    "country_id": 31,
    "country_code": "BR",
    "latitude": "-16.26498000",
    "longitude": "-49.99408000",
    "wikiDataId": null
  },
  {
    "id": 10217,
    "name": "Amorinópolis",
    "state_id": 2000,
    "state_code": "GO",
    "country_id": 31,
    "country_code": "BR",
    "latitude": "-16.63420000",
    "longitude": "-51.09852000",
    "wikiDataId": null
  },
  {
    "id": 10282,
    "name": "Anápolis",
    "state_id": 2000,
    "state_code": "GO",
    "country_id": 31,
    "country_code": "BR",
    "latitude": "-16.32667000",
    "longitude": "-48.95278000",
    "wikiDataId": null
  },
  {
    "id": 10260,
    "name": "Anhanguera",
    "state_id": 2000,
    "state_code": "GO",
    "country_id": 31,
    "country_code": "BR",
    "latitude": "-18.31505000",
    "longitude": "-48.22190000",
    "wikiDataId": null
  },
  {
    "id": 10263,
    "name": "Anicuns",
    "state_id": 2000,
    "state_code": "GO",
    "country_id": 31,
    "country_code": "BR",
    "latitude": "-16.38582000",
    "longitude": "-49.97942000",
    "wikiDataId": null
  },
  {
    "id": 10287,
    "name": "Aparecida de Goiânia",
    "state_id": 2000,
    "state_code": "GO",
    "country_id": 31,
    "country_code": "BR",
    "latitude": "-16.82333000",
    "longitude": "-49.24389000",
    "wikiDataId": null
  },
  {
    "id": 10288,
    "name": "Aparecida do Rio Doce",
    "state_id": 2000,
    "state_code": "GO",
    "country_id": 31,
    "country_code": "BR",
    "latitude": "-18.22963000",
    "longitude": "-51.24140000",
    "wikiDataId": null
  },
  {
    "id": 10299,
    "name": "Aporé",
    "state_id": 2000,
    "state_code": "GO",
    "country_id": 31,
    "country_code": "BR",
    "latitude": "-18.74325000",
    "longitude": "-52.06942000",
    "wikiDataId": null
  },
  {
    "id": 10372,
    "name": "Araçu",
    "state_id": 2000,
    "state_code": "GO",
    "country_id": 31,
    "country_code": "BR",
    "latitude": "-16.38304000",
    "longitude": "-49.70782000",
    "wikiDataId": null
  },
  {
    "id": 10315,
    "name": "Aragarças",
    "state_id": 2000,
    "state_code": "GO",
    "country_id": 31,
    "country_code": "BR",
    "latitude": "-15.94743000",
    "longitude": "-52.08069000",
    "wikiDataId": null
  },
  {
    "id": 10316,
    "name": "Aragoiânia",
    "state_id": 2000,
    "state_code": "GO",
    "country_id": 31,
    "country_code": "BR",
    "latitude": "-16.95418000",
    "longitude": "-49.40598000",
    "wikiDataId": null
  },
  {
    "id": 10323,
    "name": "Araguapaz",
    "state_id": 2000,
    "state_code": "GO",
    "country_id": 31,
    "country_code": "BR",
    "latitude": "-15.12986000",
    "longitude": "-50.49840000",
    "wikiDataId": null
  },
  {
    "id": 10391,
    "name": "Arenópolis",
    "state_id": 2000,
    "state_code": "GO",
    "country_id": 31,
    "country_code": "BR",
    "latitude": "-16.36096000",
    "longitude": "-51.60464000",
    "wikiDataId": null
  },
  {
    "id": 10418,
    "name": "Aruanã",
    "state_id": 2000,
    "state_code": "GO",
    "country_id": 31,
    "country_code": "BR",
    "latitude": "-14.81020000",
    "longitude": "-50.94501000",
    "wikiDataId": null
  },
  {
    "id": 10449,
    "name": "Aurilândia",
    "state_id": 2000,
    "state_code": "GO",
    "country_id": 31,
    "country_code": "BR",
    "latitude": "-16.67681000",
    "longitude": "-50.52582000",
    "wikiDataId": null
  },
  {
    "id": 10460,
    "name": "Avelinópolis",
    "state_id": 2000,
    "state_code": "GO",
    "country_id": 31,
    "country_code": "BR",
    "latitude": "-16.49121000",
    "longitude": "-49.76368000",
    "wikiDataId": null
  },
  {
    "id": 10483,
    "name": "Baliza",
    "state_id": 2000,
    "state_code": "GO",
    "country_id": 31,
    "country_code": "BR",
    "latitude": "-16.36672000",
    "longitude": "-52.43611000",
    "wikiDataId": null
  },
  {
    "id": 10561,
    "name": "Barro Alto",
    "state_id": 2000,
    "state_code": "GO",
    "country_id": 31,
    "country_code": "BR",
    "latitude": "-14.91276000",
    "longitude": "-48.87739000",
    "wikiDataId": null
  },
  {
    "id": 10596,
    "name": "Bela Vista de Goiás",
    "state_id": 2000,
    "state_code": "GO",
    "country_id": 31,
    "country_code": "BR",
    "latitude": "-16.97278000",
    "longitude": "-48.95333000",
    "wikiDataId": null
  },
  {
    "id": 10696,
    "name": "Bom Jardim de Goiás",
    "state_id": 2000,
    "state_code": "GO",
    "country_id": 31,
    "country_code": "BR",
    "latitude": "-16.27033000",
    "longitude": "-52.05682000",
    "wikiDataId": null
  },
  {
    "id": 10707,
    "name": "Bom Jesus de Goiás",
    "state_id": 2000,
    "state_code": "GO",
    "country_id": 31,
    "country_code": "BR",
    "latitude": "-18.19213000",
    "longitude": "-49.89536000",
    "wikiDataId": null
  },
  {
    "id": 10733,
    "name": "Bonfinópolis",
    "state_id": 2000,
    "state_code": "GO",
    "country_id": 31,
    "country_code": "BR",
    "latitude": "-16.59726000",
    "longitude": "-49.01486000",
    "wikiDataId": null
  },
  {
    "id": 10742,
    "name": "Bonópolis",
    "state_id": 2000,
    "state_code": "GO",
    "country_id": 31,
    "country_code": "BR",
    "latitude": "-13.57725000",
    "longitude": "-49.89702000",
    "wikiDataId": null
  },
  {
    "id": 10778,
    "name": "Brazabrantes",
    "state_id": 2000,
    "state_code": "GO",
    "country_id": 31,
    "country_code": "BR",
    "latitude": "-16.37909000",
    "longitude": "-49.38445000",
    "wikiDataId": null
  },
  {
    "id": 10803,
    "name": "Britânia",
    "state_id": 2000,
    "state_code": "GO",
    "country_id": 31,
    "country_code": "BR",
    "latitude": "-15.21115000",
    "longitude": "-51.14785000",
    "wikiDataId": null
  },
  {
    "id": 10824,
    "name": "Buriti Alegre",
    "state_id": 2000,
    "state_code": "GO",
    "country_id": 31,
    "country_code": "BR",
    "latitude": "-18.14000000",
    "longitude": "-49.04028000",
    "wikiDataId": null
  },
  {
    "id": 10826,
    "name": "Buriti de Goiás",
    "state_id": 2000,
    "state_code": "GO",
    "country_id": 31,
    "country_code": "BR",
    "latitude": "-16.16439000",
    "longitude": "-50.42918000",
    "wikiDataId": null
  },
  {
    "id": 10831,
    "name": "Buritinópolis",
    "state_id": 2000,
    "state_code": "GO",
    "country_id": 31,
    "country_code": "BR",
    "latitude": "-14.40974000",
    "longitude": "-46.31759000",
    "wikiDataId": null
  },
  {
    "id": 10848,
    "name": "Cabeceiras",
    "state_id": 2000,
    "state_code": "GO",
    "country_id": 31,
    "country_code": "BR",
    "latitude": "-15.73747000",
    "longitude": "-47.03428000",
    "wikiDataId": null
  },
  {
    "id": 10862,
    "name": "Cachoeira Alta",
    "state_id": 2000,
    "state_code": "GO",
    "country_id": 31,
    "country_code": "BR",
    "latitude": "-18.54284000",
    "longitude": "-50.98208000",
    "wikiDataId": null
  },
  {
    "id": 10868,
    "name": "Cachoeira de Goiás",
    "state_id": 2000,
    "state_code": "GO",
    "country_id": 31,
    "country_code": "BR",
    "latitude": "-16.72507000",
    "longitude": "-50.68613000",
    "wikiDataId": null
  },
  {
    "id": 10864,
    "name": "Cachoeira Dourada",
    "state_id": 2000,
    "state_code": "GO",
    "country_id": 31,
    "country_code": "BR",
    "latitude": "-18.49516000",
    "longitude": "-49.65104000",
    "wikiDataId": null
  },
  {
    "id": 11224,
    "name": "Caçu",
    "state_id": 2000,
    "state_code": "GO",
    "country_id": 31,
    "country_code": "BR",
    "latitude": "-18.55667000",
    "longitude": "-51.13083000",
    "wikiDataId": null
  },
  {
    "id": 10900,
    "name": "Caiapônia",
    "state_id": 2000,
    "state_code": "GO",
    "country_id": 31,
    "country_code": "BR",
    "latitude": "-16.95987000",
    "longitude": "-51.79148000",
    "wikiDataId": null
  },
  {
    "id": 10925,
    "name": "Caldas Novas",
    "state_id": 2000,
    "state_code": "GO",
    "country_id": 31,
    "country_code": "BR",
    "latitude": "-17.73126000",
    "longitude": "-48.65479000",
    "wikiDataId": null
  },
  {
    "id": 10926,
    "name": "Caldazinha",
    "state_id": 2000,
    "state_code": "GO",
    "country_id": 31,
    "country_code": "BR",
    "latitude": "-16.74858000",
    "longitude": "-49.00064000",
    "wikiDataId": null
  },
  {
    "id": 10960,
    "name": "Campestre de Goiás",
    "state_id": 2000,
    "state_code": "GO",
    "country_id": 31,
    "country_code": "BR",
    "latitude": "-16.78337000",
    "longitude": "-49.70958000",
    "wikiDataId": null
  },
  {
    "id": 10973,
    "name": "Campinaçu",
    "state_id": 2000,
    "state_code": "GO",
    "country_id": 31,
    "country_code": "BR",
    "latitude": "-13.86371000",
    "longitude": "-48.56754000",
    "wikiDataId": null
  },
  {
    "id": 10974,
    "name": "Campinorte",
    "state_id": 2000,
    "state_code": "GO",
    "country_id": 31,
    "country_code": "BR",
    "latitude": "-14.04500000",
    "longitude": "-48.97524000",
    "wikiDataId": null
  },
  {
    "id": 10978,
    "name": "Campo Alegre de Goiás",
    "state_id": 2000,
    "state_code": "GO",
    "country_id": 31,
    "country_code": "BR",
    "latitude": "-17.67336000",
    "longitude": "-47.77801000",
    "wikiDataId": null
  },
  {
    "id": 10995,
    "name": "Campo Limpo de Goiás",
    "state_id": 2000,
    "state_code": "GO",
    "country_id": 31,
    "country_code": "BR",
    "latitude": "-16.30048000",
    "longitude": "-49.09041000",
    "wikiDataId": null
  },
  {
    "id": 11009,
    "name": "Campos Belos",
    "state_id": 2000,
    "state_code": "GO",
    "country_id": 31,
    "country_code": "BR",
    "latitude": "-13.03667000",
    "longitude": "-46.77167000",
    "wikiDataId": null
  },
  {
    "id": 11016,
    "name": "Campos Verdes",
    "state_id": 2000,
    "state_code": "GO",
    "country_id": 31,
    "country_code": "BR",
    "latitude": "-14.19022000",
    "longitude": "-49.65835000",
    "wikiDataId": null
  },
  {
    "id": 11149,
    "name": "Carmo do Rio Verde",
    "state_id": 2000,
    "state_code": "GO",
    "country_id": 31,
    "country_code": "BR",
    "latitude": "-15.35361000",
    "longitude": "-49.70750000",
    "wikiDataId": null
  },
  {
    "id": 11189,
    "name": "Castelândia",
    "state_id": 2000,
    "state_code": "GO",
    "country_id": 31,
    "country_code": "BR",
    "latitude": "-18.15581000",
    "longitude": "-50.34000000",
    "wikiDataId": null
  },
  {
    "id": 11194,
    "name": "Catalão",
    "state_id": 2000,
    "state_code": "GO",
    "country_id": 31,
    "country_code": "BR",
    "latitude": "-18.16583000",
    "longitude": "-47.94639000",
    "wikiDataId": null
  },
  {
    "id": 11210,
    "name": "Caturaí",
    "state_id": 2000,
    "state_code": "GO",
    "country_id": 31,
    "country_code": "BR",
    "latitude": "-16.46981000",
    "longitude": "-49.59556000",
    "wikiDataId": null
  },
  {
    "id": 11215,
    "name": "Cavalcante",
    "state_id": 2000,
    "state_code": "GO",
    "country_id": 31,
    "country_code": "BR",
    "latitude": "-13.79750000",
    "longitude": "-47.45833000",
    "wikiDataId": null
  },
  {
    "id": 11245,
    "name": "Ceres",
    "state_id": 2000,
    "state_code": "GO",
    "country_id": 31,
    "country_code": "BR",
    "latitude": "-15.27350000",
    "longitude": "-49.64455000",
    "wikiDataId": null
  },
  {
    "id": 11257,
    "name": "Cezarina",
    "state_id": 2000,
    "state_code": "GO",
    "country_id": 31,
    "country_code": "BR",
    "latitude": "-17.11818000",
    "longitude": "-49.72995000",
    "wikiDataId": null
  },
  {
    "id": 11266,
    "name": "Chapadão do Céu",
    "state_id": 2000,
    "state_code": "GO",
    "country_id": 31,
    "country_code": "BR",
    "latitude": "-18.37043000",
    "longitude": "-52.56560000",
    "wikiDataId": null
  },
  {
    "id": 11291,
    "name": "Cidade Ocidental",
    "state_id": 2000,
    "state_code": "GO",
    "country_id": 31,
    "country_code": "BR",
    "latitude": "-16.16178000",
    "longitude": "-47.79998000",
    "wikiDataId": null
  },
  {
    "id": 11311,
    "name": "Cocalzinho de Goiás",
    "state_id": 2000,
    "state_code": "GO",
    "country_id": 31,
    "country_code": "BR",
    "latitude": "-15.65900000",
    "longitude": "-48.57595000",
    "wikiDataId": null
  },
  {
    "id": 11324,
    "name": "Colinas do Sul",
    "state_id": 2000,
    "state_code": "GO",
    "country_id": 31,
    "country_code": "BR",
    "latitude": "-14.01221000",
    "longitude": "-48.05124000",
    "wikiDataId": null
  },
  {
    "id": 11557,
    "name": "Córrego do Ouro",
    "state_id": 2000,
    "state_code": "GO",
    "country_id": 31,
    "country_code": "BR",
    "latitude": "-16.39566000",
    "longitude": "-50.57320000",
    "wikiDataId": null
  },
  {
    "id": 11443,
    "name": "Corumbá de Goiás",
    "state_id": 2000,
    "state_code": "GO",
    "country_id": 31,
    "country_code": "BR",
    "latitude": "-15.92190000",
    "longitude": "-48.62979000",
    "wikiDataId": null
  },
  {
    "id": 11440,
    "name": "Corumbaíba",
    "state_id": 2000,
    "state_code": "GO",
    "country_id": 31,
    "country_code": "BR",
    "latitude": "-18.16664000",
    "longitude": "-48.53205000",
    "wikiDataId": null
  },
  {
    "id": 11471,
    "name": "Cristalina",
    "state_id": 2000,
    "state_code": "GO",
    "country_id": 31,
    "country_code": "BR",
    "latitude": "-16.76769000",
    "longitude": "-47.61530000",
    "wikiDataId": null
  },
  {
    "id": 11475,
    "name": "Cristianópolis",
    "state_id": 2000,
    "state_code": "GO",
    "country_id": 31,
    "country_code": "BR",
    "latitude": "-17.19669000",
    "longitude": "-48.68114000",
    "wikiDataId": null
  },
  {
    "id": 11483,
    "name": "Crixás",
    "state_id": 2000,
    "state_code": "GO",
    "country_id": 31,
    "country_code": "BR",
    "latitude": "-14.54889000",
    "longitude": "-49.96917000",
    "wikiDataId": null
  },
  {
    "id": 11486,
    "name": "Cromínia",
    "state_id": 2000,
    "state_code": "GO",
    "country_id": 31,
    "country_code": "BR",
    "latitude": "-17.24762000",
    "longitude": "-49.32979000",
    "wikiDataId": null
  },
  {
    "id": 11512,
    "name": "Cumari",
    "state_id": 2000,
    "state_code": "GO",
    "country_id": 31,
    "country_code": "BR",
    "latitude": "-18.31597000",
    "longitude": "-48.16375000",
    "wikiDataId": null
  },
  {
    "id": 11559,
    "name": "Damianópolis",
    "state_id": 2000,
    "state_code": "GO",
    "country_id": 31,
    "country_code": "BR",
    "latitude": "-14.54949000",
    "longitude": "-46.19367000",
    "wikiDataId": null
  },
  {
    "id": 11561,
    "name": "Damolândia",
    "state_id": 2000,
    "state_code": "GO",
    "country_id": 31,
    "country_code": "BR",
    "latitude": "-16.25109000",
    "longitude": "-49.34505000",
    "wikiDataId": null
  },
  {
    "id": 11566,
    "name": "Davinópolis",
    "state_id": 2000,
    "state_code": "GO",
    "country_id": 31,
    "country_code": "BR",
    "latitude": "-18.13603000",
    "longitude": "-47.57750000",
    "wikiDataId": null
  },
  {
    "id": 11596,
    "name": "Diorama",
    "state_id": 2000,
    "state_code": "GO",
    "country_id": 31,
    "country_code": "BR",
    "latitude": "-16.22318000",
    "longitude": "-51.34971000",
    "wikiDataId": null
  },
  {
    "id": 11607,
    "name": "Divinópolis de Goiás",
    "state_id": 2000,
    "state_code": "GO",
    "country_id": 31,
    "country_code": "BR",
    "latitude": "-13.22378000",
    "longitude": "-46.52704000",
    "wikiDataId": null
  },
  {
    "id": 11661,
    "name": "Doverlândia",
    "state_id": 2000,
    "state_code": "GO",
    "country_id": 31,
    "country_code": "BR",
    "latitude": "-16.87767000",
    "longitude": "-52.49917000",
    "wikiDataId": null
  },
  {
    "id": 11674,
    "name": "Edealina",
    "state_id": 2000,
    "state_code": "GO",
    "country_id": 31,
    "country_code": "BR",
    "latitude": "-17.43990000",
    "longitude": "-49.73319000",
    "wikiDataId": null
  },
  {
    "id": 11675,
    "name": "Edéia",
    "state_id": 2000,
    "state_code": "GO",
    "country_id": 31,
    "country_code": "BR",
    "latitude": "-17.33833000",
    "longitude": "-49.93139000",
    "wikiDataId": null
  },
  {
    "id": 11755,
    "name": "Estrela do Norte",
    "state_id": 2000,
    "state_code": "GO",
    "country_id": 31,
    "country_code": "BR",
    "latitude": "-13.78262000",
    "longitude": "-49.10026000",
    "wikiDataId": null
  },
  {
    "id": 11772,
    "name": "Faina",
    "state_id": 2000,
    "state_code": "GO",
    "country_id": 31,
    "country_code": "BR",
    "latitude": "-15.43697000",
    "longitude": "-50.39151000",
    "wikiDataId": null
  },
  {
    "id": 11785,
    "name": "Fazenda Nova",
    "state_id": 2000,
    "state_code": "GO",
    "country_id": 31,
    "country_code": "BR",
    "latitude": "-16.12866000",
    "longitude": "-50.92604000",
    "wikiDataId": null
  },
  {
    "id": 11823,
    "name": "Firminópolis",
    "state_id": 2000,
    "state_code": "GO",
    "country_id": 31,
    "country_code": "BR",
    "latitude": "-16.58194000",
    "longitude": "-50.30500000",
    "wikiDataId": null
  },
  {
    "id": 11832,
    "name": "Flores de Goiás",
    "state_id": 2000,
    "state_code": "GO",
    "country_id": 31,
    "country_code": "BR",
    "latitude": "-14.59003000",
    "longitude": "-46.87853000",
    "wikiDataId": null
  },
  {
    "id": 11852,
    "name": "Formosa",
    "state_id": 2000,
    "state_code": "GO",
    "country_id": 31,
    "country_code": "BR",
    "latitude": "-15.53722000",
    "longitude": "-47.33444000",
    "wikiDataId": null
  },
  {
    "id": 11858,
    "name": "Formoso",
    "state_id": 2000,
    "state_code": "GO",
    "country_id": 31,
    "country_code": "BR",
    "latitude": "-13.70339000",
    "longitude": "-48.87538000",
    "wikiDataId": null
  },
  {
    "id": 11916,
    "name": "Gameleira de Goiás",
    "state_id": 2000,
    "state_code": "GO",
    "country_id": 31,
    "country_code": "BR",
    "latitude": "-16.43131000",
    "longitude": "-48.67456000",
    "wikiDataId": null
  },
  {
    "id": 11963,
    "name": "Goianápolis",
    "state_id": 2000,
    "state_code": "GO",
    "country_id": 31,
    "country_code": "BR",
    "latitude": "-16.53041000",
    "longitude": "-49.08769000",
    "wikiDataId": null
  },
  {
    "id": 11958,
    "name": "Goiandira",
    "state_id": 2000,
    "state_code": "GO",
    "country_id": 31,
    "country_code": "BR",
    "latitude": "-18.10979000",
    "longitude": "-48.14934000",
    "wikiDataId": null
  },
  {
    "id": 11964,
    "name": "Goianésia",
    "state_id": 2000,
    "state_code": "GO",
    "country_id": 31,
    "country_code": "BR",
    "latitude": "-15.31750000",
    "longitude": "-49.11750000",
    "wikiDataId": null
  },
  {
    "id": 11971,
    "name": "Goiânia",
    "state_id": 2000,
    "state_code": "GO",
    "country_id": 31,
    "country_code": "BR",
    "latitude": "-16.67861000",
    "longitude": "-49.25389000",
    "wikiDataId": null
  },
  {
    "id": 11960,
    "name": "Goianira",
    "state_id": 2000,
    "state_code": "GO",
    "country_id": 31,
    "country_code": "BR",
    "latitude": "-16.49611000",
    "longitude": "-49.42639000",
    "wikiDataId": null
  },
  {
    "id": 11970,
    "name": "Goiás",
    "state_id": 2000,
    "state_code": "GO",
    "country_id": 31,
    "country_code": "BR",
    "latitude": "-15.93444000",
    "longitude": "-50.14028000",
    "wikiDataId": null
  },
  {
    "id": 11967,
    "name": "Goiatuba",
    "state_id": 2000,
    "state_code": "GO",
    "country_id": 31,
    "country_code": "BR",
    "latitude": "-18.01250000",
    "longitude": "-49.35472000",
    "wikiDataId": null
  },
  {
    "id": 11977,
    "name": "Gouvelândia",
    "state_id": 2000,
    "state_code": "GO",
    "country_id": 31,
    "country_code": "BR",
    "latitude": "-18.50777000",
    "longitude": "-50.17554000",
    "wikiDataId": null
  },
  {
    "id": 12033,
    "name": "Guapó",
    "state_id": 2000,
    "state_code": "GO",
    "country_id": 31,
    "country_code": "BR",
    "latitude": "-16.83056000",
    "longitude": "-49.53194000",
    "wikiDataId": null
  },
  {
    "id": 12062,
    "name": "Guaraíta",
    "state_id": 2000,
    "state_code": "GO",
    "country_id": 31,
    "country_code": "BR",
    "latitude": "-15.65961000",
    "longitude": "-50.06663000",
    "wikiDataId": null
  },
  {
    "id": 12046,
    "name": "Guarani de Goiás",
    "state_id": 2000,
    "state_code": "GO",
    "country_id": 31,
    "country_code": "BR",
    "latitude": "-13.88485000",
    "longitude": "-46.50711000",
    "wikiDataId": null
  },
  {
    "id": 12067,
    "name": "Guarinos",
    "state_id": 2000,
    "state_code": "GO",
    "country_id": 31,
    "country_code": "BR",
    "latitude": "-14.69976000",
    "longitude": "-49.73100000",
    "wikiDataId": null
  },
  {
    "id": 12093,
    "name": "Heitoraí",
    "state_id": 2000,
    "state_code": "GO",
    "country_id": 31,
    "country_code": "BR",
    "latitude": "-15.73416000",
    "longitude": "-49.83108000",
    "wikiDataId": null
  },
  {
    "id": 12102,
    "name": "Hidrolândia",
    "state_id": 2000,
    "state_code": "GO",
    "country_id": 31,
    "country_code": "BR",
    "latitude": "-16.96222000",
    "longitude": "-49.22806000",
    "wikiDataId": null
  },
  {
    "id": 12100,
    "name": "Hidrolina",
    "state_id": 2000,
    "state_code": "GO",
    "country_id": 31,
    "country_code": "BR",
    "latitude": "-14.75739000",
    "longitude": "-49.35965000",
    "wikiDataId": null
  },
  {
    "id": 12114,
    "name": "Iaciara",
    "state_id": 2000,
    "state_code": "GO",
    "country_id": 31,
    "country_code": "BR",
    "latitude": "-14.09583000",
    "longitude": "-46.63167000",
    "wikiDataId": null
  },
  {
    "id": 12227,
    "name": "Inaciolândia",
    "state_id": 2000,
    "state_code": "GO",
    "country_id": 31,
    "country_code": "BR",
    "latitude": "-18.49889000",
    "longitude": "-49.90164000",
    "wikiDataId": null
  },
  {
    "id": 12240,
    "name": "Indiara",
    "state_id": 2000,
    "state_code": "GO",
    "country_id": 31,
    "country_code": "BR",
    "latitude": "-17.18504000",
    "longitude": "-49.96826000",
    "wikiDataId": null
  },
  {
    "id": 12253,
    "name": "Inhumas",
    "state_id": 2000,
    "state_code": "GO",
    "country_id": 31,
    "country_code": "BR",
    "latitude": "-16.35778000",
    "longitude": "-49.49611000",
    "wikiDataId": null
  },
  {
    "id": 12260,
    "name": "Ipameri",
    "state_id": 2000,
    "state_code": "GO",
    "country_id": 31,
    "country_code": "BR",
    "latitude": "-17.72194000",
    "longitude": "-48.15972000",
    "wikiDataId": null
  },
  {
    "id": 12276,
    "name": "Ipiranga de Goiás",
    "state_id": 2000,
    "state_code": "GO",
    "country_id": 31,
    "country_code": "BR",
    "latitude": "-15.16876000",
    "longitude": "-49.65047000",
    "wikiDataId": null
  },
  {
    "id": 12285,
    "name": "Iporá",
    "state_id": 2000,
    "state_code": "GO",
    "country_id": 31,
    "country_code": "BR",
    "latitude": "-16.45543000",
    "longitude": "-51.15977000",
    "wikiDataId": null
  },
  {
    "id": 12323,
    "name": "Israelândia",
    "state_id": 2000,
    "state_code": "GO",
    "country_id": 31,
    "country_code": "BR",
    "latitude": "-16.35776000",
    "longitude": "-50.89499000",
    "wikiDataId": null
  },
  {
    "id": 12330,
    "name": "Itaberaí",
    "state_id": 2000,
    "state_code": "GO",
    "country_id": 31,
    "country_code": "BR",
    "latitude": "-16.02028000",
    "longitude": "-49.81028000",
    "wikiDataId": null
  },
  {
    "id": 12352,
    "name": "Itaguari",
    "state_id": 2000,
    "state_code": "GO",
    "country_id": 31,
    "country_code": "BR",
    "latitude": "-15.91179000",
    "longitude": "-49.61834000",
    "wikiDataId": null
  },
  {
    "id": 12353,
    "name": "Itaguaru",
    "state_id": 2000,
    "state_code": "GO",
    "country_id": 31,
    "country_code": "BR",
    "latitude": "-15.76944000",
    "longitude": "-49.60042000",
    "wikiDataId": null
  },
  {
    "id": 12373,
    "name": "Itajá",
    "state_id": 2000,
    "state_code": "GO",
    "country_id": 31,
    "country_code": "BR",
    "latitude": "-19.11554000",
    "longitude": "-51.24473000",
    "wikiDataId": null
  },
  {
    "id": 12398,
    "name": "Itapaci",
    "state_id": 2000,
    "state_code": "GO",
    "country_id": 31,
    "country_code": "BR",
    "latitude": "-14.95083000",
    "longitude": "-49.54944000",
    "wikiDataId": null
  },
  {
    "id": 12423,
    "name": "Itapirapuã",
    "state_id": 2000,
    "state_code": "GO",
    "country_id": 31,
    "country_code": "BR",
    "latitude": "-15.82333000",
    "longitude": "-50.61333000",
    "wikiDataId": null
  },
  {
    "id": 12438,
    "name": "Itapuranga",
    "state_id": 2000,
    "state_code": "GO",
    "country_id": 31,
    "country_code": "BR",
    "latitude": "-15.56944000",
    "longitude": "-49.93481000",
    "wikiDataId": null
  },
  {
    "id": 12452,
    "name": "Itarumã",
    "state_id": 2000,
    "state_code": "GO",
    "country_id": 31,
    "country_code": "BR",
    "latitude": "-18.87992000",
    "longitude": "-51.32023000",
    "wikiDataId": null
  },
  {
    "id": 12464,
    "name": "Itauçu",
    "state_id": 2000,
    "state_code": "GO",
    "country_id": 31,
    "country_code": "BR",
    "latitude": "-16.21434000",
    "longitude": "-49.60066000",
    "wikiDataId": null
  },
  {
    "id": 12487,
    "name": "Itumbiara",
    "state_id": 2000,
    "state_code": "GO",
    "country_id": 31,
    "country_code": "BR",
    "latitude": "-18.41917000",
    "longitude": "-49.21528000",
    "wikiDataId": null
  },
  {
    "id": 12503,
    "name": "Ivolândia",
    "state_id": 2000,
    "state_code": "GO",
    "country_id": 31,
    "country_code": "BR",
    "latitude": "-16.68830000",
    "longitude": "-50.92660000",
    "wikiDataId": null
  },
  {
    "id": 12556,
    "name": "Jandaia",
    "state_id": 2000,
    "state_code": "GO",
    "country_id": 31,
    "country_code": "BR",
    "latitude": "-17.12900000",
    "longitude": "-50.19476000",
    "wikiDataId": null
  },
  {
    "id": 12580,
    "name": "Jaraguá",
    "state_id": 2000,
    "state_code": "GO",
    "country_id": 31,
    "country_code": "BR",
    "latitude": "-15.75694000",
    "longitude": "-49.33444000",
    "wikiDataId": null
  },
  {
    "id": 12598,
    "name": "Jataí",
    "state_id": 2000,
    "state_code": "GO",
    "country_id": 31,
    "country_code": "BR",
    "latitude": "-17.85829000",
    "longitude": "-51.70531000",
    "wikiDataId": null
  },
  {
    "id": 12605,
    "name": "Jaupaci",
    "state_id": 2000,
    "state_code": "GO",
    "country_id": 31,
    "country_code": "BR",
    "latitude": "-16.16749000",
    "longitude": "-51.10168000",
    "wikiDataId": null
  },
  {
    "id": 12627,
    "name": "Jesúpolis",
    "state_id": 2000,
    "state_code": "GO",
    "country_id": 31,
    "country_code": "BR",
    "latitude": "-15.96458000",
    "longitude": "-49.39461000",
    "wikiDataId": null
  },
  {
    "id": 12656,
    "name": "Joviânia",
    "state_id": 2000,
    "state_code": "GO",
    "country_id": 31,
    "country_code": "BR",
    "latitude": "-17.78422000",
    "longitude": "-49.58440000",
    "wikiDataId": null
  },
  {
    "id": 12707,
    "name": "Jussara",
    "state_id": 2000,
    "state_code": "GO",
    "country_id": 31,
    "country_code": "BR",
    "latitude": "-15.58295000",
    "longitude": "-51.32970000",
    "wikiDataId": null
  },
  {
    "id": 12745,
    "name": "Lagoa Santa",
    "state_id": 2000,
    "state_code": "GO",
    "country_id": 31,
    "country_code": "BR",
    "latitude": "-19.21207000",
    "longitude": "-51.25891000",
    "wikiDataId": null
  },
  {
    "id": 12821,
    "name": "Leopoldo de Bulhões",
    "state_id": 2000,
    "state_code": "GO",
    "country_id": 31,
    "country_code": "BR",
    "latitude": "-16.58142000",
    "longitude": "-48.90604000",
    "wikiDataId": null
  },
  {
    "id": 12877,
    "name": "Luziânia",
    "state_id": 2000,
    "state_code": "GO",
    "country_id": 31,
    "country_code": "BR",
    "latitude": "-16.25250000",
    "longitude": "-47.95028000",
    "wikiDataId": null
  },
  {
    "id": 12919,
    "name": "Mairipotaba",
    "state_id": 2000,
    "state_code": "GO",
    "country_id": 31,
    "country_code": "BR",
    "latitude": "-17.32688000",
    "longitude": "-49.50788000",
    "wikiDataId": null
  },
  {
    "id": 12932,
    "name": "Mambaí",
    "state_id": 2000,
    "state_code": "GO",
    "country_id": 31,
    "country_code": "BR",
    "latitude": "-14.44220000",
    "longitude": "-46.05807000",
    "wikiDataId": null
  },
  {
    "id": 12963,
    "name": "Mara Rosa",
    "state_id": 2000,
    "state_code": "GO",
    "country_id": 31,
    "country_code": "BR",
    "latitude": "-14.01285000",
    "longitude": "-49.39507000",
    "wikiDataId": null
  },
  {
    "id": 13038,
    "name": "Marzagão",
    "state_id": 2000,
    "state_code": "GO",
    "country_id": 31,
    "country_code": "BR",
    "latitude": "-17.99103000",
    "longitude": "-48.68316000",
    "wikiDataId": null
  },
  {
    "id": 13072,
    "name": "Matrinchã",
    "state_id": 2000,
    "state_code": "GO",
    "country_id": 31,
    "country_code": "BR",
    "latitude": "-15.33819000",
    "longitude": "-50.82655000",
    "wikiDataId": null
  },
  {
    "id": 13080,
    "name": "Maurilândia",
    "state_id": 2000,
    "state_code": "GO",
    "country_id": 31,
    "country_code": "BR",
    "latitude": "-18.05037000",
    "longitude": "-50.32935000",
    "wikiDataId": null
  },
  {
    "id": 13119,
    "name": "Mimoso de Goiás",
    "state_id": 2000,
    "state_code": "GO",
    "country_id": 31,
    "country_code": "BR",
    "latitude": "-15.04832000",
    "longitude": "-48.34448000",
    "wikiDataId": null
  },
  {
    "id": 13124,
    "name": "Minaçu",
    "state_id": 2000,
    "state_code": "GO",
    "country_id": 31,
    "country_code": "BR",
    "latitude": "-13.42682000",
    "longitude": "-48.38780000",
    "wikiDataId": null
  },
  {
    "id": 13126,
    "name": "Mineiros",
    "state_id": 2000,
    "state_code": "GO",
    "country_id": 31,
    "country_code": "BR",
    "latitude": "-17.56944000",
    "longitude": "-52.55111000",
    "wikiDataId": null
  },
  {
    "id": 13168,
    "name": "Moiporá",
    "state_id": 2000,
    "state_code": "GO",
    "country_id": 31,
    "country_code": "BR",
    "latitude": "-16.50172000",
    "longitude": "-50.76811000",
    "wikiDataId": null
  },
  {
    "id": 13188,
    "name": "Monte Alegre de Goiás",
    "state_id": 2000,
    "state_code": "GO",
    "country_id": 31,
    "country_code": "BR",
    "latitude": "-13.26150000",
    "longitude": "-46.84266000",
    "wikiDataId": null
  },
  {
    "id": 13221,
    "name": "Montes Claros de Goiás",
    "state_id": 2000,
    "state_code": "GO",
    "country_id": 31,
    "country_code": "BR",
    "latitude": "-15.96248000",
    "longitude": "-51.50601000",
    "wikiDataId": null
  },
  {
    "id": 13223,
    "name": "Montividiu",
    "state_id": 2000,
    "state_code": "GO",
    "country_id": 31,
    "country_code": "BR",
    "latitude": "-17.25815000",
    "longitude": "-51.15739000",
    "wikiDataId": null
  },
  {
    "id": 13224,
    "name": "Montividiu do Norte",
    "state_id": 2000,
    "state_code": "GO",
    "country_id": 31,
    "country_code": "BR",
    "latitude": "-13.09232000",
    "longitude": "-48.74161000",
    "wikiDataId": null
  },
  {
    "id": 13237,
    "name": "Morrinhos",
    "state_id": 2000,
    "state_code": "GO",
    "country_id": 31,
    "country_code": "BR",
    "latitude": "-17.79922000",
    "longitude": "-49.09225000",
    "wikiDataId": null
  },
  {
    "id": 13240,
    "name": "Morro Agudo de Goiás",
    "state_id": 2000,
    "state_code": "GO",
    "country_id": 31,
    "country_code": "BR",
    "latitude": "-15.32310000",
    "longitude": "-50.01578000",
    "wikiDataId": null
  },
  {
    "id": 13255,
    "name": "Mossâmedes",
    "state_id": 2000,
    "state_code": "GO",
    "country_id": 31,
    "country_code": "BR",
    "latitude": "-16.16495000",
    "longitude": "-50.17004000",
    "wikiDataId": null
  },
  {
    "id": 13258,
    "name": "Mozarlândia",
    "state_id": 2000,
    "state_code": "GO",
    "country_id": 31,
    "country_code": "BR",
    "latitude": "-14.74472000",
    "longitude": "-50.57056000",
    "wikiDataId": null
  },
  {
    "id": 13271,
    "name": "Mundo Novo",
    "state_id": 2000,
    "state_code": "GO",
    "country_id": 31,
    "country_code": "BR",
    "latitude": "-13.71649000",
    "longitude": "-50.23715000",
    "wikiDataId": null
  },
  {
    "id": 13286,
    "name": "Mutunópolis",
    "state_id": 2000,
    "state_code": "GO",
    "country_id": 31,
    "country_code": "BR",
    "latitude": "-13.70257000",
    "longitude": "-49.29995000",
    "wikiDataId": null
  },
  {
    "id": 13316,
    "name": "Nazário",
    "state_id": 2000,
    "state_code": "GO",
    "country_id": 31,
    "country_code": "BR",
    "latitude": "-16.58010000",
    "longitude": "-49.86543000",
    "wikiDataId": null
  },
  {
    "id": 13318,
    "name": "Nerópolis",
    "state_id": 2000,
    "state_code": "GO",
    "country_id": 31,
    "country_code": "BR",
    "latitude": "-16.43883000",
    "longitude": "-49.18117000",
    "wikiDataId": null
  },
  {
    "id": 13330,
    "name": "Niquelândia",
    "state_id": 2000,
    "state_code": "GO",
    "country_id": 31,
    "country_code": "BR",
    "latitude": "-14.47389000",
    "longitude": "-48.45972000",
    "wikiDataId": null
  },
  {
    "id": 13349,
    "name": "Nova América",
    "state_id": 2000,
    "state_code": "GO",
    "country_id": 31,
    "country_code": "BR",
    "latitude": "-15.05098000",
    "longitude": "-49.92499000",
    "wikiDataId": null
  },
  {
    "id": 13354,
    "name": "Nova Aurora",
    "state_id": 2000,
    "state_code": "GO",
    "country_id": 31,
    "country_code": "BR",
    "latitude": "-18.10107000",
    "longitude": "-48.27661000",
    "wikiDataId": null
  },
  {
    "id": 13370,
    "name": "Nova Crixás",
    "state_id": 2000,
    "state_code": "GO",
    "country_id": 31,
    "country_code": "BR",
    "latitude": "-14.27678000",
    "longitude": "-50.57649000",
    "wikiDataId": null
  },
  {
    "id": 13383,
    "name": "Nova Glória",
    "state_id": 2000,
    "state_code": "GO",
    "country_id": 31,
    "country_code": "BR",
    "latitude": "-15.06360000",
    "longitude": "-49.48353000",
    "wikiDataId": null
  },
  {
    "id": 13390,
    "name": "Nova Iguaçu de Goiás",
    "state_id": 2000,
    "state_code": "GO",
    "country_id": 31,
    "country_code": "BR",
    "latitude": "-14.29731000",
    "longitude": "-49.31188000",
    "wikiDataId": null
  },
  {
    "id": 13427,
    "name": "Nova Roma",
    "state_id": 2000,
    "state_code": "GO",
    "country_id": 31,
    "country_code": "BR",
    "latitude": "-13.84078000",
    "longitude": "-47.00832000",
    "wikiDataId": null
  },
  {
    "id": 13445,
    "name": "Nova Veneza",
    "state_id": 2000,
    "state_code": "GO",
    "country_id": 31,
    "country_code": "BR",
    "latitude": "-16.35456000",
    "longitude": "-49.30001000",
    "wikiDataId": null
  },
  {
    "id": 13455,
    "name": "Novo Brasil",
    "state_id": 2000,
    "state_code": "GO",
    "country_id": 31,
    "country_code": "BR",
    "latitude": "-16.04806000",
    "longitude": "-50.63638000",
    "wikiDataId": null
  },
  {
    "id": 13458,
    "name": "Novo Gama",
    "state_id": 2000,
    "state_code": "GO",
    "country_id": 31,
    "country_code": "BR",
    "latitude": "-16.12535000",
    "longitude": "-48.07041000",
    "wikiDataId": null
  },
  {
    "id": 13474,
    "name": "Novo Planalto",
    "state_id": 2000,
    "state_code": "GO",
    "country_id": 31,
    "country_code": "BR",
    "latitude": "-13.38362000",
    "longitude": "-49.76104000",
    "wikiDataId": null
  },
  {
    "id": 13519,
    "name": "Orizona",
    "state_id": 2000,
    "state_code": "GO",
    "country_id": 31,
    "country_code": "BR",
    "latitude": "-17.03139000",
    "longitude": "-48.29583000",
    "wikiDataId": null
  },
  {
    "id": 13547,
    "name": "Ouro Verde de Goiás",
    "state_id": 2000,
    "state_code": "GO",
    "country_id": 31,
    "country_code": "BR",
    "latitude": "-16.23604000",
    "longitude": "-49.22771000",
    "wikiDataId": null
  },
  {
    "id": 13553,
    "name": "Ouvidor",
    "state_id": 2000,
    "state_code": "GO",
    "country_id": 31,
    "country_code": "BR",
    "latitude": "-18.20107000",
    "longitude": "-47.71513000",
    "wikiDataId": null
  },
  {
    "id": 13561,
    "name": "Padre Bernardo",
    "state_id": 2000,
    "state_code": "GO",
    "country_id": 31,
    "country_code": "BR",
    "latitude": "-15.16595000",
    "longitude": "-48.28281000",
    "wikiDataId": null
  },
  {
    "id": 13577,
    "name": "Palestina de Goiás",
    "state_id": 2000,
    "state_code": "GO",
    "country_id": 31,
    "country_code": "BR",
    "latitude": "-16.72854000",
    "longitude": "-51.45851000",
    "wikiDataId": null
  },
  {
    "id": 13598,
    "name": "Palmeiras de Goiás",
    "state_id": 2000,
    "state_code": "GO",
    "country_id": 31,
    "country_code": "BR",
    "latitude": "-16.80500000",
    "longitude": "-49.92583000",
    "wikiDataId": null
  },
  {
    "id": 13603,
    "name": "Palmelo",
    "state_id": 2000,
    "state_code": "GO",
    "country_id": 31,
    "country_code": "BR",
    "latitude": "-17.31937000",
    "longitude": "-48.39429000",
    "wikiDataId": null
  },
  {
    "id": 13604,
    "name": "Palminópolis",
    "state_id": 2000,
    "state_code": "GO",
    "country_id": 31,
    "country_code": "BR",
    "latitude": "-16.83157000",
    "longitude": "-50.24267000",
    "wikiDataId": null
  },
  {
    "id": 13613,
    "name": "Panamá",
    "state_id": 2000,
    "state_code": "GO",
    "country_id": 31,
    "country_code": "BR",
    "latitude": "-18.20132000",
    "longitude": "-49.38890000",
    "wikiDataId": null
  },
  {
    "id": 13638,
    "name": "Paranaiguara",
    "state_id": 2000,
    "state_code": "GO",
    "country_id": 31,
    "country_code": "BR",
    "latitude": "-18.77492000",
    "longitude": "-50.61841000",
    "wikiDataId": null
  },
  {
    "id": 13666,
    "name": "Paraúna",
    "state_id": 2000,
    "state_code": "GO",
    "country_id": 31,
    "country_code": "BR",
    "latitude": "-16.94778000",
    "longitude": "-50.44861000",
    "wikiDataId": null
  },
  {
    "id": 13813,
    "name": "Perolândia",
    "state_id": 2000,
    "state_code": "GO",
    "country_id": 31,
    "country_code": "BR",
    "latitude": "-17.52861000",
    "longitude": "-52.06417000",
    "wikiDataId": null
  },
  {
    "id": 13818,
    "name": "Petrolina de Goiás",
    "state_id": 2000,
    "state_code": "GO",
    "country_id": 31,
    "country_code": "BR",
    "latitude": "-16.09500000",
    "longitude": "-49.33806000",
    "wikiDataId": null
  },
  {
    "id": 13838,
    "name": "Pilar de Goiás",
    "state_id": 2000,
    "state_code": "GO",
    "country_id": 31,
    "country_code": "BR",
    "latitude": "-14.52999000",
    "longitude": "-49.51094000",
    "wikiDataId": null
  },
  {
    "id": 13884,
    "name": "Piracanjuba",
    "state_id": 2000,
    "state_code": "GO",
    "country_id": 31,
    "country_code": "BR",
    "latitude": "-17.30278000",
    "longitude": "-49.01667000",
    "wikiDataId": null
  },
  {
    "id": 13896,
    "name": "Piranhas",
    "state_id": 2000,
    "state_code": "GO",
    "country_id": 31,
    "country_code": "BR",
    "latitude": "-16.42694000",
    "longitude": "-51.82222000",
    "wikiDataId": null
  },
  {
    "id": 13914,
    "name": "Pirenópolis",
    "state_id": 2000,
    "state_code": "GO",
    "country_id": 31,
    "country_code": "BR",
    "latitude": "-15.85072000",
    "longitude": "-48.96087000",
    "wikiDataId": null
  },
  {
    "id": 13916,
    "name": "Pires do Rio",
    "state_id": 2000,
    "state_code": "GO",
    "country_id": 31,
    "country_code": "BR",
    "latitude": "-17.29972000",
    "longitude": "-48.27944000",
    "wikiDataId": null
  },
  {
    "id": 13933,
    "name": "Planaltina",
    "state_id": 2000,
    "state_code": "GO",
    "country_id": 31,
    "country_code": "BR",
    "latitude": "-15.45278000",
    "longitude": "-47.61417000",
    "wikiDataId": null
  },
  {
    "id": 13963,
    "name": "Pontalina",
    "state_id": 2000,
    "state_code": "GO",
    "country_id": 31,
    "country_code": "BR",
    "latitude": "-17.52500000",
    "longitude": "-49.44722000",
    "wikiDataId": null
  },
  {
    "id": 13983,
    "name": "Porangatu",
    "state_id": 2000,
    "state_code": "GO",
    "country_id": 31,
    "country_code": "BR",
    "latitude": "-13.44083000",
    "longitude": "-49.14861000",
    "wikiDataId": null
  },
  {
    "id": 13989,
    "name": "Porteirão",
    "state_id": 2000,
    "state_code": "GO",
    "country_id": 31,
    "country_code": "BR",
    "latitude": "-17.90236000",
    "longitude": "-50.15667000",
    "wikiDataId": null
  },
  {
    "id": 13991,
    "name": "Portelândia",
    "state_id": 2000,
    "state_code": "GO",
    "country_id": 31,
    "country_code": "BR",
    "latitude": "-17.35610000",
    "longitude": "-52.67861000",
    "wikiDataId": null
  },
  {
    "id": 14030,
    "name": "Posse",
    "state_id": 2000,
    "state_code": "GO",
    "country_id": 31,
    "country_code": "BR",
    "latitude": "-14.09306000",
    "longitude": "-46.36944000",
    "wikiDataId": null
  },
  {
    "id": 14108,
    "name": "Professor Jamil",
    "state_id": 2000,
    "state_code": "GO",
    "country_id": 31,
    "country_code": "BR",
    "latitude": "-17.29408000",
    "longitude": "-49.25572000",
    "wikiDataId": null
  },
  {
    "id": 14154,
    "name": "Quirinópolis",
    "state_id": 2000,
    "state_code": "GO",
    "country_id": 31,
    "country_code": "BR",
    "latitude": "-18.44833000",
    "longitude": "-50.45167000",
    "wikiDataId": null
  },
  {
    "id": 14227,
    "name": "Rialma",
    "state_id": 2000,
    "state_code": "GO",
    "country_id": 31,
    "country_code": "BR",
    "latitude": "-15.31500000",
    "longitude": "-49.58444000",
    "wikiDataId": null
  },
  {
    "id": 14228,
    "name": "Rianápolis",
    "state_id": 2000,
    "state_code": "GO",
    "country_id": 31,
    "country_code": "BR",
    "latitude": "-15.47467000",
    "longitude": "-49.44786000",
    "wikiDataId": null
  },
  {
    "id": 14294,
    "name": "Rio Quente",
    "state_id": 2000,
    "state_code": "GO",
    "country_id": 31,
    "country_code": "BR",
    "latitude": "-17.81769000",
    "longitude": "-48.80202000",
    "wikiDataId": null
  },
  {
    "id": 14300,
    "name": "Rio Verde",
    "state_id": 2000,
    "state_code": "GO",
    "country_id": 31,
    "country_code": "BR",
    "latitude": "-17.71888000",
    "longitude": "-51.04215000",
    "wikiDataId": null
  },
  {
    "id": 14358,
    "name": "Rubiataba",
    "state_id": 2000,
    "state_code": "GO",
    "country_id": 31,
    "country_code": "BR",
    "latitude": "-15.16444000",
    "longitude": "-49.80333000",
    "wikiDataId": null
  },
  {
    "id": 14411,
    "name": "Sanclerlândia",
    "state_id": 2000,
    "state_code": "GO",
    "country_id": 31,
    "country_code": "BR",
    "latitude": "-16.28223000",
    "longitude": "-50.37210000",
    "wikiDataId": null
  },
  {
    "id": 14425,
    "name": "Santa Bárbara de Goiás",
    "state_id": 2000,
    "state_code": "GO",
    "country_id": 31,
    "country_code": "BR",
    "latitude": "-16.60228000",
    "longitude": "-49.68624000",
    "wikiDataId": null
  },
  {
    "id": 14447,
    "name": "Santa Cruz de Goiás",
    "state_id": 2000,
    "state_code": "GO",
    "country_id": 31,
    "country_code": "BR",
    "latitude": "-17.45147000",
    "longitude": "-48.57101000",
    "wikiDataId": null
  },
  {
    "id": 14465,
    "name": "Santa Fé de Goiás",
    "state_id": 2000,
    "state_code": "GO",
    "country_id": 31,
    "country_code": "BR",
    "latitude": "-15.62304000",
    "longitude": "-51.13850000",
    "wikiDataId": null
  },
  {
    "id": 14474,
    "name": "Santa Helena de Goiás",
    "state_id": 2000,
    "state_code": "GO",
    "country_id": 31,
    "country_code": "BR",
    "latitude": "-17.80542000",
    "longitude": "-50.53885000",
    "wikiDataId": null
  },
  {
    "id": 14481,
    "name": "Santa Isabel",
    "state_id": 2000,
    "state_code": "GO",
    "country_id": 31,
    "country_code": "BR",
    "latitude": "-15.26996000",
    "longitude": "-49.37797000",
    "wikiDataId": null
  },
  {
    "id": 14532,
    "name": "Santa Rita do Araguaia",
    "state_id": 2000,
    "state_code": "GO",
    "country_id": 31,
    "country_code": "BR",
    "latitude": "-17.23294000",
    "longitude": "-53.07676000",
    "wikiDataId": null
  },
  {
    "id": 14534,
    "name": "Santa Rita do Novo Destino",
    "state_id": 2000,
    "state_code": "GO",
    "country_id": 31,
    "country_code": "BR",
    "latitude": "-14.82658000",
    "longitude": "-49.05935000",
    "wikiDataId": null
  },
  {
    "id": 14542,
    "name": "Santa Rosa de Goiás",
    "state_id": 2000,
    "state_code": "GO",
    "country_id": 31,
    "country_code": "BR",
    "latitude": "-16.06989000",
    "longitude": "-49.48147000",
    "wikiDataId": null
  },
  {
    "id": 14554,
    "name": "Santa Tereza de Goiás",
    "state_id": 2000,
    "state_code": "GO",
    "country_id": 31,
    "country_code": "BR",
    "latitude": "-13.55111000",
    "longitude": "-48.99503000",
    "wikiDataId": null
  },
  {
    "id": 14561,
    "name": "Santa Terezinha de Goiás",
    "state_id": 2000,
    "state_code": "GO",
    "country_id": 31,
    "country_code": "BR",
    "latitude": "-14.31049000",
    "longitude": "-49.71445000",
    "wikiDataId": null
  },
  {
    "id": 14612,
    "name": "Santo Antônio da Barra",
    "state_id": 2000,
    "state_code": "GO",
    "country_id": 31,
    "country_code": "BR",
    "latitude": "-17.51225000",
    "longitude": "-50.63068000",
    "wikiDataId": null
  },
  {
    "id": 14616,
    "name": "Santo Antônio de Goiás",
    "state_id": 2000,
    "state_code": "GO",
    "country_id": 31,
    "country_code": "BR",
    "latitude": "-16.50007000",
    "longitude": "-49.31097000",
    "wikiDataId": null
  },
  {
    "id": 14625,
    "name": "Santo Antônio do Descoberto",
    "state_id": 2000,
    "state_code": "GO",
    "country_id": 31,
    "country_code": "BR",
    "latitude": "-16.08073000",
    "longitude": "-48.29596000",
    "wikiDataId": null
  },
  {
    "id": 14861,
    "name": "São Domingos",
    "state_id": 2000,
    "state_code": "GO",
    "country_id": 31,
    "country_code": "BR",
    "latitude": "-13.39833000",
    "longitude": "-46.31833000",
    "wikiDataId": null
  },
  {
    "id": 14885,
    "name": "São Francisco de Goiás",
    "state_id": 2000,
    "state_code": "GO",
    "country_id": 31,
    "country_code": "BR",
    "latitude": "-15.95223000",
    "longitude": "-49.24888000",
    "wikiDataId": null
  },
  {
    "id": 15005,
    "name": "São João d'Aliança",
    "state_id": 2000,
    "state_code": "GO",
    "country_id": 31,
    "country_code": "BR",
    "latitude": "-14.42907000",
    "longitude": "-47.41407000",
    "wikiDataId": null
  },
  {
    "id": 15012,
    "name": "São João da Paraúna",
    "state_id": 2000,
    "state_code": "GO",
    "country_id": 31,
    "country_code": "BR",
    "latitude": "-16.82392000",
    "longitude": "-50.35316000",
    "wikiDataId": null
  },
  {
    "id": 15065,
    "name": "São Luís de Montes Belos",
    "state_id": 2000,
    "state_code": "GO",
    "country_id": 31,
    "country_code": "BR",
    "latitude": "-16.52500000",
    "longitude": "-50.37222000",
    "wikiDataId": null
  },
  {
    "id": 15061,
    "name": "São Luiz do Norte",
    "state_id": 2000,
    "state_code": "GO",
    "country_id": 31,
    "country_code": "BR",
    "latitude": "-14.89284000",
    "longitude": "-49.28212000",
    "wikiDataId": null
  },
  {
    "id": 15087,
    "name": "São Miguel do Araguaia",
    "state_id": 2000,
    "state_code": "GO",
    "country_id": 31,
    "country_code": "BR",
    "latitude": "-13.27500000",
    "longitude": "-50.16278000",
    "wikiDataId": null
  },
  {
    "id": 15094,
    "name": "São Miguel do Passa Quatro",
    "state_id": 2000,
    "state_code": "GO",
    "country_id": 31,
    "country_code": "BR",
    "latitude": "-16.99955000",
    "longitude": "-48.66188000",
    "wikiDataId": null
  },
  {
    "id": 15100,
    "name": "São Patrício",
    "state_id": 2000,
    "state_code": "GO",
    "country_id": 31,
    "country_code": "BR",
    "latitude": "-15.34426000",
    "longitude": "-49.83291000",
    "wikiDataId": null
  },
  {
    "id": 15157,
    "name": "São Simão",
    "state_id": 2000,
    "state_code": "GO",
    "country_id": 31,
    "country_code": "BR",
    "latitude": "-19.01080000",
    "longitude": "-50.60612000",
    "wikiDataId": null
  },
  {
    "id": 14695,
    "name": "Senador Canedo",
    "state_id": 2000,
    "state_code": "GO",
    "country_id": 31,
    "country_code": "BR",
    "latitude": "-16.70806000",
    "longitude": "-49.09306000",
    "wikiDataId": null
  },
  {
    "id": 14747,
    "name": "Serranópolis",
    "state_id": 2000,
    "state_code": "GO",
    "country_id": 31,
    "country_code": "BR",
    "latitude": "-18.27044000",
    "longitude": "-52.24749000",
    "wikiDataId": null
  },
  {
    "id": 14782,
    "name": "Silvânia",
    "state_id": 2000,
    "state_code": "GO",
    "country_id": 31,
    "country_code": "BR",
    "latitude": "-16.65889000",
    "longitude": "-48.60806000",
    "wikiDataId": null
  },
  {
    "id": 14783,
    "name": "Simolândia",
    "state_id": 2000,
    "state_code": "GO",
    "country_id": 31,
    "country_code": "BR",
    "latitude": "-14.43819000",
    "longitude": "-46.59232000",
    "wikiDataId": null
  },
  {
    "id": 15179,
    "name": "Sítio d'Abadia",
    "state_id": 2000,
    "state_code": "GO",
    "country_id": 31,
    "country_code": "BR",
    "latitude": "-14.75201000",
    "longitude": "-46.27003000",
    "wikiDataId": null
  },
  {
    "id": 15242,
    "name": "Taquaral de Goiás",
    "state_id": 2000,
    "state_code": "GO",
    "country_id": 31,
    "country_code": "BR",
    "latitude": "-16.05820000",
    "longitude": "-49.59040000",
    "wikiDataId": null
  },
  {
    "id": 15285,
    "name": "Teresina de Goiás",
    "state_id": 2000,
    "state_code": "GO",
    "country_id": 31,
    "country_code": "BR",
    "latitude": "-13.73244000",
    "longitude": "-47.25266000",
    "wikiDataId": null
  },
  {
    "id": 15288,
    "name": "Terezópolis de Goiás",
    "state_id": 2000,
    "state_code": "GO",
    "country_id": 31,
    "country_code": "BR",
    "latitude": "-16.42797000",
    "longitude": "-49.07425000",
    "wikiDataId": null
  },
  {
    "id": 15382,
    "name": "Três Ranchos",
    "state_id": 2000,
    "state_code": "GO",
    "country_id": 31,
    "country_code": "BR",
    "latitude": "-18.36835000",
    "longitude": "-47.79850000",
    "wikiDataId": null
  },
  {
    "id": 15358,
    "name": "Trindade",
    "state_id": 2000,
    "state_code": "GO",
    "country_id": 31,
    "country_code": "BR",
    "latitude": "-16.64944000",
    "longitude": "-49.48889000",
    "wikiDataId": null
  },
  {
    "id": 15367,
    "name": "Trombas",
    "state_id": 2000,
    "state_code": "GO",
    "country_id": 31,
    "country_code": "BR",
    "latitude": "-13.40409000",
    "longitude": "-48.77287000",
    "wikiDataId": null
  },
  {
    "id": 15421,
    "name": "Turvânia",
    "state_id": 2000,
    "state_code": "GO",
    "country_id": 31,
    "country_code": "BR",
    "latitude": "-16.55807000",
    "longitude": "-50.16909000",
    "wikiDataId": null
  },
  {
    "id": 15417,
    "name": "Turvelândia",
    "state_id": 2000,
    "state_code": "GO",
    "country_id": 31,
    "country_code": "BR",
    "latitude": "-17.79588000",
    "longitude": "-50.29695000",
    "wikiDataId": null
  },
  {
    "id": 15441,
    "name": "Uirapuru",
    "state_id": 2000,
    "state_code": "GO",
    "country_id": 31,
    "country_code": "BR",
    "latitude": "-14.14128000",
    "longitude": "-49.93396000",
    "wikiDataId": null
  },
  {
    "id": 15472,
    "name": "Uruaçu",
    "state_id": 2000,
    "state_code": "GO",
    "country_id": 31,
    "country_code": "BR",
    "latitude": "-14.42245000",
    "longitude": "-49.06374000",
    "wikiDataId": null
  },
  {
    "id": 15469,
    "name": "Uruana",
    "state_id": 2000,
    "state_code": "GO",
    "country_id": 31,
    "country_code": "BR",
    "latitude": "-15.56368000",
    "longitude": "-49.64028000",
    "wikiDataId": null
  },
  {
    "id": 15485,
    "name": "Urutaí",
    "state_id": 2000,
    "state_code": "GO",
    "country_id": 31,
    "country_code": "BR",
    "latitude": "-17.41664000",
    "longitude": "-48.19794000",
    "wikiDataId": null
  },
  {
    "id": 15504,
    "name": "Valparaíso de Goiás",
    "state_id": 2000,
    "state_code": "GO",
    "country_id": 31,
    "country_code": "BR",
    "latitude": "-16.09899000",
    "longitude": "-47.98813000",
    "wikiDataId": null
  },
  {
    "id": 15519,
    "name": "Varjão",
    "state_id": 2000,
    "state_code": "GO",
    "country_id": 31,
    "country_code": "BR",
    "latitude": "-17.07758000",
    "longitude": "-49.62111000",
    "wikiDataId": null
  },
  {
    "id": 15554,
    "name": "Vianópolis",
    "state_id": 2000,
    "state_code": "GO",
    "country_id": 31,
    "country_code": "BR",
    "latitude": "-16.85286000",
    "longitude": "-48.45647000",
    "wikiDataId": null
  },
  {
    "id": 15557,
    "name": "Vicentinópolis",
    "state_id": 2000,
    "state_code": "GO",
    "country_id": 31,
    "country_code": "BR",
    "latitude": "-17.70714000",
    "longitude": "-49.90768000",
    "wikiDataId": null
  },
  {
    "id": 15566,
    "name": "Vila Boa",
    "state_id": 2000,
    "state_code": "GO",
    "country_id": 31,
    "country_code": "BR",
    "latitude": "-14.97912000",
    "longitude": "-47.09259000",
    "wikiDataId": null
  },
  {
    "id": 15575,
    "name": "Vila Propício",
    "state_id": 2000,
    "state_code": "GO",
    "country_id": 31,
    "country_code": "BR",
    "latitude": "-15.20221000",
    "longitude": "-48.77569000",
    "wikiDataId": null
  }
]