[
  {
    "id": 53434,
    "name": "Barberena",
    "state_id": 3665,
    "state_code": "06",
    "country_id": 90,
    "country_code": "GT",
    "latitude": "14.30739000",
    "longitude": "-90.36156000",
    "wikiDataId": null
  },
  {
    "id": 53442,
    "name": "Casillas",
    "state_id": 3665,
    "state_code": "06",
    "country_id": 90,
    "country_code": "GT",
    "latitude": "14.42222000",
    "longitude": "-90.24417000",
    "wikiDataId": null
  },
  {
    "id": 53456,
    "name": "Chiquimulilla",
    "state_id": 3665,
    "state_code": "06",
    "country_id": 90,
    "country_code": "GT",
    "latitude": "14.08380000",
    "longitude": "-90.38547000",
    "wikiDataId": null
  },
  {
    "id": 53475,
    "name": "Cuilapa",
    "state_id": 3665,
    "state_code": "06",
    "country_id": 90,
    "country_code": "GT",
    "latitude": "14.27639000",
    "longitude": "-90.29889000",
    "wikiDataId": null
  },
  {
    "id": 53501,
    "name": "Guazacapán",
    "state_id": 3665,
    "state_code": "06",
    "country_id": 90,
    "country_code": "GT",
    "latitude": "14.07417000",
    "longitude": "-90.41667000",
    "wikiDataId": null
  },
  {
    "id": 53547,
    "name": "Municipio de Casillas",
    "state_id": 3665,
    "state_code": "06",
    "country_id": 90,
    "country_code": "GT",
    "latitude": "14.37854000",
    "longitude": "-90.17260000",
    "wikiDataId": null
  },
  {
    "id": 53553,
    "name": "Municipio de Chiquimulilla",
    "state_id": 3665,
    "state_code": "06",
    "country_id": 90,
    "country_code": "GT",
    "latitude": "14.09716000",
    "longitude": "-90.37903000",
    "wikiDataId": null
  },
  {
    "id": 53562,
    "name": "Municipio de Guazacapán",
    "state_id": 3665,
    "state_code": "06",
    "country_id": 90,
    "country_code": "GT",
    "latitude": "14.01786000",
    "longitude": "-90.43400000",
    "wikiDataId": null
  },
  {
    "id": 53606,
    "name": "Nueva Santa Rosa",
    "state_id": 3665,
    "state_code": "06",
    "country_id": 90,
    "country_code": "GT",
    "latitude": "14.38111000",
    "longitude": "-90.27611000",
    "wikiDataId": null
  },
  {
    "id": 53612,
    "name": "Oratorio",
    "state_id": 3665,
    "state_code": "06",
    "country_id": 90,
    "country_code": "GT",
    "latitude": "14.22806000",
    "longitude": "-90.17583000",
    "wikiDataId": null
  },
  {
    "id": 53633,
    "name": "Pueblo Nuevo Viñas",
    "state_id": 3665,
    "state_code": "06",
    "country_id": 90,
    "country_code": "GT",
    "latitude": "14.22576000",
    "longitude": "-90.47613000",
    "wikiDataId": null
  },
  {
    "id": 53699,
    "name": "San Juan Tecuaco",
    "state_id": 3665,
    "state_code": "06",
    "country_id": 90,
    "country_code": "GT",
    "latitude": "14.08361000",
    "longitude": "-90.26649000",
    "wikiDataId": null
  },
  {
    "id": 53733,
    "name": "San Rafael Las Flores",
    "state_id": 3665,
    "state_code": "06",
    "country_id": 90,
    "country_code": "GT",
    "latitude": "14.48139000",
    "longitude": "-90.17333000",
    "wikiDataId": null
  },
  {
    "id": 53757,
    "name": "Santa Cruz Naranjo",
    "state_id": 3665,
    "state_code": "06",
    "country_id": 90,
    "country_code": "GT",
    "latitude": "14.38806000",
    "longitude": "-90.36972000",
    "wikiDataId": null
  },
  {
    "id": 53766,
    "name": "Santa María Ixhuatán",
    "state_id": 3665,
    "state_code": "06",
    "country_id": 90,
    "country_code": "GT",
    "latitude": "14.19000000",
    "longitude": "-90.27472000",
    "wikiDataId": null
  },
  {
    "id": 53769,
    "name": "Santa Rosa de Lima",
    "state_id": 3665,
    "state_code": "06",
    "country_id": 90,
    "country_code": "GT",
    "latitude": "14.38806000",
    "longitude": "-90.29556000",
    "wikiDataId": null
  },
  {
    "id": 53789,
    "name": "Taxisco",
    "state_id": 3665,
    "state_code": "06",
    "country_id": 90,
    "country_code": "GT",
    "latitude": "14.06719000",
    "longitude": "-90.46791000",
    "wikiDataId": null
  }
]