[
  {
    "id": 48402,
    "name": "Barnsley",
    "state_id": 2499,
    "state_code": "BNS",
    "country_id": 232,
    "country_code": "GB",
    "latitude": "53.53333000",
    "longitude": "-1.50000000",
    "wikiDataId": null
  },
  {
    "id": 48519,
    "name": "Birdwell",
    "state_id": 2499,
    "state_code": "BNS",
    "country_id": 232,
    "country_code": "GB",
    "latitude": "53.51398000",
    "longitude": "-1.47929000",
    "wikiDataId": null
  },
  {
    "id": 48899,
    "name": "Cawthorne",
    "state_id": 2499,
    "state_code": "BNS",
    "country_id": 232,
    "country_code": "GB",
    "latitude": "53.56687000",
    "longitude": "-1.57259000",
    "wikiDataId": null
  },
  {
    "id": 49023,
    "name": "Clayton West",
    "state_id": 2499,
    "state_code": "BNS",
    "country_id": 232,
    "country_code": "GB",
    "latitude": "53.59501000",
    "longitude": "-1.61107000",
    "wikiDataId": null
  },
  {
    "id": 49195,
    "name": "Cudworth",
    "state_id": 2499,
    "state_code": "BNS",
    "country_id": 232,
    "country_code": "GB",
    "latitude": "53.57131000",
    "longitude": "-1.41595000",
    "wikiDataId": null
  },
  {
    "id": 49234,
    "name": "Darfield",
    "state_id": 2499,
    "state_code": "BNS",
    "country_id": 232,
    "country_code": "GB",
    "latitude": "53.53390000",
    "longitude": "-1.37595000",
    "wikiDataId": null
  },
  {
    "id": 49241,
    "name": "Darton",
    "state_id": 2499,
    "state_code": "BNS",
    "country_id": 232,
    "country_code": "GB",
    "latitude": "53.58705000",
    "longitude": "-1.52676000",
    "wikiDataId": null
  },
  {
    "id": 49299,
    "name": "Dodworth",
    "state_id": 2499,
    "state_code": "BNS",
    "country_id": 232,
    "country_code": "GB",
    "latitude": "53.54306000",
    "longitude": "-1.52779000",
    "wikiDataId": null
  },
  {
    "id": 49725,
    "name": "Great Houghton",
    "state_id": 2499,
    "state_code": "BNS",
    "country_id": 232,
    "country_code": "GB",
    "latitude": "53.55352000",
    "longitude": "-1.34952000",
    "wikiDataId": null
  },
  {
    "id": 49752,
    "name": "Grimethorpe",
    "state_id": 2499,
    "state_code": "BNS",
    "country_id": 232,
    "country_code": "GB",
    "latitude": "53.57650000",
    "longitude": "-1.37688000",
    "wikiDataId": null
  },
  {
    "id": 49899,
    "name": "Hemsworth",
    "state_id": 2499,
    "state_code": "BNS",
    "country_id": 232,
    "country_code": "GB",
    "latitude": "53.61267000",
    "longitude": "-1.35424000",
    "wikiDataId": null
  },
  {
    "id": 50016,
    "name": "Hoyland Nether",
    "state_id": 2499,
    "state_code": "BNS",
    "country_id": 232,
    "country_code": "GB",
    "latitude": "53.50000000",
    "longitude": "-1.45000000",
    "wikiDataId": null
  },
  {
    "id": 50788,
    "name": "Notton",
    "state_id": 2499,
    "state_code": "BNS",
    "country_id": 232,
    "country_code": "GB",
    "latitude": "53.61267000",
    "longitude": "-1.47234000",
    "wikiDataId": null
  },
  {
    "id": 50882,
    "name": "Penistone",
    "state_id": 2499,
    "state_code": "BNS",
    "country_id": 232,
    "country_code": "GB",
    "latitude": "53.52572000",
    "longitude": "-1.63027000",
    "wikiDataId": null
  },
  {
    "id": 51305,
    "name": "Silkstone",
    "state_id": 2499,
    "state_code": "BNS",
    "country_id": 232,
    "country_code": "GB",
    "latitude": "53.54808000",
    "longitude": "-1.56381000",
    "wikiDataId": null
  },
  {
    "id": 51456,
    "name": "Stocksbridge",
    "state_id": 2499,
    "state_code": "BNS",
    "country_id": 232,
    "country_code": "GB",
    "latitude": "53.48249000",
    "longitude": "-1.59373000",
    "wikiDataId": null
  },
  {
    "id": 51966,
    "name": "Wombwell",
    "state_id": 2499,
    "state_code": "BNS",
    "country_id": 232,
    "country_code": "GB",
    "latitude": "53.52189000",
    "longitude": "-1.39698000",
    "wikiDataId": null
  },
  {
    "id": 51981,
    "name": "Woolley",
    "state_id": 2499,
    "state_code": "BNS",
    "country_id": 232,
    "country_code": "GB",
    "latitude": "53.61339000",
    "longitude": "-1.51457000",
    "wikiDataId": null
  }
]