[
  {
    "id": 22107,
    "name": "Adamov",
    "state_id": 4602,
    "state_code": "64",
    "country_id": 58,
    "country_code": "CZ",
    "latitude": "49.30162000",
    "longitude": "16.65253000",
    "wikiDataId": null
  },
  {
    "id": 22196,
    "name": "Bílovice nad Svitavou",
    "state_id": 4602,
    "state_code": "64",
    "country_id": 58,
    "country_code": "CZ",
    "latitude": "49.24708000",
    "longitude": "16.67247000",
    "wikiDataId": null
  },
  {
    "id": 22129,
    "name": "Blansko",
    "state_id": 4602,
    "state_code": "64",
    "country_id": 58,
    "country_code": "CZ",
    "latitude": "49.36304000",
    "longitude": "16.64446000",
    "wikiDataId": null
  },
  {
    "id": 22131,
    "name": "Blažovice",
    "state_id": 4602,
    "state_code": "64",
    "country_id": 58,
    "country_code": "CZ",
    "latitude": "49.16569000",
    "longitude": "16.78611000",
    "wikiDataId": null
  },
  {
    "id": 22136,
    "name": "Blížkovice",
    "state_id": 4602,
    "state_code": "64",
    "country_id": 58,
    "country_code": "CZ",
    "latitude": "48.99976000",
    "longitude": "15.83482000",
    "wikiDataId": null
  },
  {
    "id": 22134,
    "name": "Blučina",
    "state_id": 4602,
    "state_code": "64",
    "country_id": 58,
    "country_code": "CZ",
    "latitude": "49.05497000",
    "longitude": "16.64450000",
    "wikiDataId": null
  },
  {
    "id": 22154,
    "name": "Bořetice",
    "state_id": 4602,
    "state_code": "64",
    "country_id": 58,
    "country_code": "CZ",
    "latitude": "48.91302000",
    "longitude": "16.85306000",
    "wikiDataId": null
  },
  {
    "id": 22155,
    "name": "Bořitov",
    "state_id": 4602,
    "state_code": "64",
    "country_id": 58,
    "country_code": "CZ",
    "latitude": "49.42504000",
    "longitude": "16.59119000",
    "wikiDataId": null
  },
  {
    "id": 22152,
    "name": "Boskovice",
    "state_id": 4602,
    "state_code": "64",
    "country_id": 58,
    "country_code": "CZ",
    "latitude": "49.48751000",
    "longitude": "16.65997000",
    "wikiDataId": null
  },
  {
    "id": 22156,
    "name": "Bošovice",
    "state_id": 4602,
    "state_code": "64",
    "country_id": 58,
    "country_code": "CZ",
    "latitude": "49.05351000",
    "longitude": "16.83676000",
    "wikiDataId": null
  },
  {
    "id": 22157,
    "name": "Božice",
    "state_id": 4602,
    "state_code": "64",
    "country_id": 58,
    "country_code": "CZ",
    "latitude": "48.83687000",
    "longitude": "16.28875000",
    "wikiDataId": null
  },
  {
    "id": 22204,
    "name": "Břeclav",
    "state_id": 4602,
    "state_code": "64",
    "country_id": 58,
    "country_code": "CZ",
    "latitude": "48.75897000",
    "longitude": "16.88203000",
    "wikiDataId": null
  },
  {
    "id": 22213,
    "name": "Březí",
    "state_id": 4602,
    "state_code": "64",
    "country_id": 58,
    "country_code": "CZ",
    "latitude": "48.81928000",
    "longitude": "16.56748000",
    "wikiDataId": null
  },
  {
    "id": 22166,
    "name": "Brno",
    "state_id": 4602,
    "state_code": "64",
    "country_id": 58,
    "country_code": "CZ",
    "latitude": "49.19522000",
    "longitude": "16.60796000",
    "wikiDataId": null
  },
  {
    "id": 22180,
    "name": "Bučovice",
    "state_id": 4602,
    "state_code": "64",
    "country_id": 58,
    "country_code": "CZ",
    "latitude": "49.14896000",
    "longitude": "17.00191000",
    "wikiDataId": null
  },
  {
    "id": 22190,
    "name": "Bzenec",
    "state_id": 4602,
    "state_code": "64",
    "country_id": 58,
    "country_code": "CZ",
    "latitude": "48.97336000",
    "longitude": "17.26685000",
    "wikiDataId": null
  },
  {
    "id": 23363,
    "name": "Čebín",
    "state_id": 4602,
    "state_code": "64",
    "country_id": 58,
    "country_code": "CZ",
    "latitude": "49.31324000",
    "longitude": "16.47791000",
    "wikiDataId": null
  },
  {
    "id": 23366,
    "name": "Čejč",
    "state_id": 4602,
    "state_code": "64",
    "country_id": 58,
    "country_code": "CZ",
    "latitude": "48.94653000",
    "longitude": "16.96511000",
    "wikiDataId": null
  },
  {
    "id": 23365,
    "name": "Čejkovice",
    "state_id": 4602,
    "state_code": "64",
    "country_id": 58,
    "country_code": "CZ",
    "latitude": "48.90592000",
    "longitude": "16.94230000",
    "wikiDataId": null
  },
  {
    "id": 23375,
    "name": "Černá Hora",
    "state_id": 4602,
    "state_code": "64",
    "country_id": 58,
    "country_code": "CZ",
    "latitude": "49.41361000",
    "longitude": "16.58140000",
    "wikiDataId": null
  },
  {
    "id": 22249,
    "name": "Dambořice",
    "state_id": 4602,
    "state_code": "64",
    "country_id": 58,
    "country_code": "CZ",
    "latitude": "49.03828000",
    "longitude": "16.91757000",
    "wikiDataId": null
  },
  {
    "id": 22267,
    "name": "Dobšice",
    "state_id": 4602,
    "state_code": "64",
    "country_id": 58,
    "country_code": "CZ",
    "latitude": "48.84834000",
    "longitude": "16.08218000",
    "wikiDataId": null
  },
  {
    "id": 22275,
    "name": "Dolní Bojanovice",
    "state_id": 4602,
    "state_code": "64",
    "country_id": 58,
    "country_code": "CZ",
    "latitude": "48.85861000",
    "longitude": "17.02859000",
    "wikiDataId": null
  },
  {
    "id": 22281,
    "name": "Dolní Dunajovice",
    "state_id": 4602,
    "state_code": "64",
    "country_id": 58,
    "country_code": "CZ",
    "latitude": "48.85447000",
    "longitude": "16.59283000",
    "wikiDataId": null
  },
  {
    "id": 22283,
    "name": "Dolní Kounice",
    "state_id": 4602,
    "state_code": "64",
    "country_id": 58,
    "country_code": "CZ",
    "latitude": "49.07011000",
    "longitude": "16.46492000",
    "wikiDataId": null
  },
  {
    "id": 22285,
    "name": "Dolní Loućky",
    "state_id": 4602,
    "state_code": "64",
    "country_id": 58,
    "country_code": "CZ",
    "latitude": "49.36099000",
    "longitude": "16.35871000",
    "wikiDataId": null
  },
  {
    "id": 22302,
    "name": "Domanín",
    "state_id": 4602,
    "state_code": "64",
    "country_id": 58,
    "country_code": "CZ",
    "latitude": "49.00167000",
    "longitude": "17.28476000",
    "wikiDataId": null
  },
  {
    "id": 22305,
    "name": "Doubravice nad Svitavou",
    "state_id": 4602,
    "state_code": "64",
    "country_id": 58,
    "country_code": "CZ",
    "latitude": "49.43664000",
    "longitude": "16.62937000",
    "wikiDataId": null
  },
  {
    "id": 22310,
    "name": "Drásov",
    "state_id": 4602,
    "state_code": "64",
    "country_id": 58,
    "country_code": "CZ",
    "latitude": "49.33183000",
    "longitude": "16.47798000",
    "wikiDataId": null
  },
  {
    "id": 22308,
    "name": "Drnholec",
    "state_id": 4602,
    "state_code": "64",
    "country_id": 58,
    "country_code": "CZ",
    "latitude": "48.85746000",
    "longitude": "16.48586000",
    "wikiDataId": null
  },
  {
    "id": 22309,
    "name": "Drnovice",
    "state_id": 4602,
    "state_code": "64",
    "country_id": 58,
    "country_code": "CZ",
    "latitude": "49.27630000",
    "longitude": "16.95146000",
    "wikiDataId": null
  },
  {
    "id": 22316,
    "name": "Dubňany",
    "state_id": 4602,
    "state_code": "64",
    "country_id": 58,
    "country_code": "CZ",
    "latitude": "48.91694000",
    "longitude": "17.09004000",
    "wikiDataId": null
  },
  {
    "id": 22350,
    "name": "Hevlín",
    "state_id": 4602,
    "state_code": "64",
    "country_id": 58,
    "country_code": "CZ",
    "latitude": "48.75209000",
    "longitude": "16.38131000",
    "wikiDataId": null
  },
  {
    "id": 22354,
    "name": "Hlohovec",
    "state_id": 4602,
    "state_code": "64",
    "country_id": 58,
    "country_code": "CZ",
    "latitude": "48.77399000",
    "longitude": "16.76230000",
    "wikiDataId": null
  },
  {
    "id": 22364,
    "name": "Hodonice",
    "state_id": 4602,
    "state_code": "64",
    "country_id": 58,
    "country_code": "CZ",
    "latitude": "48.83680000",
    "longitude": "16.16337000",
    "wikiDataId": null
  },
  {
    "id": 22365,
    "name": "Hodonín",
    "state_id": 4602,
    "state_code": "64",
    "country_id": 58,
    "country_code": "CZ",
    "latitude": "48.84893000",
    "longitude": "17.13244000",
    "wikiDataId": null
  },
  {
    "id": 22403,
    "name": "Hostěradice",
    "state_id": 4602,
    "state_code": "64",
    "country_id": 58,
    "country_code": "CZ",
    "latitude": "48.95006000",
    "longitude": "16.25931000",
    "wikiDataId": null
  },
  {
    "id": 22404,
    "name": "Hovorany",
    "state_id": 4602,
    "state_code": "64",
    "country_id": 58,
    "country_code": "CZ",
    "latitude": "48.95493000",
    "longitude": "16.99346000",
    "wikiDataId": null
  },
  {
    "id": 22424,
    "name": "Hroznová Lhota",
    "state_id": 4602,
    "state_code": "64",
    "country_id": 58,
    "country_code": "CZ",
    "latitude": "48.90784000",
    "longitude": "17.41697000",
    "wikiDataId": null
  },
  {
    "id": 22426,
    "name": "Hrušky",
    "state_id": 4602,
    "state_code": "64",
    "country_id": 58,
    "country_code": "CZ",
    "latitude": "48.79272000",
    "longitude": "16.97404000",
    "wikiDataId": null
  },
  {
    "id": 22427,
    "name": "Hrušovany nad Jevišovkou",
    "state_id": 4602,
    "state_code": "64",
    "country_id": 58,
    "country_code": "CZ",
    "latitude": "48.82991000",
    "longitude": "16.40271000",
    "wikiDataId": null
  },
  {
    "id": 22428,
    "name": "Hrušovany u Brna",
    "state_id": 4602,
    "state_code": "64",
    "country_id": 58,
    "country_code": "CZ",
    "latitude": "49.03863000",
    "longitude": "16.59429000",
    "wikiDataId": null
  },
  {
    "id": 22437,
    "name": "Hustopeče",
    "state_id": 4602,
    "state_code": "64",
    "country_id": 58,
    "country_code": "CZ",
    "latitude": "48.94085000",
    "longitude": "16.73762000",
    "wikiDataId": null
  },
  {
    "id": 22444,
    "name": "Ivančice",
    "state_id": 4602,
    "state_code": "64",
    "country_id": 58,
    "country_code": "CZ",
    "latitude": "49.10144000",
    "longitude": "16.37752000",
    "wikiDataId": null
  },
  {
    "id": 22443,
    "name": "Ivanovice na Hané",
    "state_id": 4602,
    "state_code": "64",
    "country_id": 58,
    "country_code": "CZ",
    "latitude": "49.30542000",
    "longitude": "17.09343000",
    "wikiDataId": null
  },
  {
    "id": 22459,
    "name": "Jaroslavice",
    "state_id": 4602,
    "state_code": "64",
    "country_id": 58,
    "country_code": "CZ",
    "latitude": "48.75657000",
    "longitude": "16.23351000",
    "wikiDataId": null
  },
  {
    "id": 22463,
    "name": "Jedovnice",
    "state_id": 4602,
    "state_code": "64",
    "country_id": 58,
    "country_code": "CZ",
    "latitude": "49.34453000",
    "longitude": "16.75595000",
    "wikiDataId": null
  },
  {
    "id": 22469,
    "name": "Jevišovice",
    "state_id": 4602,
    "state_code": "64",
    "country_id": 58,
    "country_code": "CZ",
    "latitude": "48.98736000",
    "longitude": "15.98992000",
    "wikiDataId": null
  },
  {
    "id": 22516,
    "name": "Klobouky",
    "state_id": 4602,
    "state_code": "64",
    "country_id": 58,
    "country_code": "CZ",
    "latitude": "48.99609000",
    "longitude": "16.86298000",
    "wikiDataId": null
  },
  {
    "id": 22520,
    "name": "Kněždub",
    "state_id": 4602,
    "state_code": "64",
    "country_id": 58,
    "country_code": "CZ",
    "latitude": "48.88666000",
    "longitude": "17.39546000",
    "wikiDataId": null
  },
  {
    "id": 22525,
    "name": "Kobylí",
    "state_id": 4602,
    "state_code": "64",
    "country_id": 58,
    "country_code": "CZ",
    "latitude": "48.93286000",
    "longitude": "16.89159000",
    "wikiDataId": null
  },
  {
    "id": 22542,
    "name": "Kostice",
    "state_id": 4602,
    "state_code": "64",
    "country_id": 58,
    "country_code": "CZ",
    "latitude": "48.74685000",
    "longitude": "16.97869000",
    "wikiDataId": null
  },
  {
    "id": 22584,
    "name": "Křenovice",
    "state_id": 4602,
    "state_code": "64",
    "country_id": 58,
    "country_code": "CZ",
    "latitude": "49.14216000",
    "longitude": "16.82932000",
    "wikiDataId": null
  },
  {
    "id": 22585,
    "name": "Křepice",
    "state_id": 4602,
    "state_code": "64",
    "country_id": 58,
    "country_code": "CZ",
    "latitude": "48.99986000",
    "longitude": "16.71989000",
    "wikiDataId": null
  },
  {
    "id": 22562,
    "name": "Krumvíř",
    "state_id": 4602,
    "state_code": "64",
    "country_id": 58,
    "country_code": "CZ",
    "latitude": "48.98901000",
    "longitude": "16.91027000",
    "wikiDataId": null
  },
  {
    "id": 22574,
    "name": "Kunštát",
    "state_id": 4602,
    "state_code": "64",
    "country_id": 58,
    "country_code": "CZ",
    "latitude": "49.50645000",
    "longitude": "16.51722000",
    "wikiDataId": null
  },
  {
    "id": 22577,
    "name": "Kuřim",
    "state_id": 4602,
    "state_code": "64",
    "country_id": 58,
    "country_code": "CZ",
    "latitude": "49.29852000",
    "longitude": "16.53144000",
    "wikiDataId": null
  },
  {
    "id": 22580,
    "name": "Kyjov",
    "state_id": 4602,
    "state_code": "64",
    "country_id": 58,
    "country_code": "CZ",
    "latitude": "49.01018000",
    "longitude": "17.12253000",
    "wikiDataId": null
  },
  {
    "id": 22591,
    "name": "Lanžhot",
    "state_id": 4602,
    "state_code": "64",
    "country_id": 58,
    "country_code": "CZ",
    "latitude": "48.72443000",
    "longitude": "16.96695000",
    "wikiDataId": null
  },
  {
    "id": 22594,
    "name": "Lednice",
    "state_id": 4602,
    "state_code": "64",
    "country_id": 58,
    "country_code": "CZ",
    "latitude": "48.79992000",
    "longitude": "16.80339000",
    "wikiDataId": null
  },
  {
    "id": 22595,
    "name": "Lelekovice",
    "state_id": 4602,
    "state_code": "64",
    "country_id": 58,
    "country_code": "CZ",
    "latitude": "49.29144000",
    "longitude": "16.57874000",
    "wikiDataId": null
  },
  {
    "id": 22598,
    "name": "Letonice",
    "state_id": 4602,
    "state_code": "64",
    "country_id": 58,
    "country_code": "CZ",
    "latitude": "49.17726000",
    "longitude": "16.95913000",
    "wikiDataId": null
  },
  {
    "id": 22599,
    "name": "Letovice",
    "state_id": 4602,
    "state_code": "64",
    "country_id": 58,
    "country_code": "CZ",
    "latitude": "49.54709000",
    "longitude": "16.57357000",
    "wikiDataId": null
  },
  {
    "id": 22618,
    "name": "Lipov",
    "state_id": 4602,
    "state_code": "64",
    "country_id": 58,
    "country_code": "CZ",
    "latitude": "48.90495000",
    "longitude": "17.46171000",
    "wikiDataId": null
  },
  {
    "id": 22619,
    "name": "Lipovec",
    "state_id": 4602,
    "state_code": "64",
    "country_id": 58,
    "country_code": "CZ",
    "latitude": "49.38394000",
    "longitude": "16.80583000",
    "wikiDataId": null
  },
  {
    "id": 22621,
    "name": "Lipůvka",
    "state_id": 4602,
    "state_code": "64",
    "country_id": 58,
    "country_code": "CZ",
    "latitude": "49.33933000",
    "longitude": "16.55313000",
    "wikiDataId": null
  },
  {
    "id": 22632,
    "name": "Lomnice",
    "state_id": 4602,
    "state_code": "64",
    "country_id": 58,
    "country_code": "CZ",
    "latitude": "49.40462000",
    "longitude": "16.41359000",
    "wikiDataId": null
  },
  {
    "id": 22636,
    "name": "Louka",
    "state_id": 4602,
    "state_code": "64",
    "country_id": 58,
    "country_code": "CZ",
    "latitude": "48.91517000",
    "longitude": "17.48927000",
    "wikiDataId": null
  },
  {
    "id": 22657,
    "name": "Lužice",
    "state_id": 4602,
    "state_code": "64",
    "country_id": 58,
    "country_code": "CZ",
    "latitude": "48.84098000",
    "longitude": "17.07104000",
    "wikiDataId": null
  },
  {
    "id": 22659,
    "name": "Lysice",
    "state_id": 4602,
    "state_code": "64",
    "country_id": 58,
    "country_code": "CZ",
    "latitude": "49.45160000",
    "longitude": "16.53716000",
    "wikiDataId": null
  },
  {
    "id": 22737,
    "name": "Měnín",
    "state_id": 4602,
    "state_code": "64",
    "country_id": 58,
    "country_code": "CZ",
    "latitude": "49.08240000",
    "longitude": "16.69424000",
    "wikiDataId": null
  },
  {
    "id": 22742,
    "name": "Město Brno",
    "state_id": 4602,
    "state_code": "64",
    "country_id": 58,
    "country_code": "CZ",
    "latitude": "49.19954000",
    "longitude": "16.60755000",
    "wikiDataId": null
  },
  {
    "id": 22688,
    "name": "Mikulčice",
    "state_id": 4602,
    "state_code": "64",
    "country_id": 58,
    "country_code": "CZ",
    "latitude": "48.81643000",
    "longitude": "17.05107000",
    "wikiDataId": null
  },
  {
    "id": 22685,
    "name": "Mikulov",
    "state_id": 4602,
    "state_code": "64",
    "country_id": 58,
    "country_code": "CZ",
    "latitude": "48.80556000",
    "longitude": "16.63780000",
    "wikiDataId": null
  },
  {
    "id": 22690,
    "name": "Milotice",
    "state_id": 4602,
    "state_code": "64",
    "country_id": 58,
    "country_code": "CZ",
    "latitude": "48.95528000",
    "longitude": "17.14241000",
    "wikiDataId": null
  },
  {
    "id": 22695,
    "name": "Miroslav",
    "state_id": 4602,
    "state_code": "64",
    "country_id": 58,
    "country_code": "CZ",
    "latitude": "48.94767000",
    "longitude": "16.31252000",
    "wikiDataId": null
  },
  {
    "id": 22709,
    "name": "Modřice",
    "state_id": 4602,
    "state_code": "64",
    "country_id": 58,
    "country_code": "CZ",
    "latitude": "49.11928000",
    "longitude": "16.60446000",
    "wikiDataId": null
  },
  {
    "id": 22712,
    "name": "Mokrá Hora",
    "state_id": 4602,
    "state_code": "64",
    "country_id": 58,
    "country_code": "CZ",
    "latitude": "49.26176000",
    "longitude": "16.59107000",
    "wikiDataId": null
  },
  {
    "id": 22715,
    "name": "Moravany",
    "state_id": 4602,
    "state_code": "64",
    "country_id": 58,
    "country_code": "CZ",
    "latitude": "49.14780000",
    "longitude": "16.58026000",
    "wikiDataId": null
  },
  {
    "id": 22717,
    "name": "Moravská Nová Ves",
    "state_id": 4602,
    "state_code": "64",
    "country_id": 58,
    "country_code": "CZ",
    "latitude": "48.80304000",
    "longitude": "17.01371000",
    "wikiDataId": null
  },
  {
    "id": 22721,
    "name": "Moravský Krumlov",
    "state_id": 4602,
    "state_code": "64",
    "country_id": 58,
    "country_code": "CZ",
    "latitude": "49.04893000",
    "longitude": "16.31169000",
    "wikiDataId": null
  },
  {
    "id": 22722,
    "name": "Moravský Písek",
    "state_id": 4602,
    "state_code": "64",
    "country_id": 58,
    "country_code": "CZ",
    "latitude": "48.99016000",
    "longitude": "17.33269000",
    "wikiDataId": null
  },
  {
    "id": 22723,
    "name": "Moravský Žižkov",
    "state_id": 4602,
    "state_code": "64",
    "country_id": 58,
    "country_code": "CZ",
    "latitude": "48.83285000",
    "longitude": "16.93140000",
    "wikiDataId": null
  },
  {
    "id": 22729,
    "name": "Moutnice",
    "state_id": 4602,
    "state_code": "64",
    "country_id": 58,
    "country_code": "CZ",
    "latitude": "49.04924000",
    "longitude": "16.73741000",
    "wikiDataId": null
  },
  {
    "id": 22733,
    "name": "Mutěnice",
    "state_id": 4602,
    "state_code": "64",
    "country_id": 58,
    "country_code": "CZ",
    "latitude": "48.90413000",
    "longitude": "17.02917000",
    "wikiDataId": null
  },
  {
    "id": 22755,
    "name": "Nedvědice",
    "state_id": 4602,
    "state_code": "64",
    "country_id": 58,
    "country_code": "CZ",
    "latitude": "49.45702000",
    "longitude": "16.33406000",
    "wikiDataId": null
  },
  {
    "id": 22761,
    "name": "Nesovice",
    "state_id": 4602,
    "state_code": "64",
    "country_id": 58,
    "country_code": "CZ",
    "latitude": "49.15111000",
    "longitude": "17.08095000",
    "wikiDataId": null
  },
  {
    "id": 22769,
    "name": "Nosislav",
    "state_id": 4602,
    "state_code": "64",
    "country_id": 58,
    "country_code": "CZ",
    "latitude": "49.01380000",
    "longitude": "16.65431000",
    "wikiDataId": null
  },
  {
    "id": 22771,
    "name": "Novosedly",
    "state_id": 4602,
    "state_code": "64",
    "country_id": 58,
    "country_code": "CZ",
    "latitude": "48.83704000",
    "longitude": "16.49273000",
    "wikiDataId": null
  },
  {
    "id": 22808,
    "name": "Okres Blansko",
    "state_id": 4602,
    "state_code": "64",
    "country_id": 58,
    "country_code": "CZ",
    "latitude": "49.37399000",
    "longitude": "16.64360000",
    "wikiDataId": null
  },
  {
    "id": 22811,
    "name": "Okres Břeclav",
    "state_id": 4602,
    "state_code": "64",
    "country_id": 58,
    "country_code": "CZ",
    "latitude": "48.75958000",
    "longitude": "16.87260000",
    "wikiDataId": null
  },
  {
    "id": 22809,
    "name": "Okres Brno-venkov",
    "state_id": 4602,
    "state_code": "64",
    "country_id": 58,
    "country_code": "CZ",
    "latitude": "49.16667000",
    "longitude": "16.50000000",
    "wikiDataId": null
  },
  {
    "id": 22819,
    "name": "Okres Hodonín",
    "state_id": 4602,
    "state_code": "64",
    "country_id": 58,
    "country_code": "CZ",
    "latitude": "48.86471000",
    "longitude": "17.13284000",
    "wikiDataId": null
  },
  {
    "id": 22871,
    "name": "Okres Vyškov",
    "state_id": 4602,
    "state_code": "64",
    "country_id": 58,
    "country_code": "CZ",
    "latitude": "49.27844000",
    "longitude": "16.99362000",
    "wikiDataId": null
  },
  {
    "id": 22873,
    "name": "Okres Znojmo",
    "state_id": 4602,
    "state_code": "64",
    "country_id": 58,
    "country_code": "CZ",
    "latitude": "48.86200000",
    "longitude": "16.06270000",
    "wikiDataId": null
  },
  {
    "id": 22883,
    "name": "Olbramovice",
    "state_id": 4602,
    "state_code": "64",
    "country_id": 58,
    "country_code": "CZ",
    "latitude": "48.98480000",
    "longitude": "16.40239000",
    "wikiDataId": null
  },
  {
    "id": 22885,
    "name": "Olešnice",
    "state_id": 4602,
    "state_code": "64",
    "country_id": 58,
    "country_code": "CZ",
    "latitude": "49.55755000",
    "longitude": "16.42169000",
    "wikiDataId": null
  },
  {
    "id": 22916,
    "name": "Ořechov",
    "state_id": 4602,
    "state_code": "64",
    "country_id": 58,
    "country_code": "CZ",
    "latitude": "49.11118000",
    "longitude": "16.52329000",
    "wikiDataId": null
  },
  {
    "id": 22901,
    "name": "Oslavany",
    "state_id": 4602,
    "state_code": "64",
    "country_id": 58,
    "country_code": "CZ",
    "latitude": "49.12335000",
    "longitude": "16.33653000",
    "wikiDataId": null
  },
  {
    "id": 22903,
    "name": "Ostopovice",
    "state_id": 4602,
    "state_code": "64",
    "country_id": 58,
    "country_code": "CZ",
    "latitude": "49.16100000",
    "longitude": "16.54548000",
    "wikiDataId": null
  },
  {
    "id": 22908,
    "name": "Ostrov u Macochy",
    "state_id": 4602,
    "state_code": "64",
    "country_id": 58,
    "country_code": "CZ",
    "latitude": "49.38236000",
    "longitude": "16.76268000",
    "wikiDataId": null
  },
  {
    "id": 22914,
    "name": "Otnice",
    "state_id": 4602,
    "state_code": "64",
    "country_id": 58,
    "country_code": "CZ",
    "latitude": "49.08642000",
    "longitude": "16.81443000",
    "wikiDataId": null
  },
  {
    "id": 22928,
    "name": "Petrov",
    "state_id": 4602,
    "state_code": "64",
    "country_id": 58,
    "country_code": "CZ",
    "latitude": "48.88196000",
    "longitude": "17.27810000",
    "wikiDataId": null
  },
  {
    "id": 22945,
    "name": "Podivín",
    "state_id": 4602,
    "state_code": "64",
    "country_id": 58,
    "country_code": "CZ",
    "latitude": "48.82554000",
    "longitude": "16.84822000",
    "wikiDataId": null
  },
  {
    "id": 22946,
    "name": "Podolí",
    "state_id": 4602,
    "state_code": "64",
    "country_id": 58,
    "country_code": "CZ",
    "latitude": "49.19042000",
    "longitude": "16.72084000",
    "wikiDataId": null
  },
  {
    "id": 22948,
    "name": "Pohořelice",
    "state_id": 4602,
    "state_code": "64",
    "country_id": 58,
    "country_code": "CZ",
    "latitude": "48.98119000",
    "longitude": "16.52445000",
    "wikiDataId": null
  },
  {
    "id": 22964,
    "name": "Pozořice",
    "state_id": 4602,
    "state_code": "64",
    "country_id": 58,
    "country_code": "CZ",
    "latitude": "49.20976000",
    "longitude": "16.79074000",
    "wikiDataId": null
  },
  {
    "id": 22997,
    "name": "Předklášteří",
    "state_id": 4602,
    "state_code": "64",
    "country_id": 58,
    "country_code": "CZ",
    "latitude": "49.35253000",
    "longitude": "16.40241000",
    "wikiDataId": null
  },
  {
    "id": 22985,
    "name": "Prušánky",
    "state_id": 4602,
    "state_code": "64",
    "country_id": 58,
    "country_code": "CZ",
    "latitude": "48.82840000",
    "longitude": "16.98068000",
    "wikiDataId": null
  },
  {
    "id": 22989,
    "name": "Pustiměř",
    "state_id": 4602,
    "state_code": "64",
    "country_id": 58,
    "country_code": "CZ",
    "latitude": "49.32251000",
    "longitude": "17.02792000",
    "wikiDataId": null
  },
  {
    "id": 23055,
    "name": "Rájec-Jestřebí",
    "state_id": 4602,
    "state_code": "64",
    "country_id": 58,
    "country_code": "CZ",
    "latitude": "49.41094000",
    "longitude": "16.63902000",
    "wikiDataId": null
  },
  {
    "id": 23056,
    "name": "Ráječko",
    "state_id": 4602,
    "state_code": "64",
    "country_id": 58,
    "country_code": "CZ",
    "latitude": "49.39393000",
    "longitude": "16.64497000",
    "wikiDataId": null
  },
  {
    "id": 23017,
    "name": "Rajhrad",
    "state_id": 4602,
    "state_code": "64",
    "country_id": 58,
    "country_code": "CZ",
    "latitude": "49.09021000",
    "longitude": "16.60388000",
    "wikiDataId": null
  },
  {
    "id": 23018,
    "name": "Rajhradice",
    "state_id": 4602,
    "state_code": "64",
    "country_id": 58,
    "country_code": "CZ",
    "latitude": "49.09203000",
    "longitude": "16.62933000",
    "wikiDataId": null
  },
  {
    "id": 23020,
    "name": "Rakvice",
    "state_id": 4602,
    "state_code": "64",
    "country_id": 58,
    "country_code": "CZ",
    "latitude": "48.85811000",
    "longitude": "16.81330000",
    "wikiDataId": null
  },
  {
    "id": 23025,
    "name": "Ratíškovice",
    "state_id": 4602,
    "state_code": "64",
    "country_id": 58,
    "country_code": "CZ",
    "latitude": "48.92002000",
    "longitude": "17.16561000",
    "wikiDataId": null
  },
  {
    "id": 23407,
    "name": "Říčany",
    "state_id": 4602,
    "state_code": "64",
    "country_id": 58,
    "country_code": "CZ",
    "latitude": "49.21497000",
    "longitude": "16.39362000",
    "wikiDataId": null
  },
  {
    "id": 23027,
    "name": "Rohatec",
    "state_id": 4602,
    "state_code": "64",
    "country_id": 58,
    "country_code": "CZ",
    "latitude": "48.88040000",
    "longitude": "17.18330000",
    "wikiDataId": null
  },
  {
    "id": 23035,
    "name": "Rosice",
    "state_id": 4602,
    "state_code": "64",
    "country_id": 58,
    "country_code": "CZ",
    "latitude": "49.18232000",
    "longitude": "16.38787000",
    "wikiDataId": null
  },
  {
    "id": 23039,
    "name": "Rousínov",
    "state_id": 4602,
    "state_code": "64",
    "country_id": 58,
    "country_code": "CZ",
    "latitude": "49.20128000",
    "longitude": "16.88215000",
    "wikiDataId": null
  },
  {
    "id": 23408,
    "name": "Šakvice",
    "state_id": 4602,
    "state_code": "64",
    "country_id": 58,
    "country_code": "CZ",
    "latitude": "48.89746000",
    "longitude": "16.71424000",
    "wikiDataId": null
  },
  {
    "id": 23409,
    "name": "Šanov",
    "state_id": 4602,
    "state_code": "64",
    "country_id": 58,
    "country_code": "CZ",
    "latitude": "48.80089000",
    "longitude": "16.37858000",
    "wikiDataId": null
  },
  {
    "id": 23410,
    "name": "Šardice",
    "state_id": 4602,
    "state_code": "64",
    "country_id": 58,
    "country_code": "CZ",
    "latitude": "48.96403000",
    "longitude": "17.02812000",
    "wikiDataId": null
  },
  {
    "id": 23411,
    "name": "Šatov",
    "state_id": 4602,
    "state_code": "64",
    "country_id": 58,
    "country_code": "CZ",
    "latitude": "48.79317000",
    "longitude": "16.00992000",
    "wikiDataId": null
  },
  {
    "id": 23416,
    "name": "Šitbořice",
    "state_id": 4602,
    "state_code": "64",
    "country_id": 58,
    "country_code": "CZ",
    "latitude": "49.01433000",
    "longitude": "16.77975000",
    "wikiDataId": null
  },
  {
    "id": 23417,
    "name": "Šlapanice",
    "state_id": 4602,
    "state_code": "64",
    "country_id": 58,
    "country_code": "CZ",
    "latitude": "49.16863000",
    "longitude": "16.72731000",
    "wikiDataId": null
  },
  {
    "id": 23082,
    "name": "Slavkov u Brna",
    "state_id": 4602,
    "state_code": "64",
    "country_id": 58,
    "country_code": "CZ",
    "latitude": "49.15325000",
    "longitude": "16.87649000",
    "wikiDataId": null
  },
  {
    "id": 23093,
    "name": "Sokolnice",
    "state_id": 4602,
    "state_code": "64",
    "country_id": 58,
    "country_code": "CZ",
    "latitude": "49.11392000",
    "longitude": "16.72156000",
    "wikiDataId": null
  },
  {
    "id": 23129,
    "name": "Strážnice",
    "state_id": 4602,
    "state_code": "64",
    "country_id": 58,
    "country_code": "CZ",
    "latitude": "48.90102000",
    "longitude": "17.31680000",
    "wikiDataId": null
  },
  {
    "id": 23137,
    "name": "Střelice",
    "state_id": 4602,
    "state_code": "64",
    "country_id": 58,
    "country_code": "CZ",
    "latitude": "49.15221000",
    "longitude": "16.50399000",
    "wikiDataId": null
  },
  {
    "id": 23142,
    "name": "Suchohrdly",
    "state_id": 4602,
    "state_code": "64",
    "country_id": 58,
    "country_code": "CZ",
    "latitude": "48.86822000",
    "longitude": "16.09471000",
    "wikiDataId": null
  },
  {
    "id": 23145,
    "name": "Sudoměřice",
    "state_id": 4602,
    "state_code": "64",
    "country_id": 58,
    "country_code": "CZ",
    "latitude": "48.86723000",
    "longitude": "17.25676000",
    "wikiDataId": null
  },
  {
    "id": 23150,
    "name": "Svitávka",
    "state_id": 4602,
    "state_code": "64",
    "country_id": 58,
    "country_code": "CZ",
    "latitude": "49.50178000",
    "longitude": "16.59793000",
    "wikiDataId": null
  },
  {
    "id": 23157,
    "name": "Tasovice",
    "state_id": 4602,
    "state_code": "64",
    "country_id": 58,
    "country_code": "CZ",
    "latitude": "48.83610000",
    "longitude": "16.15558000",
    "wikiDataId": null
  },
  {
    "id": 23158,
    "name": "Telnice",
    "state_id": 4602,
    "state_code": "64",
    "country_id": 58,
    "country_code": "CZ",
    "latitude": "49.10187000",
    "longitude": "16.71774000",
    "wikiDataId": null
  },
  {
    "id": 23195,
    "name": "Těšany",
    "state_id": 4602,
    "state_code": "64",
    "country_id": 58,
    "country_code": "CZ",
    "latitude": "49.03956000",
    "longitude": "16.77003000",
    "wikiDataId": null
  },
  {
    "id": 23166,
    "name": "Tišnov",
    "state_id": 4602,
    "state_code": "64",
    "country_id": 58,
    "country_code": "CZ",
    "latitude": "49.34872000",
    "longitude": "16.42438000",
    "wikiDataId": null
  },
  {
    "id": 23180,
    "name": "Troubsko",
    "state_id": 4602,
    "state_code": "64",
    "country_id": 58,
    "country_code": "CZ",
    "latitude": "49.16951000",
    "longitude": "16.51078000",
    "wikiDataId": null
  },
  {
    "id": 23187,
    "name": "Tvarožná",
    "state_id": 4602,
    "state_code": "64",
    "country_id": 58,
    "country_code": "CZ",
    "latitude": "49.19177000",
    "longitude": "16.77146000",
    "wikiDataId": null
  },
  {
    "id": 23188,
    "name": "Tvrdonice",
    "state_id": 4602,
    "state_code": "64",
    "country_id": 58,
    "country_code": "CZ",
    "latitude": "48.76048000",
    "longitude": "16.99446000",
    "wikiDataId": null
  },
  {
    "id": 23191,
    "name": "Týnec",
    "state_id": 4602,
    "state_code": "64",
    "country_id": 58,
    "country_code": "CZ",
    "latitude": "48.77943000",
    "longitude": "17.01322000",
    "wikiDataId": null
  },
  {
    "id": 23356,
    "name": "Únanov",
    "state_id": 4602,
    "state_code": "64",
    "country_id": 58,
    "country_code": "CZ",
    "latitude": "48.90082000",
    "longitude": "16.06351000",
    "wikiDataId": null
  },
  {
    "id": 23213,
    "name": "Vacenovice",
    "state_id": 4602,
    "state_code": "64",
    "country_id": 58,
    "country_code": "CZ",
    "latitude": "48.94510000",
    "longitude": "17.17404000",
    "wikiDataId": null
  },
  {
    "id": 23221,
    "name": "Valtice",
    "state_id": 4602,
    "state_code": "64",
    "country_id": 58,
    "country_code": "CZ",
    "latitude": "48.74069000",
    "longitude": "16.75499000",
    "wikiDataId": null
  },
  {
    "id": 23235,
    "name": "Velká nad Veličkou",
    "state_id": 4602,
    "state_code": "64",
    "country_id": 58,
    "country_code": "CZ",
    "latitude": "48.88257000",
    "longitude": "17.52060000",
    "wikiDataId": null
  },
  {
    "id": 23236,
    "name": "Velké Bílovice",
    "state_id": 4602,
    "state_code": "64",
    "country_id": 58,
    "country_code": "CZ",
    "latitude": "48.84929000",
    "longitude": "16.89227000",
    "wikiDataId": null
  },
  {
    "id": 23244,
    "name": "Velké Němčice",
    "state_id": 4602,
    "state_code": "64",
    "country_id": 58,
    "country_code": "CZ",
    "latitude": "48.99168000",
    "longitude": "16.67208000",
    "wikiDataId": null
  },
  {
    "id": 23245,
    "name": "Velké Opatovice",
    "state_id": 4602,
    "state_code": "64",
    "country_id": 58,
    "country_code": "CZ",
    "latitude": "49.61237000",
    "longitude": "16.67947000",
    "wikiDataId": null
  },
  {
    "id": 23246,
    "name": "Velké Pavlovice",
    "state_id": 4602,
    "state_code": "64",
    "country_id": 58,
    "country_code": "CZ",
    "latitude": "48.90469000",
    "longitude": "16.81605000",
    "wikiDataId": null
  },
  {
    "id": 23262,
    "name": "Veselí nad Moravou",
    "state_id": 4602,
    "state_code": "64",
    "country_id": 58,
    "country_code": "CZ",
    "latitude": "48.95363000",
    "longitude": "17.37648000",
    "wikiDataId": null
  },
  {
    "id": 23264,
    "name": "Veverská Bítýška",
    "state_id": 4602,
    "state_code": "64",
    "country_id": 58,
    "country_code": "CZ",
    "latitude": "49.27591000",
    "longitude": "16.43686000",
    "wikiDataId": null
  },
  {
    "id": 23273,
    "name": "Viničné Šumice",
    "state_id": 4602,
    "state_code": "64",
    "country_id": 58,
    "country_code": "CZ",
    "latitude": "49.21358000",
    "longitude": "16.82541000",
    "wikiDataId": null
  },
  {
    "id": 23277,
    "name": "Višňové",
    "state_id": 4602,
    "state_code": "64",
    "country_id": 58,
    "country_code": "CZ",
    "latitude": "48.98241000",
    "longitude": "16.15025000",
    "wikiDataId": null
  },
  {
    "id": 23282,
    "name": "Vlkoš",
    "state_id": 4602,
    "state_code": "64",
    "country_id": 58,
    "country_code": "CZ",
    "latitude": "48.98960000",
    "longitude": "17.16356000",
    "wikiDataId": null
  },
  {
    "id": 23285,
    "name": "Vnorovy",
    "state_id": 4602,
    "state_code": "64",
    "country_id": 58,
    "country_code": "CZ",
    "latitude": "48.93096000",
    "longitude": "17.35050000",
    "wikiDataId": null
  },
  {
    "id": 23287,
    "name": "Vojkovice",
    "state_id": 4602,
    "state_code": "64",
    "country_id": 58,
    "country_code": "CZ",
    "latitude": "49.05138000",
    "longitude": "16.60820000",
    "wikiDataId": null
  },
  {
    "id": 23291,
    "name": "Vracov",
    "state_id": 4602,
    "state_code": "64",
    "country_id": 58,
    "country_code": "CZ",
    "latitude": "48.97523000",
    "longitude": "17.21100000",
    "wikiDataId": null
  },
  {
    "id": 23292,
    "name": "Vranovice",
    "state_id": 4602,
    "state_code": "64",
    "country_id": 58,
    "country_code": "CZ",
    "latitude": "48.96600000",
    "longitude": "16.60660000",
    "wikiDataId": null
  },
  {
    "id": 23295,
    "name": "Vrbice",
    "state_id": 4602,
    "state_code": "64",
    "country_id": 58,
    "country_code": "CZ",
    "latitude": "48.91508000",
    "longitude": "16.89779000",
    "wikiDataId": null
  },
  {
    "id": 23298,
    "name": "Vrbovec",
    "state_id": 4602,
    "state_code": "64",
    "country_id": 58,
    "country_code": "CZ",
    "latitude": "48.79978000",
    "longitude": "16.10061000",
    "wikiDataId": null
  },
  {
    "id": 23308,
    "name": "Vyškov",
    "state_id": 4602,
    "state_code": "64",
    "country_id": 58,
    "country_code": "CZ",
    "latitude": "49.27747000",
    "longitude": "16.99897000",
    "wikiDataId": null
  },
  {
    "id": 23435,
    "name": "Žabčice",
    "state_id": 4602,
    "state_code": "64",
    "country_id": 58,
    "country_code": "CZ",
    "latitude": "49.01160000",
    "longitude": "16.60257000",
    "wikiDataId": null
  },
  {
    "id": 23325,
    "name": "Zaječí",
    "state_id": 4602,
    "state_code": "64",
    "country_id": 58,
    "country_code": "CZ",
    "latitude": "48.87295000",
    "longitude": "16.76646000",
    "wikiDataId": null
  },
  {
    "id": 23326,
    "name": "Zastávka",
    "state_id": 4602,
    "state_code": "64",
    "country_id": 58,
    "country_code": "CZ",
    "latitude": "49.18800000",
    "longitude": "16.36310000",
    "wikiDataId": null
  },
  {
    "id": 23330,
    "name": "Zbraslav",
    "state_id": 4602,
    "state_code": "64",
    "country_id": 58,
    "country_code": "CZ",
    "latitude": "49.22155000",
    "longitude": "16.29415000",
    "wikiDataId": null
  },
  {
    "id": 23332,
    "name": "Zbýšov",
    "state_id": 4602,
    "state_code": "64",
    "country_id": 58,
    "country_code": "CZ",
    "latitude": "49.15524000",
    "longitude": "16.34951000",
    "wikiDataId": null
  },
  {
    "id": 23440,
    "name": "Ždánice",
    "state_id": 4602,
    "state_code": "64",
    "country_id": 58,
    "country_code": "CZ",
    "latitude": "49.06729000",
    "longitude": "17.02751000",
    "wikiDataId": null
  },
  {
    "id": 23446,
    "name": "Želešice",
    "state_id": 4602,
    "state_code": "64",
    "country_id": 58,
    "country_code": "CZ",
    "latitude": "49.11689000",
    "longitude": "16.58137000",
    "wikiDataId": null
  },
  {
    "id": 23448,
    "name": "Žeravice",
    "state_id": 4602,
    "state_code": "64",
    "country_id": 58,
    "country_code": "CZ",
    "latitude": "49.02288000",
    "longitude": "17.23726000",
    "wikiDataId": null
  },
  {
    "id": 23449,
    "name": "Židlochovice",
    "state_id": 4602,
    "state_code": "64",
    "country_id": 58,
    "country_code": "CZ",
    "latitude": "49.03952000",
    "longitude": "16.61881000",
    "wikiDataId": null
  },
  {
    "id": 23344,
    "name": "Znojmo",
    "state_id": 4602,
    "state_code": "64",
    "country_id": 58,
    "country_code": "CZ",
    "latitude": "48.85550000",
    "longitude": "16.04880000",
    "wikiDataId": null
  }
]