[
  {
    "id": 89962,
    "name": "Anina",
    "state_id": 4753,
    "state_code": "CS",
    "country_id": 181,
    "country_code": "RO",
    "latitude": "45.07944000",
    "longitude": "21.85694000",
    "wikiDataId": null
  },
  {
    "id": 89995,
    "name": "Armeniş",
    "state_id": 4753,
    "state_code": "CS",
    "country_id": 181,
    "country_code": "RO",
    "latitude": "45.20000000",
    "longitude": "22.31667000",
    "wikiDataId": null
  },
  {
    "id": 90491,
    "name": "Băile Herculane",
    "state_id": 4753,
    "state_code": "CS",
    "country_id": 181,
    "country_code": "RO",
    "latitude": "44.87972000",
    "longitude": "22.41250000",
    "wikiDataId": null
  },
  {
    "id": 90535,
    "name": "Bănia",
    "state_id": 4753,
    "state_code": "CS",
    "country_id": 181,
    "country_code": "RO",
    "latitude": "44.89583000",
    "longitude": "22.04472000",
    "wikiDataId": null
  },
  {
    "id": 90555,
    "name": "Băuţar",
    "state_id": 4753,
    "state_code": "CS",
    "country_id": 181,
    "country_code": "RO",
    "latitude": "45.51667000",
    "longitude": "22.56667000",
    "wikiDataId": null
  },
  {
    "id": 90113,
    "name": "Berlişte",
    "state_id": 4753,
    "state_code": "CS",
    "country_id": 181,
    "country_code": "RO",
    "latitude": "44.98667000",
    "longitude": "21.46306000",
    "wikiDataId": null
  },
  {
    "id": 90117,
    "name": "Berzasca",
    "state_id": 4753,
    "state_code": "CS",
    "country_id": 181,
    "country_code": "RO",
    "latitude": "44.64712000",
    "longitude": "21.95428000",
    "wikiDataId": null
  },
  {
    "id": 90118,
    "name": "Berzovia",
    "state_id": 4753,
    "state_code": "CS",
    "country_id": 181,
    "country_code": "RO",
    "latitude": "45.42611000",
    "longitude": "21.62806000",
    "wikiDataId": null
  },
  {
    "id": 90178,
    "name": "Bocşa",
    "state_id": 4753,
    "state_code": "CS",
    "country_id": 181,
    "country_code": "RO",
    "latitude": "45.37333000",
    "longitude": "21.70917000",
    "wikiDataId": null
  },
  {
    "id": 90217,
    "name": "Bolvașnița",
    "state_id": 4753,
    "state_code": "CS",
    "country_id": 181,
    "country_code": "RO",
    "latitude": "45.34558000",
    "longitude": "22.31012000",
    "wikiDataId": null
  },
  {
    "id": 90229,
    "name": "Borlova",
    "state_id": 4753,
    "state_code": "CS",
    "country_id": 181,
    "country_code": "RO",
    "latitude": "45.36738000",
    "longitude": "22.35200000",
    "wikiDataId": null
  },
  {
    "id": 90254,
    "name": "Bozovici",
    "state_id": 4753,
    "state_code": "CS",
    "country_id": 181,
    "country_code": "RO",
    "latitude": "44.93889000",
    "longitude": "22.00167000",
    "wikiDataId": null
  },
  {
    "id": 90292,
    "name": "Brebu",
    "state_id": 4753,
    "state_code": "CS",
    "country_id": 181,
    "country_code": "RO",
    "latitude": "45.42028000",
    "longitude": "21.99250000",
    "wikiDataId": null
  },
  {
    "id": 90295,
    "name": "Brebu Nou",
    "state_id": 4753,
    "state_code": "CS",
    "country_id": 181,
    "country_code": "RO",
    "latitude": "45.23333000",
    "longitude": "22.13333000",
    "wikiDataId": null
  },
  {
    "id": 90348,
    "name": "Buchin",
    "state_id": 4753,
    "state_code": "CS",
    "country_id": 181,
    "country_code": "RO",
    "latitude": "45.36667000",
    "longitude": "22.25000000",
    "wikiDataId": null
  },
  {
    "id": 90362,
    "name": "Bucoşniţa",
    "state_id": 4753,
    "state_code": "CS",
    "country_id": 181,
    "country_code": "RO",
    "latitude": "45.30000000",
    "longitude": "22.26667000",
    "wikiDataId": null
  },
  {
    "id": 90358,
    "name": "Bucova",
    "state_id": 4753,
    "state_code": "CS",
    "country_id": 181,
    "country_code": "RO",
    "latitude": "45.50906000",
    "longitude": "22.63731000",
    "wikiDataId": null
  },
  {
    "id": 93792,
    "name": "Câlnic",
    "state_id": 4753,
    "state_code": "CS",
    "country_id": 181,
    "country_code": "RO",
    "latitude": "45.33844000",
    "longitude": "21.85754000",
    "wikiDataId": null
  },
  {
    "id": 90575,
    "name": "Caransebeş",
    "state_id": 4753,
    "state_code": "CS",
    "country_id": 181,
    "country_code": "RO",
    "latitude": "45.41667000",
    "longitude": "22.21667000",
    "wikiDataId": null
  },
  {
    "id": 90578,
    "name": "Caraşova",
    "state_id": 4753,
    "state_code": "CS",
    "country_id": 181,
    "country_code": "RO",
    "latitude": "45.19861000",
    "longitude": "21.87000000",
    "wikiDataId": null
  },
  {
    "id": 93867,
    "name": "Cărbunari",
    "state_id": 4753,
    "state_code": "CS",
    "country_id": 181,
    "country_code": "RO",
    "latitude": "44.83444000",
    "longitude": "21.74417000",
    "wikiDataId": null
  },
  {
    "id": 90697,
    "name": "Ciclova-Română",
    "state_id": 4753,
    "state_code": "CS",
    "country_id": 181,
    "country_code": "RO",
    "latitude": "45.01361000",
    "longitude": "21.71917000",
    "wikiDataId": null
  },
  {
    "id": 90741,
    "name": "Ciuchici",
    "state_id": 4753,
    "state_code": "CS",
    "country_id": 181,
    "country_code": "RO",
    "latitude": "44.94139000",
    "longitude": "21.61000000",
    "wikiDataId": null
  },
  {
    "id": 90744,
    "name": "Ciudanoviţa",
    "state_id": 4753,
    "state_code": "CS",
    "country_id": 181,
    "country_code": "RO",
    "latitude": "45.14472000",
    "longitude": "21.79778000",
    "wikiDataId": null
  },
  {
    "id": 90769,
    "name": "Clocotici",
    "state_id": 4753,
    "state_code": "CS",
    "country_id": 181,
    "country_code": "RO",
    "latitude": "45.24495000",
    "longitude": "21.83467000",
    "wikiDataId": null
  },
  {
    "id": 90894,
    "name": "Comuna Armeniş",
    "state_id": 4753,
    "state_code": "CS",
    "country_id": 181,
    "country_code": "RO",
    "latitude": "45.21901000",
    "longitude": "22.35198000",
    "wikiDataId": null
  },
  {
    "id": 91233,
    "name": "Comuna Bănia",
    "state_id": 4753,
    "state_code": "CS",
    "country_id": 181,
    "country_code": "RO",
    "latitude": "44.87200000",
    "longitude": "22.02747000",
    "wikiDataId": null
  },
  {
    "id": 91248,
    "name": "Comuna Băuţar",
    "state_id": 4753,
    "state_code": "CS",
    "country_id": 181,
    "country_code": "RO",
    "latitude": "45.53016000",
    "longitude": "22.57848000",
    "wikiDataId": null
  },
  {
    "id": 90971,
    "name": "Comuna Berlişte",
    "state_id": 4753,
    "state_code": "CS",
    "country_id": 181,
    "country_code": "RO",
    "latitude": "44.99004000",
    "longitude": "21.46920000",
    "wikiDataId": null
  },
  {
    "id": 90975,
    "name": "Comuna Berzasca",
    "state_id": 4753,
    "state_code": "CS",
    "country_id": 181,
    "country_code": "RO",
    "latitude": "44.64845000",
    "longitude": "21.98580000",
    "wikiDataId": null
  },
  {
    "id": 90976,
    "name": "Comuna Berzovia",
    "state_id": 4753,
    "state_code": "CS",
    "country_id": 181,
    "country_code": "RO",
    "latitude": "45.40777000",
    "longitude": "21.60233000",
    "wikiDataId": null
  },
  {
    "id": 91043,
    "name": "Comuna Bolvaşniţa",
    "state_id": 4753,
    "state_code": "CS",
    "country_id": 181,
    "country_code": "RO",
    "latitude": "45.33634000",
    "longitude": "22.33110000",
    "wikiDataId": null
  },
  {
    "id": 91068,
    "name": "Comuna Bozovici",
    "state_id": 4753,
    "state_code": "CS",
    "country_id": 181,
    "country_code": "RO",
    "latitude": "44.97815000",
    "longitude": "21.97965000",
    "wikiDataId": null
  },
  {
    "id": 91092,
    "name": "Comuna Brebu",
    "state_id": 4753,
    "state_code": "CS",
    "country_id": 181,
    "country_code": "RO",
    "latitude": "45.40358000",
    "longitude": "22.01842000",
    "wikiDataId": null
  },
  {
    "id": 91094,
    "name": "Comuna Brebu Nou",
    "state_id": 4753,
    "state_code": "CS",
    "country_id": 181,
    "country_code": "RO",
    "latitude": "45.23062000",
    "longitude": "22.11809000",
    "wikiDataId": null
  },
  {
    "id": 91127,
    "name": "Comuna Buchin",
    "state_id": 4753,
    "state_code": "CS",
    "country_id": 181,
    "country_code": "RO",
    "latitude": "45.34756000",
    "longitude": "22.20877000",
    "wikiDataId": null
  },
  {
    "id": 91137,
    "name": "Comuna Bucoşniţa",
    "state_id": 4753,
    "state_code": "CS",
    "country_id": 181,
    "country_code": "RO",
    "latitude": "45.30652000",
    "longitude": "22.26856000",
    "wikiDataId": null
  },
  {
    "id": 91260,
    "name": "Comuna Caraşova",
    "state_id": 4753,
    "state_code": "CS",
    "country_id": 181,
    "country_code": "RO",
    "latitude": "45.21545000",
    "longitude": "21.88149000",
    "wikiDataId": null
  },
  {
    "id": 91587,
    "name": "Comuna Cărbunari",
    "state_id": 4753,
    "state_code": "CS",
    "country_id": 181,
    "country_code": "RO",
    "latitude": "44.83985000",
    "longitude": "21.74178000",
    "wikiDataId": null
  },
  {
    "id": 91333,
    "name": "Comuna Ciclova Română",
    "state_id": 4753,
    "state_code": "CS",
    "country_id": 181,
    "country_code": "RO",
    "latitude": "44.97477000",
    "longitude": "21.71425000",
    "wikiDataId": null
  },
  {
    "id": 91363,
    "name": "Comuna Ciuchici",
    "state_id": 4753,
    "state_code": "CS",
    "country_id": 181,
    "country_code": "RO",
    "latitude": "44.93914000",
    "longitude": "21.61419000",
    "wikiDataId": null
  },
  {
    "id": 91366,
    "name": "Comuna Ciudanoviţa",
    "state_id": 4753,
    "state_code": "CS",
    "country_id": 181,
    "country_code": "RO",
    "latitude": "45.15308000",
    "longitude": "21.75402000",
    "wikiDataId": null
  },
  {
    "id": 91413,
    "name": "Comuna Constantin Daicoviciu",
    "state_id": 4753,
    "state_code": "CS",
    "country_id": 181,
    "country_code": "RO",
    "latitude": "45.51458000",
    "longitude": "22.16374000",
    "wikiDataId": null
  },
  {
    "id": 91418,
    "name": "Comuna Copăcele",
    "state_id": 4753,
    "state_code": "CS",
    "country_id": 181,
    "country_code": "RO",
    "latitude": "45.48036000",
    "longitude": "22.08720000",
    "wikiDataId": null
  },
  {
    "id": 91435,
    "name": "Comuna Cornea",
    "state_id": 4753,
    "state_code": "CS",
    "country_id": 181,
    "country_code": "RO",
    "latitude": "45.01953000",
    "longitude": "22.31903000",
    "wikiDataId": null
  },
  {
    "id": 91436,
    "name": "Comuna Cornereva",
    "state_id": 4753,
    "state_code": "CS",
    "country_id": 181,
    "country_code": "RO",
    "latitude": "45.06968000",
    "longitude": "22.44671000",
    "wikiDataId": null
  },
  {
    "id": 91602,
    "name": "Comuna Dalboşeţ",
    "state_id": 4753,
    "state_code": "CS",
    "country_id": 181,
    "country_code": "RO",
    "latitude": "44.84425000",
    "longitude": "21.93495000",
    "wikiDataId": null
  },
  {
    "id": 91649,
    "name": "Comuna Doclin",
    "state_id": 4753,
    "state_code": "CS",
    "country_id": 181,
    "country_code": "RO",
    "latitude": "45.32370000",
    "longitude": "21.64622000",
    "wikiDataId": null
  },
  {
    "id": 91652,
    "name": "Comuna Dognecea",
    "state_id": 4753,
    "state_code": "CS",
    "country_id": 181,
    "country_code": "RO",
    "latitude": "45.24797000",
    "longitude": "21.72574000",
    "wikiDataId": null
  },
  {
    "id": 91657,
    "name": "Comuna Domaşnea",
    "state_id": 4753,
    "state_code": "CS",
    "country_id": 181,
    "country_code": "RO",
    "latitude": "45.07577000",
    "longitude": "22.33693000",
    "wikiDataId": null
  },
  {
    "id": 91747,
    "name": "Comuna Eftimie Murgu",
    "state_id": 4753,
    "state_code": "CS",
    "country_id": 181,
    "country_code": "RO",
    "latitude": "44.87744000",
    "longitude": "22.09522000",
    "wikiDataId": null
  },
  {
    "id": 91751,
    "name": "Comuna Ezeriş",
    "state_id": 4753,
    "state_code": "CS",
    "country_id": 181,
    "country_code": "RO",
    "latitude": "45.38982000",
    "longitude": "21.91754000",
    "wikiDataId": null
  },
  {
    "id": 91812,
    "name": "Comuna Fârliug",
    "state_id": 4753,
    "state_code": "CS",
    "country_id": 181,
    "country_code": "RO",
    "latitude": "45.50025000",
    "longitude": "21.85355000",
    "wikiDataId": null
  },
  {
    "id": 91778,
    "name": "Comuna Forotic",
    "state_id": 4753,
    "state_code": "CS",
    "country_id": 181,
    "country_code": "RO",
    "latitude": "45.23159000",
    "longitude": "21.57890000",
    "wikiDataId": null
  },
  {
    "id": 91976,
    "name": "Comuna Gârnic",
    "state_id": 4753,
    "state_code": "CS",
    "country_id": 181,
    "country_code": "RO",
    "latitude": "44.75521000",
    "longitude": "21.77168000",
    "wikiDataId": null
  },
  {
    "id": 91879,
    "name": "Comuna Glimboca",
    "state_id": 4753,
    "state_code": "CS",
    "country_id": 181,
    "country_code": "RO",
    "latitude": "45.49499000",
    "longitude": "22.32194000",
    "wikiDataId": null
  },
  {
    "id": 91905,
    "name": "Comuna Goruia",
    "state_id": 4753,
    "state_code": "CS",
    "country_id": 181,
    "country_code": "RO",
    "latitude": "45.18298000",
    "longitude": "21.77054000",
    "wikiDataId": null
  },
  {
    "id": 91936,
    "name": "Comuna Grădinari",
    "state_id": 4753,
    "state_code": "CS",
    "country_id": 181,
    "country_code": "RO",
    "latitude": "45.10488000",
    "longitude": "21.60576000",
    "wikiDataId": null
  },
  {
    "id": 92049,
    "name": "Comuna Iablaniţa",
    "state_id": 4753,
    "state_code": "CS",
    "country_id": 181,
    "country_code": "RO",
    "latitude": "44.97480000",
    "longitude": "22.29180000",
    "wikiDataId": null
  },
  {
    "id": 92223,
    "name": "Comuna Lăpuşnicel",
    "state_id": 4753,
    "state_code": "CS",
    "country_id": 181,
    "country_code": "RO",
    "latitude": "44.98679000",
    "longitude": "22.20710000",
    "wikiDataId": null
  },
  {
    "id": 92224,
    "name": "Comuna Lăpuşnicu Mare",
    "state_id": 4753,
    "state_code": "CS",
    "country_id": 181,
    "country_code": "RO",
    "latitude": "44.88519000",
    "longitude": "21.93321000",
    "wikiDataId": null
  },
  {
    "id": 92209,
    "name": "Comuna Luncaviţa",
    "state_id": 4753,
    "state_code": "CS",
    "country_id": 181,
    "country_code": "RO",
    "latitude": "45.08520000",
    "longitude": "22.25352000",
    "wikiDataId": null
  },
  {
    "id": 92214,
    "name": "Comuna Lupac",
    "state_id": 4753,
    "state_code": "CS",
    "country_id": 181,
    "country_code": "RO",
    "latitude": "45.25215000",
    "longitude": "21.80835000",
    "wikiDataId": null
  },
  {
    "id": 92241,
    "name": "Comuna Marga",
    "state_id": 4753,
    "state_code": "CS",
    "country_id": 181,
    "country_code": "RO",
    "latitude": "45.51489000",
    "longitude": "22.51537000",
    "wikiDataId": null
  },
  {
    "id": 92421,
    "name": "Comuna Măureni",
    "state_id": 4753,
    "state_code": "CS",
    "country_id": 181,
    "country_code": "RO",
    "latitude": "45.43170000",
    "longitude": "21.51348000",
    "wikiDataId": null
  },
  {
    "id": 92251,
    "name": "Comuna Mehadia",
    "state_id": 4753,
    "state_code": "CS",
    "country_id": 181,
    "country_code": "RO",
    "latitude": "44.95509000",
    "longitude": "22.37181000",
    "wikiDataId": null
  },
  {
    "id": 92252,
    "name": "Comuna Mehadica",
    "state_id": 4753,
    "state_code": "CS",
    "country_id": 181,
    "country_code": "RO",
    "latitude": "45.03894000",
    "longitude": "22.26476000",
    "wikiDataId": null
  },
  {
    "id": 92423,
    "name": "Comuna Naidaş",
    "state_id": 4753,
    "state_code": "CS",
    "country_id": 181,
    "country_code": "RO",
    "latitude": "44.87584000",
    "longitude": "21.56807000",
    "wikiDataId": null
  },
  {
    "id": 92471,
    "name": "Comuna Obreja",
    "state_id": 4753,
    "state_code": "CS",
    "country_id": 181,
    "country_code": "RO",
    "latitude": "45.46873000",
    "longitude": "22.25570000",
    "wikiDataId": null
  },
  {
    "id": 92477,
    "name": "Comuna Ocna De Fier",
    "state_id": 4753,
    "state_code": "CS",
    "country_id": 181,
    "country_code": "RO",
    "latitude": "45.34195000",
    "longitude": "21.77503000",
    "wikiDataId": null
  },
  {
    "id": 92711,
    "name": "Comuna Pãltiniş",
    "state_id": 4753,
    "state_code": "CS",
    "country_id": 181,
    "country_code": "RO",
    "latitude": "45.40607000",
    "longitude": "22.11233000",
    "wikiDataId": null
  },
  {
    "id": 92559,
    "name": "Comuna Pescari",
    "state_id": 4753,
    "state_code": "CS",
    "country_id": 181,
    "country_code": "RO",
    "latitude": "44.67286000",
    "longitude": "21.70092000",
    "wikiDataId": null
  },
  {
    "id": 92644,
    "name": "Comuna Pojejena",
    "state_id": 4753,
    "state_code": "CS",
    "country_id": 181,
    "country_code": "RO",
    "latitude": "44.78437000",
    "longitude": "21.53365000",
    "wikiDataId": null
  },
  {
    "id": 92674,
    "name": "Comuna Prigor",
    "state_id": 4753,
    "state_code": "CS",
    "country_id": 181,
    "country_code": "RO",
    "latitude": "44.94774000",
    "longitude": "22.12896000",
    "wikiDataId": null
  },
  {
    "id": 92841,
    "name": "Comuna Răcăşdia",
    "state_id": 4753,
    "state_code": "CS",
    "country_id": 181,
    "country_code": "RO",
    "latitude": "44.99767000",
    "longitude": "21.58786000",
    "wikiDataId": null
  },
  {
    "id": 92746,
    "name": "Comuna Ramna",
    "state_id": 4753,
    "state_code": "CS",
    "country_id": 181,
    "country_code": "RO",
    "latitude": "45.46530000",
    "longitude": "21.72257000",
    "wikiDataId": null
  },
  {
    "id": 92815,
    "name": "Comuna Rusca Montană",
    "state_id": 4753,
    "state_code": "CS",
    "country_id": 181,
    "country_code": "RO",
    "latitude": "45.60042000",
    "longitude": "22.43638000",
    "wikiDataId": null
  },
  {
    "id": 92857,
    "name": "Comuna Sacu",
    "state_id": 4753,
    "state_code": "CS",
    "country_id": 181,
    "country_code": "RO",
    "latitude": "45.57152000",
    "longitude": "22.11048000",
    "wikiDataId": null
  },
  {
    "id": 92877,
    "name": "Comuna Sasca Montană",
    "state_id": 4753,
    "state_code": "CS",
    "country_id": 181,
    "country_code": "RO",
    "latitude": "44.90394000",
    "longitude": "21.70167000",
    "wikiDataId": null
  },
  {
    "id": 92926,
    "name": "Comuna Sicheviţa",
    "state_id": 4753,
    "state_code": "CS",
    "country_id": 181,
    "country_code": "RO",
    "latitude": "44.70616000",
    "longitude": "21.82910000",
    "wikiDataId": null
  },
  {
    "id": 92948,
    "name": "Comuna Slatina-Timiş",
    "state_id": 4753,
    "state_code": "CS",
    "country_id": 181,
    "country_code": "RO",
    "latitude": "45.26064000",
    "longitude": "22.31807000",
    "wikiDataId": null
  },
  {
    "id": 92969,
    "name": "Comuna Socol",
    "state_id": 4753,
    "state_code": "CS",
    "country_id": 181,
    "country_code": "RO",
    "latitude": "44.85334000",
    "longitude": "21.41782000",
    "wikiDataId": null
  },
  {
    "id": 93541,
    "name": "Comuna Şopotu Nou",
    "state_id": 4753,
    "state_code": "CS",
    "country_id": 181,
    "country_code": "RO",
    "latitude": "44.79650000",
    "longitude": "21.85135000",
    "wikiDataId": null
  },
  {
    "id": 93229,
    "name": "Comuna Târnova",
    "state_id": 4753,
    "state_code": "CS",
    "country_id": 181,
    "country_code": "RO",
    "latitude": "45.33274000",
    "longitude": "21.96849000",
    "wikiDataId": null
  },
  {
    "id": 93141,
    "name": "Comuna Teregova",
    "state_id": 4753,
    "state_code": "CS",
    "country_id": 181,
    "country_code": "RO",
    "latitude": "45.14536000",
    "longitude": "22.31192000",
    "wikiDataId": null
  },
  {
    "id": 93150,
    "name": "Comuna Ticvaniu Mare",
    "state_id": 4753,
    "state_code": "CS",
    "country_id": 181,
    "country_code": "RO",
    "latitude": "45.15901000",
    "longitude": "21.65596000",
    "wikiDataId": null
  },
  {
    "id": 93175,
    "name": "Comuna Topleţ",
    "state_id": 4753,
    "state_code": "CS",
    "country_id": 181,
    "country_code": "RO",
    "latitude": "44.80454000",
    "longitude": "22.39102000",
    "wikiDataId": null
  },
  {
    "id": 93216,
    "name": "Comuna Turnu Rueni",
    "state_id": 4753,
    "state_code": "CS",
    "country_id": 181,
    "country_code": "RO",
    "latitude": "45.39767000",
    "longitude": "22.31756000",
    "wikiDataId": null
  },
  {
    "id": 93461,
    "name": "Comuna Văliug",
    "state_id": 4753,
    "state_code": "CS",
    "country_id": 181,
    "country_code": "RO",
    "latitude": "45.22643000",
    "longitude": "22.03169000",
    "wikiDataId": null
  },
  {
    "id": 93464,
    "name": "Comuna Vărădia",
    "state_id": 4753,
    "state_code": "CS",
    "country_id": 181,
    "country_code": "RO",
    "latitude": "45.07166000",
    "longitude": "21.54036000",
    "wikiDataId": null
  },
  {
    "id": 93345,
    "name": "Comuna Vermeş",
    "state_id": 4753,
    "state_code": "CS",
    "country_id": 181,
    "country_code": "RO",
    "latitude": "45.52216000",
    "longitude": "21.62988000",
    "wikiDataId": null
  },
  {
    "id": 93409,
    "name": "Comuna Vrani",
    "state_id": 4753,
    "state_code": "CS",
    "country_id": 181,
    "country_code": "RO",
    "latitude": "45.02799000",
    "longitude": "21.48549000",
    "wikiDataId": null
  },
  {
    "id": 93492,
    "name": "Comuna Zăvoi",
    "state_id": 4753,
    "state_code": "CS",
    "country_id": 181,
    "country_code": "RO",
    "latitude": "45.49706000",
    "longitude": "22.44346000",
    "wikiDataId": null
  },
  {
    "id": 93480,
    "name": "Comuna Zorlenţu Mare",
    "state_id": 4753,
    "state_code": "CS",
    "country_id": 181,
    "country_code": "RO",
    "latitude": "45.46419000",
    "longitude": "21.98155000",
    "wikiDataId": null
  },
  {
    "id": 93594,
    "name": "Constantin Daicoviciu",
    "state_id": 4753,
    "state_code": "CS",
    "country_id": 181,
    "country_code": "RO",
    "latitude": "45.55000000",
    "longitude": "22.15000000",
    "wikiDataId": null
  },
  {
    "id": 93603,
    "name": "Copăcele",
    "state_id": 4753,
    "state_code": "CS",
    "country_id": 181,
    "country_code": "RO",
    "latitude": "45.50000000",
    "longitude": "22.10000000",
    "wikiDataId": null
  },
  {
    "id": 93630,
    "name": "Cornea",
    "state_id": 4753,
    "state_code": "CS",
    "country_id": 181,
    "country_code": "RO",
    "latitude": "45.03333000",
    "longitude": "22.31667000",
    "wikiDataId": null
  },
  {
    "id": 93631,
    "name": "Cornereva",
    "state_id": 4753,
    "state_code": "CS",
    "country_id": 181,
    "country_code": "RO",
    "latitude": "45.06667000",
    "longitude": "22.41667000",
    "wikiDataId": null
  },
  {
    "id": 93642,
    "name": "Cornuțel",
    "state_id": 4753,
    "state_code": "CS",
    "country_id": 181,
    "country_code": "RO",
    "latitude": "45.43489000",
    "longitude": "22.09556000",
    "wikiDataId": null
  },
  {
    "id": 93649,
    "name": "Coronini",
    "state_id": 4753,
    "state_code": "CS",
    "country_id": 181,
    "country_code": "RO",
    "latitude": "44.68004000",
    "longitude": "21.68552000",
    "wikiDataId": null
  },
  {
    "id": 93890,
    "name": "Dalboșeț",
    "state_id": 4753,
    "state_code": "CS",
    "country_id": 181,
    "country_code": "RO",
    "latitude": "44.86399000",
    "longitude": "21.95854000",
    "wikiDataId": null
  },
  {
    "id": 93975,
    "name": "Doclin",
    "state_id": 4753,
    "state_code": "CS",
    "country_id": 181,
    "country_code": "RO",
    "latitude": "45.29694000",
    "longitude": "21.65389000",
    "wikiDataId": null
  },
  {
    "id": 93980,
    "name": "Dognecea",
    "state_id": 4753,
    "state_code": "CS",
    "country_id": 181,
    "country_code": "RO",
    "latitude": "45.27417000",
    "longitude": "21.75694000",
    "wikiDataId": null
  },
  {
    "id": 93988,
    "name": "Domaşnea",
    "state_id": 4753,
    "state_code": "CS",
    "country_id": 181,
    "country_code": "RO",
    "latitude": "45.08333000",
    "longitude": "22.31667000",
    "wikiDataId": null
  },
  {
    "id": 94139,
    "name": "Eftimie Murgu",
    "state_id": 4753,
    "state_code": "CS",
    "country_id": 181,
    "country_code": "RO",
    "latitude": "44.90028000",
    "longitude": "22.09278000",
    "wikiDataId": null
  },
  {
    "id": 94146,
    "name": "Ezeriş",
    "state_id": 4753,
    "state_code": "CS",
    "country_id": 181,
    "country_code": "RO",
    "latitude": "45.41083000",
    "longitude": "21.88583000",
    "wikiDataId": null
  },
  {
    "id": 94245,
    "name": "Fârliug",
    "state_id": 4753,
    "state_code": "CS",
    "country_id": 181,
    "country_code": "RO",
    "latitude": "45.48833000",
    "longitude": "21.84944000",
    "wikiDataId": null
  },
  {
    "id": 94182,
    "name": "Fizeș",
    "state_id": 4753,
    "state_code": "CS",
    "country_id": 181,
    "country_code": "RO",
    "latitude": "45.36403000",
    "longitude": "21.59517000",
    "wikiDataId": null
  },
  {
    "id": 94198,
    "name": "Forotic",
    "state_id": 4753,
    "state_code": "CS",
    "country_id": 181,
    "country_code": "RO",
    "latitude": "45.23028000",
    "longitude": "21.58750000",
    "wikiDataId": null
  },
  {
    "id": 94495,
    "name": "Gârnic",
    "state_id": 4753,
    "state_code": "CS",
    "country_id": 181,
    "country_code": "RO",
    "latitude": "44.78639000",
    "longitude": "21.79444000",
    "wikiDataId": null
  },
  {
    "id": 94311,
    "name": "Gherteniș",
    "state_id": 4753,
    "state_code": "CS",
    "country_id": 181,
    "country_code": "RO",
    "latitude": "45.43315000",
    "longitude": "21.58126000",
    "wikiDataId": null
  },
  {
    "id": 94357,
    "name": "Glimboca",
    "state_id": 4753,
    "state_code": "CS",
    "country_id": 181,
    "country_code": "RO",
    "latitude": "45.48333000",
    "longitude": "22.31667000",
    "wikiDataId": null
  },
  {
    "id": 94389,
    "name": "Goruia",
    "state_id": 4753,
    "state_code": "CS",
    "country_id": 181,
    "country_code": "RO",
    "latitude": "45.18722000",
    "longitude": "21.77917000",
    "wikiDataId": null
  },
  {
    "id": 94436,
    "name": "Grădinari",
    "state_id": 4753,
    "state_code": "CS",
    "country_id": 181,
    "country_code": "RO",
    "latitude": "45.11861000",
    "longitude": "21.59889000",
    "wikiDataId": null
  },
  {
    "id": 94411,
    "name": "Greoni",
    "state_id": 4753,
    "state_code": "CS",
    "country_id": 181,
    "country_code": "RO",
    "latitude": "45.08901000",
    "longitude": "21.61731000",
    "wikiDataId": null
  },
  {
    "id": 94613,
    "name": "Iablaniţa",
    "state_id": 4753,
    "state_code": "CS",
    "country_id": 181,
    "country_code": "RO",
    "latitude": "44.95028000",
    "longitude": "22.31417000",
    "wikiDataId": null
  },
  {
    "id": 94897,
    "name": "Lăpuşnicel",
    "state_id": 4753,
    "state_code": "CS",
    "country_id": 181,
    "country_code": "RO",
    "latitude": "44.98306000",
    "longitude": "22.22694000",
    "wikiDataId": null
  },
  {
    "id": 94898,
    "name": "Lăpuşnicu Mare",
    "state_id": 4753,
    "state_code": "CS",
    "country_id": 181,
    "country_code": "RO",
    "latitude": "44.91306000",
    "longitude": "21.94417000",
    "wikiDataId": null
  },
  {
    "id": 94812,
    "name": "Liubcova",
    "state_id": 4753,
    "state_code": "CS",
    "country_id": 181,
    "country_code": "RO",
    "latitude": "44.65885000",
    "longitude": "21.89559000",
    "wikiDataId": null
  },
  {
    "id": 94875,
    "name": "Luncaviţa",
    "state_id": 4753,
    "state_code": "CS",
    "country_id": 181,
    "country_code": "RO",
    "latitude": "45.08333000",
    "longitude": "22.26667000",
    "wikiDataId": null
  },
  {
    "id": 94883,
    "name": "Lupac",
    "state_id": 4753,
    "state_code": "CS",
    "country_id": 181,
    "country_code": "RO",
    "latitude": "45.28000000",
    "longitude": "21.81278000",
    "wikiDataId": null
  },
  {
    "id": 94927,
    "name": "Marga",
    "state_id": 4753,
    "state_code": "CS",
    "country_id": 181,
    "country_code": "RO",
    "latitude": "45.50000000",
    "longitude": "22.51667000",
    "wikiDataId": null
  },
  {
    "id": 95281,
    "name": "Măru",
    "state_id": 4753,
    "state_code": "CS",
    "country_id": 181,
    "country_code": "RO",
    "latitude": "45.47586000",
    "longitude": "22.45039000",
    "wikiDataId": null
  },
  {
    "id": 95292,
    "name": "Măureni",
    "state_id": 4753,
    "state_code": "CS",
    "country_id": 181,
    "country_code": "RO",
    "latitude": "45.40389000",
    "longitude": "21.50250000",
    "wikiDataId": null
  },
  {
    "id": 94945,
    "name": "Mehadia",
    "state_id": 4753,
    "state_code": "CS",
    "country_id": 181,
    "country_code": "RO",
    "latitude": "44.90083000",
    "longitude": "22.36694000",
    "wikiDataId": null
  },
  {
    "id": 94946,
    "name": "Mehadica",
    "state_id": 4753,
    "state_code": "CS",
    "country_id": 181,
    "country_code": "RO",
    "latitude": "45.03333000",
    "longitude": "22.26667000",
    "wikiDataId": null
  },
  {
    "id": 95061,
    "name": "Moldova Nouă",
    "state_id": 4753,
    "state_code": "CS",
    "country_id": 181,
    "country_code": "RO",
    "latitude": "44.73750000",
    "longitude": "21.66694000",
    "wikiDataId": null
  },
  {
    "id": 95124,
    "name": "Municipiul Caransebeş",
    "state_id": 4753,
    "state_code": "CS",
    "country_id": 181,
    "country_code": "RO",
    "latitude": "45.43476000",
    "longitude": "22.20358000",
    "wikiDataId": null
  },
  {
    "id": 95171,
    "name": "Municipiul Reşiţa",
    "state_id": 4753,
    "state_code": "CS",
    "country_id": 181,
    "country_code": "RO",
    "latitude": "45.29838000",
    "longitude": "21.91192000",
    "wikiDataId": null
  },
  {
    "id": 95198,
    "name": "Muntele Mic",
    "state_id": 4753,
    "state_code": "CS",
    "country_id": 181,
    "country_code": "RO",
    "latitude": "45.38333000",
    "longitude": "22.33333000",
    "wikiDataId": null
  },
  {
    "id": 95298,
    "name": "Naidăș",
    "state_id": 4753,
    "state_code": "CS",
    "country_id": 181,
    "country_code": "RO",
    "latitude": "44.88108000",
    "longitude": "21.59061000",
    "wikiDataId": null
  },
  {
    "id": 95387,
    "name": "Obreja",
    "state_id": 4753,
    "state_code": "CS",
    "country_id": 181,
    "country_code": "RO",
    "latitude": "45.48333000",
    "longitude": "22.25000000",
    "wikiDataId": null
  },
  {
    "id": 95449,
    "name": "Oraş Anina",
    "state_id": 4753,
    "state_code": "CS",
    "country_id": 181,
    "country_code": "RO",
    "latitude": "45.07683000",
    "longitude": "21.85213000",
    "wikiDataId": null
  },
  {
    "id": 95483,
    "name": "Oraş Bãile Herculane",
    "state_id": 4753,
    "state_code": "CS",
    "country_id": 181,
    "country_code": "RO",
    "latitude": "44.87326000",
    "longitude": "22.41613000",
    "wikiDataId": null
  },
  {
    "id": 95464,
    "name": "Oraş Bocşa",
    "state_id": 4753,
    "state_code": "CS",
    "country_id": 181,
    "country_code": "RO",
    "latitude": "45.37570000",
    "longitude": "21.71483000",
    "wikiDataId": null
  },
  {
    "id": 95560,
    "name": "Oraş Oraviţa",
    "state_id": 4753,
    "state_code": "CS",
    "country_id": 181,
    "country_code": "RO",
    "latitude": "45.05918000",
    "longitude": "21.70739000",
    "wikiDataId": null
  },
  {
    "id": 95563,
    "name": "Oraş Oţelu Roşu",
    "state_id": 4753,
    "state_code": "CS",
    "country_id": 181,
    "country_code": "RO",
    "latitude": "45.51638000",
    "longitude": "22.38135000",
    "wikiDataId": null
  },
  {
    "id": 95446,
    "name": "Oraviţa",
    "state_id": 4753,
    "state_code": "CS",
    "country_id": 181,
    "country_code": "RO",
    "latitude": "45.03250000",
    "longitude": "21.68944000",
    "wikiDataId": null
  },
  {
    "id": 95690,
    "name": "Oţelu Roşu",
    "state_id": 4753,
    "state_code": "CS",
    "country_id": 181,
    "country_code": "RO",
    "latitude": "45.53333000",
    "longitude": "22.36667000",
    "wikiDataId": null
  },
  {
    "id": 95695,
    "name": "Padina Matei",
    "state_id": 4753,
    "state_code": "CS",
    "country_id": 181,
    "country_code": "RO",
    "latitude": "44.75843000",
    "longitude": "21.75067000",
    "wikiDataId": null
  },
  {
    "id": 96013,
    "name": "Păltiniş",
    "state_id": 4753,
    "state_code": "CS",
    "country_id": 181,
    "country_code": "RO",
    "latitude": "45.43333000",
    "longitude": "22.15000000",
    "wikiDataId": null
  },
  {
    "id": 95757,
    "name": "Petroșnița",
    "state_id": 4753,
    "state_code": "CS",
    "country_id": 181,
    "country_code": "RO",
    "latitude": "45.32351000",
    "longitude": "22.25920000",
    "wikiDataId": null
  },
  {
    "id": 95832,
    "name": "Plugova",
    "state_id": 4753,
    "state_code": "CS",
    "country_id": 181,
    "country_code": "RO",
    "latitude": "44.96250000",
    "longitude": "22.35864000",
    "wikiDataId": null
  },
  {
    "id": 95897,
    "name": "Pojejena",
    "state_id": 4753,
    "state_code": "CS",
    "country_id": 181,
    "country_code": "RO",
    "latitude": "44.77417000",
    "longitude": "21.57917000",
    "wikiDataId": null
  },
  {
    "id": 95951,
    "name": "Prigor",
    "state_id": 4753,
    "state_code": "CS",
    "country_id": 181,
    "country_code": "RO",
    "latitude": "44.93833000",
    "longitude": "22.11333000",
    "wikiDataId": null
  },
  {
    "id": 96192,
    "name": "Răcăşdia",
    "state_id": 4753,
    "state_code": "CS",
    "country_id": 181,
    "country_code": "RO",
    "latitude": "44.99306000",
    "longitude": "21.61806000",
    "wikiDataId": null
  },
  {
    "id": 96058,
    "name": "Ramna",
    "state_id": 4753,
    "state_code": "CS",
    "country_id": 181,
    "country_code": "RO",
    "latitude": "45.43833000",
    "longitude": "21.68833000",
    "wikiDataId": null
  },
  {
    "id": 96091,
    "name": "Reşiţa",
    "state_id": 4753,
    "state_code": "CS",
    "country_id": 181,
    "country_code": "RO",
    "latitude": "45.30083000",
    "longitude": "21.88917000",
    "wikiDataId": null
  },
  {
    "id": 96158,
    "name": "Rusca",
    "state_id": 4753,
    "state_code": "CS",
    "country_id": 181,
    "country_code": "RO",
    "latitude": "45.14517000",
    "longitude": "22.33859000",
    "wikiDataId": null
  },
  {
    "id": 96159,
    "name": "Rusca Montană",
    "state_id": 4753,
    "state_code": "CS",
    "country_id": 181,
    "country_code": "RO",
    "latitude": "45.56741000",
    "longitude": "22.45816000",
    "wikiDataId": null
  },
  {
    "id": 96222,
    "name": "Sacu",
    "state_id": 4753,
    "state_code": "CS",
    "country_id": 181,
    "country_code": "RO",
    "latitude": "45.56667000",
    "longitude": "22.11667000",
    "wikiDataId": null
  },
  {
    "id": 96248,
    "name": "Sasca Montană",
    "state_id": 4753,
    "state_code": "CS",
    "country_id": 181,
    "country_code": "RO",
    "latitude": "44.88546000",
    "longitude": "21.70915000",
    "wikiDataId": null
  },
  {
    "id": 96334,
    "name": "Sicheviţa",
    "state_id": 4753,
    "state_code": "CS",
    "country_id": 181,
    "country_code": "RO",
    "latitude": "44.73500000",
    "longitude": "21.84861000",
    "wikiDataId": null
  },
  {
    "id": 96363,
    "name": "Slatina-Timiş",
    "state_id": 4753,
    "state_code": "CS",
    "country_id": 181,
    "country_code": "RO",
    "latitude": "45.25000000",
    "longitude": "22.28333000",
    "wikiDataId": null
  },
  {
    "id": 96397,
    "name": "Socol",
    "state_id": 4753,
    "state_code": "CS",
    "country_id": 181,
    "country_code": "RO",
    "latitude": "44.86083000",
    "longitude": "21.37028000",
    "wikiDataId": null
  },
  {
    "id": 97071,
    "name": "Şopotu Nou",
    "state_id": 4753,
    "state_code": "CS",
    "country_id": 181,
    "country_code": "RO",
    "latitude": "44.84194000",
    "longitude": "21.86278000",
    "wikiDataId": null
  },
  {
    "id": 96424,
    "name": "Steierdorf",
    "state_id": 4753,
    "state_code": "CS",
    "country_id": 181,
    "country_code": "RO",
    "latitude": "45.06359000",
    "longitude": "21.85216000",
    "wikiDataId": null
  },
  {
    "id": 96596,
    "name": "Târnova",
    "state_id": 4753,
    "state_code": "CS",
    "country_id": 181,
    "country_code": "RO",
    "latitude": "45.34250000",
    "longitude": "22.00611000",
    "wikiDataId": null
  },
  {
    "id": 106084,
    "name": "Teregova",
    "state_id": 4753,
    "state_code": "CS",
    "country_id": 181,
    "country_code": "RO",
    "latitude": "45.15000000",
    "longitude": "22.28333000",
    "wikiDataId": null
  },
  {
    "id": 106095,
    "name": "Ticvaniu Mare",
    "state_id": 4753,
    "state_code": "CS",
    "country_id": 181,
    "country_code": "RO",
    "latitude": "45.13528000",
    "longitude": "21.63806000",
    "wikiDataId": null
  },
  {
    "id": 106130,
    "name": "Topleţ",
    "state_id": 4753,
    "state_code": "CS",
    "country_id": 181,
    "country_code": "RO",
    "latitude": "44.79722000",
    "longitude": "22.39444000",
    "wikiDataId": null
  },
  {
    "id": 96567,
    "name": "Turnu Ruieni",
    "state_id": 4753,
    "state_code": "CS",
    "country_id": 181,
    "country_code": "RO",
    "latitude": "45.39070000",
    "longitude": "22.33557000",
    "wikiDataId": null
  },
  {
    "id": 96711,
    "name": "Valea Bolvașnița",
    "state_id": 4753,
    "state_code": "CS",
    "country_id": 181,
    "country_code": "RO",
    "latitude": "44.94602000",
    "longitude": "22.39019000",
    "wikiDataId": null
  },
  {
    "id": 96967,
    "name": "Văliug",
    "state_id": 4753,
    "state_code": "CS",
    "country_id": 181,
    "country_code": "RO",
    "latitude": "45.23333000",
    "longitude": "22.03333000",
    "wikiDataId": null
  },
  {
    "id": 96972,
    "name": "Vărădia",
    "state_id": 4753,
    "state_code": "CS",
    "country_id": 181,
    "country_code": "RO",
    "latitude": "45.07833000",
    "longitude": "21.54694000",
    "wikiDataId": null
  },
  {
    "id": 96937,
    "name": "Vârciorova",
    "state_id": 4753,
    "state_code": "CS",
    "country_id": 181,
    "country_code": "RO",
    "latitude": "45.32710000",
    "longitude": "22.35208000",
    "wikiDataId": null
  },
  {
    "id": 96786,
    "name": "Verendin",
    "state_id": 4753,
    "state_code": "CS",
    "country_id": 181,
    "country_code": "RO",
    "latitude": "45.07755000",
    "longitude": "22.23917000",
    "wikiDataId": null
  },
  {
    "id": 96789,
    "name": "Vermeş",
    "state_id": 4753,
    "state_code": "CS",
    "country_id": 181,
    "country_code": "RO",
    "latitude": "45.52056000",
    "longitude": "21.65972000",
    "wikiDataId": null
  },
  {
    "id": 96896,
    "name": "Vrani",
    "state_id": 4753,
    "state_code": "CS",
    "country_id": 181,
    "country_code": "RO",
    "latitude": "45.03833000",
    "longitude": "21.49250000",
    "wikiDataId": null
  },
  {
    "id": 97022,
    "name": "Zăvoi",
    "state_id": 4753,
    "state_code": "CS",
    "country_id": 181,
    "country_code": "RO",
    "latitude": "45.51667000",
    "longitude": "22.41667000",
    "wikiDataId": null
  },
  {
    "id": 97005,
    "name": "Zorlenţu Mare",
    "state_id": 4753,
    "state_code": "CS",
    "country_id": 181,
    "country_code": "RO",
    "latitude": "45.45056000",
    "longitude": "21.95611000",
    "wikiDataId": null
  }
]