[
  {
    "id": 97169,
    "name": "Belegiš",
    "state_id": 3740,
    "state_code": "07",
    "country_id": 196,
    "country_code": "RS",
    "latitude": "45.01920000",
    "longitude": "20.33323000",
    "wikiDataId": null
  },
  {
    "id": 97175,
    "name": "Beška",
    "state_id": 3740,
    "state_code": "07",
    "country_id": 196,
    "country_code": "RS",
    "latitude": "45.13092000",
    "longitude": "20.06698000",
    "wikiDataId": null
  },
  {
    "id": 97183,
    "name": "Bosut",
    "state_id": 3740,
    "state_code": "07",
    "country_id": 196,
    "country_code": "RS",
    "latitude": "44.92977000",
    "longitude": "19.36086000",
    "wikiDataId": null
  },
  {
    "id": 97188,
    "name": "Buđanovci",
    "state_id": 3740,
    "state_code": "07",
    "country_id": 196,
    "country_code": "RS",
    "latitude": "44.89388000",
    "longitude": "19.86344000",
    "wikiDataId": null
  },
  {
    "id": 97463,
    "name": "Čortanovci",
    "state_id": 3740,
    "state_code": "07",
    "country_id": 196,
    "country_code": "RS",
    "latitude": "45.15460000",
    "longitude": "20.01851000",
    "wikiDataId": null
  },
  {
    "id": 97211,
    "name": "Golubinci",
    "state_id": 3740,
    "state_code": "07",
    "country_id": 196,
    "country_code": "RS",
    "latitude": "44.98533000",
    "longitude": "20.06339000",
    "wikiDataId": null
  },
  {
    "id": 97216,
    "name": "Grabovci",
    "state_id": 3740,
    "state_code": "07",
    "country_id": 196,
    "country_code": "RS",
    "latitude": "44.76496000",
    "longitude": "19.84489000",
    "wikiDataId": null
  },
  {
    "id": 97220,
    "name": "Hrtkovci",
    "state_id": 3740,
    "state_code": "07",
    "country_id": 196,
    "country_code": "RS",
    "latitude": "44.88155000",
    "longitude": "19.76374000",
    "wikiDataId": null
  },
  {
    "id": 97223,
    "name": "Inđija",
    "state_id": 3740,
    "state_code": "07",
    "country_id": 196,
    "country_code": "RS",
    "latitude": "45.04816000",
    "longitude": "20.08165000",
    "wikiDataId": null
  },
  {
    "id": 97224,
    "name": "Irig",
    "state_id": 3740,
    "state_code": "07",
    "country_id": 196,
    "country_code": "RS",
    "latitude": "45.05230000",
    "longitude": "19.84448000",
    "wikiDataId": null
  },
  {
    "id": 97230,
    "name": "Jarak",
    "state_id": 3740,
    "state_code": "07",
    "country_id": 196,
    "country_code": "RS",
    "latitude": "44.91843000",
    "longitude": "19.75477000",
    "wikiDataId": null
  },
  {
    "id": 97244,
    "name": "Klenak",
    "state_id": 3740,
    "state_code": "07",
    "country_id": 196,
    "country_code": "RS",
    "latitude": "44.78846000",
    "longitude": "19.71004000",
    "wikiDataId": null
  },
  {
    "id": 97262,
    "name": "Krčedin",
    "state_id": 3740,
    "state_code": "07",
    "country_id": 196,
    "country_code": "RS",
    "latitude": "45.13871000",
    "longitude": "20.13308000",
    "wikiDataId": null
  },
  {
    "id": 97278,
    "name": "Ljukovo",
    "state_id": 3740,
    "state_code": "07",
    "country_id": 196,
    "country_code": "RS",
    "latitude": "45.02604000",
    "longitude": "20.02737000",
    "wikiDataId": null
  },
  {
    "id": 97290,
    "name": "Mačvanska Mitrovica",
    "state_id": 3740,
    "state_code": "07",
    "country_id": 196,
    "country_code": "RS",
    "latitude": "44.96739000",
    "longitude": "19.59314000",
    "wikiDataId": null
  },
  {
    "id": 97303,
    "name": "Nikinci",
    "state_id": 3740,
    "state_code": "07",
    "country_id": 196,
    "country_code": "RS",
    "latitude": "44.85017000",
    "longitude": "19.82321000",
    "wikiDataId": null
  },
  {
    "id": 97308,
    "name": "Nova Pazova",
    "state_id": 3740,
    "state_code": "07",
    "country_id": 196,
    "country_code": "RS",
    "latitude": "44.94366000",
    "longitude": "20.21931000",
    "wikiDataId": null
  },
  {
    "id": 97309,
    "name": "Novi Banovci",
    "state_id": 3740,
    "state_code": "07",
    "country_id": 196,
    "country_code": "RS",
    "latitude": "44.95691000",
    "longitude": "20.28076000",
    "wikiDataId": null
  },
  {
    "id": 97311,
    "name": "Novi Karlovci",
    "state_id": 3740,
    "state_code": "07",
    "country_id": 196,
    "country_code": "RS",
    "latitude": "45.07636000",
    "longitude": "20.17948000",
    "wikiDataId": null
  },
  {
    "id": 97316,
    "name": "Novi Slankamen",
    "state_id": 3740,
    "state_code": "07",
    "country_id": 196,
    "country_code": "RS",
    "latitude": "45.12554000",
    "longitude": "20.23914000",
    "wikiDataId": null
  },
  {
    "id": 97336,
    "name": "Pećinci",
    "state_id": 3740,
    "state_code": "07",
    "country_id": 196,
    "country_code": "RS",
    "latitude": "44.90889000",
    "longitude": "19.96639000",
    "wikiDataId": null
  },
  {
    "id": 97339,
    "name": "Platičevo",
    "state_id": 3740,
    "state_code": "07",
    "country_id": 196,
    "country_code": "RS",
    "latitude": "44.82213000",
    "longitude": "19.79487000",
    "wikiDataId": null
  },
  {
    "id": 97350,
    "name": "Putinci",
    "state_id": 3740,
    "state_code": "07",
    "country_id": 196,
    "country_code": "RS",
    "latitude": "44.99259000",
    "longitude": "19.97102000",
    "wikiDataId": null
  },
  {
    "id": 97353,
    "name": "Radenković",
    "state_id": 3740,
    "state_code": "07",
    "country_id": 196,
    "country_code": "RS",
    "latitude": "44.92191000",
    "longitude": "19.49543000",
    "wikiDataId": null
  },
  {
    "id": 97359,
    "name": "Ravnje",
    "state_id": 3740,
    "state_code": "07",
    "country_id": 196,
    "country_code": "RS",
    "latitude": "44.94326000",
    "longitude": "19.42280000",
    "wikiDataId": null
  },
  {
    "id": 97364,
    "name": "Ruma",
    "state_id": 3740,
    "state_code": "07",
    "country_id": 196,
    "country_code": "RS",
    "latitude": "45.00806000",
    "longitude": "19.82222000",
    "wikiDataId": null
  },
  {
    "id": 97372,
    "name": "Salaš Noćajski",
    "state_id": 3740,
    "state_code": "07",
    "country_id": 196,
    "country_code": "RS",
    "latitude": "44.94722000",
    "longitude": "19.58611000",
    "wikiDataId": null
  },
  {
    "id": 97467,
    "name": "Šašinci",
    "state_id": 3740,
    "state_code": "07",
    "country_id": 196,
    "country_code": "RS",
    "latitude": "44.96514000",
    "longitude": "19.74151000",
    "wikiDataId": null
  },
  {
    "id": 155085,
    "name": "Šid",
    "state_id": 3740,
    "state_code": "07",
    "country_id": 196,
    "country_code": "RS",
    "latitude": "45.14969220",
    "longitude": "19.12844990",
    "wikiDataId": null
  },
  {
    "id": 97470,
    "name": "Šimanovci",
    "state_id": 3740,
    "state_code": "07",
    "country_id": 196,
    "country_code": "RS",
    "latitude": "44.87393000",
    "longitude": "20.09175000",
    "wikiDataId": null
  },
  {
    "id": 97388,
    "name": "Sremska Mitrovica",
    "state_id": 3740,
    "state_code": "07",
    "country_id": 196,
    "country_code": "RS",
    "latitude": "44.97639000",
    "longitude": "19.61222000",
    "wikiDataId": null
  },
  {
    "id": 97395,
    "name": "Stara Pazova",
    "state_id": 3740,
    "state_code": "07",
    "country_id": 196,
    "country_code": "RS",
    "latitude": "44.98500000",
    "longitude": "20.16083000",
    "wikiDataId": null
  },
  {
    "id": 97396,
    "name": "Stari Banovci",
    "state_id": 3740,
    "state_code": "07",
    "country_id": 196,
    "country_code": "RS",
    "latitude": "44.98420000",
    "longitude": "20.28382000",
    "wikiDataId": null
  },
  {
    "id": 97403,
    "name": "Surduk",
    "state_id": 3740,
    "state_code": "07",
    "country_id": 196,
    "country_code": "RS",
    "latitude": "45.07118000",
    "longitude": "20.32510000",
    "wikiDataId": null
  },
  {
    "id": 97433,
    "name": "Višnjićevo",
    "state_id": 3740,
    "state_code": "07",
    "country_id": 196,
    "country_code": "RS",
    "latitude": "44.96731000",
    "longitude": "19.28993000",
    "wikiDataId": null
  },
  {
    "id": 97437,
    "name": "Vojka",
    "state_id": 3740,
    "state_code": "07",
    "country_id": 196,
    "country_code": "RS",
    "latitude": "44.93713000",
    "longitude": "20.15236000",
    "wikiDataId": null
  },
  {
    "id": 97442,
    "name": "Vrdnik",
    "state_id": 3740,
    "state_code": "07",
    "country_id": 196,
    "country_code": "RS",
    "latitude": "45.12174000",
    "longitude": "19.79227000",
    "wikiDataId": null
  }
]