[
  {
    "id": 143877,
    "name": "Acevedo",
    "state_id": 4871,
    "state_code": "HUI",
    "country_id": 48,
    "country_code": "CO",
    "latitude": "1.83611111",
    "longitude": "-75.85500000",
    "wikiDataId": null
  },
  {
    "id": 143878,
    "name": "Aipe",
    "state_id": 4871,
    "state_code": "HUI",
    "country_id": 48,
    "country_code": "CO",
    "latitude": "3.22194444",
    "longitude": "-75.23750000",
    "wikiDataId": null
  },
  {
    "id": 143879,
    "name": "Algeciras",
    "state_id": 4871,
    "state_code": "HUI",
    "country_id": 48,
    "country_code": "CO",
    "latitude": "2.52194444",
    "longitude": "-75.31444444",
    "wikiDataId": null
  },
  {
    "id": 143880,
    "name": "Altamira",
    "state_id": 4871,
    "state_code": "HUI",
    "country_id": 48,
    "country_code": "CO",
    "latitude": "2.06333333",
    "longitude": "-75.78777778",
    "wikiDataId": null
  },
  {
    "id": 143881,
    "name": "Baraya",
    "state_id": 4871,
    "state_code": "HUI",
    "country_id": 48,
    "country_code": "CO",
    "latitude": "3.15305556",
    "longitude": "-75.05250000",
    "wikiDataId": null
  },
  {
    "id": 143882,
    "name": "Campoalegre",
    "state_id": 4871,
    "state_code": "HUI",
    "country_id": 48,
    "country_code": "CO",
    "latitude": "2.68666667",
    "longitude": "-75.32555556",
    "wikiDataId": null
  },
  {
    "id": 143883,
    "name": "Colombia",
    "state_id": 4871,
    "state_code": "HUI",
    "country_id": 48,
    "country_code": "CO",
    "latitude": "3.37500000",
    "longitude": "-74.80194444",
    "wikiDataId": null
  },
  {
    "id": 143884,
    "name": "El Agrado",
    "state_id": 4871,
    "state_code": "HUI",
    "country_id": 48,
    "country_code": "CO",
    "latitude": "2.25833056",
    "longitude": "-75.77250000",
    "wikiDataId": null
  },
  {
    "id": 143885,
    "name": "Elias",
    "state_id": 4871,
    "state_code": "HUI",
    "country_id": 48,
    "country_code": "CO",
    "latitude": "2.01361111",
    "longitude": "-75.93972222",
    "wikiDataId": null
  },
  {
    "id": 143886,
    "name": "Garzón",
    "state_id": 4871,
    "state_code": "HUI",
    "country_id": 48,
    "country_code": "CO",
    "latitude": "2.19611111",
    "longitude": "-75.62916667",
    "wikiDataId": null
  },
  {
    "id": 143887,
    "name": "Gigante",
    "state_id": 4871,
    "state_code": "HUI",
    "country_id": 48,
    "country_code": "CO",
    "latitude": "2.38666944",
    "longitude": "-75.54610000",
    "wikiDataId": null
  },
  {
    "id": 143888,
    "name": "Guadalupe",
    "state_id": 4871,
    "state_code": "HUI",
    "country_id": 48,
    "country_code": "CO",
    "latitude": "2.02500000",
    "longitude": "-75.75638889",
    "wikiDataId": null
  },
  {
    "id": 143889,
    "name": "Hobo",
    "state_id": 4871,
    "state_code": "HUI",
    "country_id": 48,
    "country_code": "CO",
    "latitude": "2.58250000",
    "longitude": "-75.45111111",
    "wikiDataId": null
  },
  {
    "id": 143890,
    "name": "Iquira",
    "state_id": 4871,
    "state_code": "HUI",
    "country_id": 48,
    "country_code": "CO",
    "latitude": "2.64833333",
    "longitude": "-75.63638889",
    "wikiDataId": null
  },
  {
    "id": 143891,
    "name": "Isnos",
    "state_id": 4871,
    "state_code": "HUI",
    "country_id": 48,
    "country_code": "CO",
    "latitude": "1.92888889",
    "longitude": "-76.21583333",
    "wikiDataId": null
  },
  {
    "id": 149242,
    "name": "La Argentina",
    "state_id": 4871,
    "state_code": "HUI",
    "country_id": 48,
    "country_code": "CO",
    "latitude": "2.19755555",
    "longitude": "-75.98888888",
    "wikiDataId": null
  },
  {
    "id": 143892,
    "name": "La Plata",
    "state_id": 4871,
    "state_code": "HUI",
    "country_id": 48,
    "country_code": "CO",
    "latitude": "2.39000000",
    "longitude": "-75.89194444",
    "wikiDataId": null
  },
  {
    "id": 143893,
    "name": "Nataga",
    "state_id": 4871,
    "state_code": "HUI",
    "country_id": 48,
    "country_code": "CO",
    "latitude": "2.54388889",
    "longitude": "-75.80861111",
    "wikiDataId": null
  },
  {
    "id": 143894,
    "name": "Neiva",
    "state_id": 4871,
    "state_code": "HUI",
    "country_id": 48,
    "country_code": "CO",
    "latitude": "2.92750000",
    "longitude": "-75.28750000",
    "wikiDataId": null
  },
  {
    "id": 143895,
    "name": "Oporapa",
    "state_id": 4871,
    "state_code": "HUI",
    "country_id": 48,
    "country_code": "CO",
    "latitude": "2.02305556",
    "longitude": "-75.99527778",
    "wikiDataId": null
  },
  {
    "id": 143896,
    "name": "Paicol",
    "state_id": 4871,
    "state_code": "HUI",
    "country_id": 48,
    "country_code": "CO",
    "latitude": "2.44972222",
    "longitude": "-75.77388889",
    "wikiDataId": null
  },
  {
    "id": 143897,
    "name": "Palermo",
    "state_id": 4871,
    "state_code": "HUI",
    "country_id": 48,
    "country_code": "CO",
    "latitude": "2.88833333",
    "longitude": "-75.43388889",
    "wikiDataId": null
  },
  {
    "id": 143898,
    "name": "Palestina",
    "state_id": 4871,
    "state_code": "HUI",
    "country_id": 48,
    "country_code": "CO",
    "latitude": "1.72250000",
    "longitude": "-76.13055556",
    "wikiDataId": null
  },
  {
    "id": 143899,
    "name": "Pital",
    "state_id": 4871,
    "state_code": "HUI",
    "country_id": 48,
    "country_code": "CO",
    "latitude": "2.26638889",
    "longitude": "-75.80444444",
    "wikiDataId": null
  },
  {
    "id": 143900,
    "name": "Pitalito",
    "state_id": 4871,
    "state_code": "HUI",
    "country_id": 48,
    "country_code": "CO",
    "latitude": "1.85388889",
    "longitude": "-76.05138889",
    "wikiDataId": null
  },
  {
    "id": 143901,
    "name": "Rivera",
    "state_id": 4871,
    "state_code": "HUI",
    "country_id": 48,
    "country_code": "CO",
    "latitude": "2.77722222",
    "longitude": "-75.25638889",
    "wikiDataId": null
  },
  {
    "id": 143902,
    "name": "Saladoblanco",
    "state_id": 4871,
    "state_code": "HUI",
    "country_id": 48,
    "country_code": "CO",
    "latitude": "1.99333333",
    "longitude": "-76.04527778",
    "wikiDataId": null
  },
  {
    "id": 143903,
    "name": "San Agustín",
    "state_id": 4871,
    "state_code": "HUI",
    "country_id": 48,
    "country_code": "CO",
    "latitude": "1.87916667",
    "longitude": "-76.26833333",
    "wikiDataId": null
  },
  {
    "id": 143904,
    "name": "Santa María",
    "state_id": 4871,
    "state_code": "HUI",
    "country_id": 48,
    "country_code": "CO",
    "latitude": "2.93777778",
    "longitude": "-75.58694444",
    "wikiDataId": null
  },
  {
    "id": 143905,
    "name": "Suaza",
    "state_id": 4871,
    "state_code": "HUI",
    "country_id": 48,
    "country_code": "CO",
    "latitude": "1.97500000",
    "longitude": "-75.79555556",
    "wikiDataId": null
  },
  {
    "id": 143906,
    "name": "Tarqui",
    "state_id": 4871,
    "state_code": "HUI",
    "country_id": 48,
    "country_code": "CO",
    "latitude": "2.11055556",
    "longitude": "-75.82305556",
    "wikiDataId": null
  },
  {
    "id": 143907,
    "name": "Tello",
    "state_id": 4871,
    "state_code": "HUI",
    "country_id": 48,
    "country_code": "CO",
    "latitude": "3.06666667",
    "longitude": "-75.13861111",
    "wikiDataId": null
  },
  {
    "id": 143908,
    "name": "Teruel",
    "state_id": 4871,
    "state_code": "HUI",
    "country_id": 48,
    "country_code": "CO",
    "latitude": "2.74055556",
    "longitude": "-75.56833333",
    "wikiDataId": null
  },
  {
    "id": 143909,
    "name": "Tesalia",
    "state_id": 4871,
    "state_code": "HUI",
    "country_id": 48,
    "country_code": "CO",
    "latitude": "2.48472222",
    "longitude": "-75.73000000",
    "wikiDataId": null
  },
  {
    "id": 143910,
    "name": "Timana",
    "state_id": 4871,
    "state_code": "HUI",
    "country_id": 48,
    "country_code": "CO",
    "latitude": "1.97136000",
    "longitude": "-75.93123000",
    "wikiDataId": null
  },
  {
    "id": 143911,
    "name": "Villavieja",
    "state_id": 4871,
    "state_code": "HUI",
    "country_id": 48,
    "country_code": "CO",
    "latitude": "3.21888889",
    "longitude": "-75.21833333",
    "wikiDataId": null
  },
  {
    "id": 143912,
    "name": "Yaguará",
    "state_id": 4871,
    "state_code": "HUI",
    "country_id": 48,
    "country_code": "CO",
    "latitude": "2.66361111",
    "longitude": "-75.51750000",
    "wikiDataId": null
  }
]