[
  {
    "id": 150729,
    "name": "Dastjerd",
    "state_id": 3922,
    "state_code": "25",
    "country_id": 103,
    "country_code": "IR",
    "latitude": "34.55380730",
    "longitude": "50.23906220",
    "wikiDataId": null
  },
  {
    "id": 150728,
    "name": "Jafarie",
    "state_id": 3922,
    "state_code": "25",
    "country_id": 103,
    "country_code": "IR",
    "latitude": "34.77450740",
    "longitude": "50.50651060",
    "wikiDataId": null
  },
  {
    "id": 150732,
    "name": "Kahak",
    "state_id": 3922,
    "state_code": "25",
    "country_id": 103,
    "country_code": "IR",
    "latitude": "34.39196580",
    "longitude": "50.85463990",
    "wikiDataId": null
  },
  {
    "id": 150731,
    "name": "Qanavat",
    "state_id": 3922,
    "state_code": "25",
    "country_id": 103,
    "country_code": "IR",
    "latitude": "34.61233580",
    "longitude": "51.01366270",
    "wikiDataId": null
  },
  {
    "id": 134744,
    "name": "Qom",
    "state_id": 3922,
    "state_code": "25",
    "country_id": 103,
    "country_code": "IR",
    "latitude": "34.64010000",
    "longitude": "50.87640000",
    "wikiDataId": null
  },
  {
    "id": 150730,
    "name": "Salafchegan",
    "state_id": 3922,
    "state_code": "25",
    "country_id": 103,
    "country_code": "IR",
    "latitude": "34.47660600",
    "longitude": "50.45501230",
    "wikiDataId": null
  }
]