[
  {
    "id": 4651,
    "name": "Central Singapore",
    "country_id": 199,
    "country_code": "SG",
    "state_code": "01",
    "type": "district",
    "latitude": "1.28840000",
    "longitude": "103.85350000",
    "iso3166_2": "SG-01",
    "native": "Central Singapore",
    "timezone": "Asia/Singapore"
  },
  {
    "id": 4649,
    "name": "North East",
    "country_id": 199,
    "country_code": "SG",
    "state_code": "02",
    "type": "district",
    "latitude": "5.33411860",
    "longitude": "100.27610770",
    "iso3166_2": "SG-02",
    "native": "North East",
    "timezone": "Asia/Singapore"
  },
  {
    "id": 4653,
    "name": "North West",
    "country_id": 199,
    "country_code": "SG",
    "state_code": "03",
    "type": "district",
    "latitude": "1.45093820",
    "longitude": "103.78495190",
    "iso3166_2": "SG-03",
    "native": "North West",
    "timezone": "Asia/Singapore"
  },
  {
    "id": 4650,
    "name": "South East",
    "country_id": 199,
    "country_code": "SG",
    "state_code": "04",
    "type": "district",
    "latitude": "1.33523290",
    "longitude": "103.95989310",
    "iso3166_2": "SG-04",
    "native": "South East",
    "timezone": "Asia/Singapore"
  },
  {
    "id": 4652,
    "name": "South West",
    "country_id": 199,
    "country_code": "SG",
    "state_code": "05",
    "type": "district",
    "latitude": "5.28833890",
    "longitude": "100.28150990",
    "iso3166_2": "SG-05",
    "native": "South West",
    "timezone": "Asia/Singapore"
  }
]