[
  {
    "id": 109349,
    "name": "Bar",
    "state_id": 4669,
    "state_code": "05",
    "country_id": 230,
    "country_code": "UA",
    "latitude": "49.07717000",
    "longitude": "27.68256000",
    "wikiDataId": null
  },
  {
    "id": 109351,
    "name": "Barskiy Rayon",
    "state_id": 4669,
    "state_code": "05",
    "country_id": 230,
    "country_code": "UA",
    "latitude": "49.06667000",
    "longitude": "27.68333000",
    "wikiDataId": null
  },
  {
    "id": 109387,
    "name": "Bershad",
    "state_id": 4669,
    "state_code": "05",
    "country_id": 230,
    "country_code": "UA",
    "latitude": "48.36782000",
    "longitude": "29.51726000",
    "wikiDataId": null
  },
  {
    "id": 109443,
    "name": "Brailiv",
    "state_id": 4669,
    "state_code": "05",
    "country_id": 230,
    "country_code": "UA",
    "latitude": "49.10986000",
    "longitude": "28.17459000",
    "wikiDataId": null
  },
  {
    "id": 109445,
    "name": "Bratslav",
    "state_id": 4669,
    "state_code": "05",
    "country_id": 230,
    "country_code": "UA",
    "latitude": "48.82257000",
    "longitude": "28.94070000",
    "wikiDataId": null
  },
  {
    "id": 109475,
    "name": "Chechelnyk",
    "state_id": 4669,
    "state_code": "05",
    "country_id": 230,
    "country_code": "UA",
    "latitude": "48.21509000",
    "longitude": "29.36728000",
    "wikiDataId": null
  },
  {
    "id": 109484,
    "name": "Chernivets’kyy Rayon",
    "state_id": 4669,
    "state_code": "05",
    "country_id": 230,
    "country_code": "UA",
    "latitude": "48.51106000",
    "longitude": "28.14191000",
    "wikiDataId": null
  },
  {
    "id": 109485,
    "name": "Chernivtsi",
    "state_id": 4669,
    "state_code": "05",
    "country_id": 230,
    "country_code": "UA",
    "latitude": "48.54225000",
    "longitude": "28.11473000",
    "wikiDataId": null
  },
  {
    "id": 109530,
    "name": "Dashiv",
    "state_id": 4669,
    "state_code": "05",
    "country_id": 230,
    "country_code": "UA",
    "latitude": "49.00449000",
    "longitude": "29.42559000",
    "wikiDataId": null
  },
  {
    "id": 109624,
    "name": "Haisyn",
    "state_id": 4669,
    "state_code": "05",
    "country_id": 230,
    "country_code": "UA",
    "latitude": "48.81143000",
    "longitude": "29.38977000",
    "wikiDataId": null
  },
  {
    "id": 109667,
    "name": "Illintsi",
    "state_id": 4669,
    "state_code": "05",
    "country_id": 230,
    "country_code": "UA",
    "latitude": "49.10479000",
    "longitude": "29.21773000",
    "wikiDataId": null
  },
  {
    "id": 109704,
    "name": "Kalynivka",
    "state_id": 4669,
    "state_code": "05",
    "country_id": 230,
    "country_code": "UA",
    "latitude": "49.45389000",
    "longitude": "28.52608000",
    "wikiDataId": null
  },
  {
    "id": 109732,
    "name": "Khmilnyk",
    "state_id": 4669,
    "state_code": "05",
    "country_id": 230,
    "country_code": "UA",
    "latitude": "49.55979000",
    "longitude": "27.95754000",
    "wikiDataId": null
  },
  {
    "id": 109759,
    "name": "Klembivka",
    "state_id": 4669,
    "state_code": "05",
    "country_id": 230,
    "country_code": "UA",
    "latitude": "48.39037000",
    "longitude": "28.41092000",
    "wikiDataId": null
  },
  {
    "id": 109792,
    "name": "Kopayhorod",
    "state_id": 4669,
    "state_code": "05",
    "country_id": 230,
    "country_code": "UA",
    "latitude": "48.85917000",
    "longitude": "27.79690000",
    "wikiDataId": null
  },
  {
    "id": 109827,
    "name": "Kozyatyn",
    "state_id": 4669,
    "state_code": "05",
    "country_id": 230,
    "country_code": "UA",
    "latitude": "49.71431000",
    "longitude": "28.83385000",
    "wikiDataId": null
  },
  {
    "id": 109879,
    "name": "Kryzhopil’",
    "state_id": 4669,
    "state_code": "05",
    "country_id": 230,
    "country_code": "UA",
    "latitude": "48.38289000",
    "longitude": "28.86622000",
    "wikiDataId": null
  },
  {
    "id": 109902,
    "name": "Ladyzhyn",
    "state_id": 4669,
    "state_code": "05",
    "country_id": 230,
    "country_code": "UA",
    "latitude": "48.68496000",
    "longitude": "29.23679000",
    "wikiDataId": null
  },
  {
    "id": 109921,
    "name": "Lityn",
    "state_id": 4669,
    "state_code": "05",
    "country_id": 230,
    "country_code": "UA",
    "latitude": "49.32509000",
    "longitude": "28.08094000",
    "wikiDataId": null
  },
  {
    "id": 109922,
    "name": "Lityns’kyy Rayon",
    "state_id": 4669,
    "state_code": "05",
    "country_id": 230,
    "country_code": "UA",
    "latitude": "49.37138000",
    "longitude": "28.07033000",
    "wikiDataId": null
  },
  {
    "id": 109957,
    "name": "Lypovets’kyy Rayon",
    "state_id": 4669,
    "state_code": "05",
    "country_id": 230,
    "country_code": "UA",
    "latitude": "49.28006000",
    "longitude": "28.93205000",
    "wikiDataId": null
  },
  {
    "id": 110045,
    "name": "Mohyliv-Podilskyi",
    "state_id": 4669,
    "state_code": "05",
    "country_id": 230,
    "country_code": "UA",
    "latitude": "48.44598000",
    "longitude": "27.79820000",
    "wikiDataId": null
  },
  {
    "id": 110060,
    "name": "Murafa",
    "state_id": 4669,
    "state_code": "05",
    "country_id": 230,
    "country_code": "UA",
    "latitude": "48.76763000",
    "longitude": "28.21569000",
    "wikiDataId": null
  },
  {
    "id": 110063,
    "name": "Murovani Kurylivtsi",
    "state_id": 4669,
    "state_code": "05",
    "country_id": 230,
    "country_code": "UA",
    "latitude": "48.72348000",
    "longitude": "27.51892000",
    "wikiDataId": null
  },
  {
    "id": 110091,
    "name": "Nemyriv",
    "state_id": 4669,
    "state_code": "05",
    "country_id": 230,
    "country_code": "UA",
    "latitude": "48.97076000",
    "longitude": "28.83779000",
    "wikiDataId": null
  },
  {
    "id": 110108,
    "name": "Nova Pryluka",
    "state_id": 4669,
    "state_code": "05",
    "country_id": 230,
    "country_code": "UA",
    "latitude": "49.37488000",
    "longitude": "28.69955000",
    "wikiDataId": null
  },
  {
    "id": 110171,
    "name": "Obodivka",
    "state_id": 4669,
    "state_code": "05",
    "country_id": 230,
    "country_code": "UA",
    "latitude": "48.40514000",
    "longitude": "29.24775000",
    "wikiDataId": null
  },
  {
    "id": 110199,
    "name": "Orativ",
    "state_id": 4669,
    "state_code": "05",
    "country_id": 230,
    "country_code": "UA",
    "latitude": "49.18889000",
    "longitude": "29.52697000",
    "wikiDataId": null
  },
  {
    "id": 110230,
    "name": "Pavlivka",
    "state_id": 4669,
    "state_code": "05",
    "country_id": 230,
    "country_code": "UA",
    "latitude": "49.44143000",
    "longitude": "28.45956000",
    "wikiDataId": null
  },
  {
    "id": 110288,
    "name": "Pohrebyshche",
    "state_id": 4669,
    "state_code": "05",
    "country_id": 230,
    "country_code": "UA",
    "latitude": "49.48639000",
    "longitude": "29.26361000",
    "wikiDataId": null
  },
  {
    "id": 110289,
    "name": "Pohrebyshchens’kyy Rayon",
    "state_id": 4669,
    "state_code": "05",
    "country_id": 230,
    "country_code": "UA",
    "latitude": "49.48126000",
    "longitude": "29.25953000",
    "wikiDataId": null
  },
  {
    "id": 110419,
    "name": "Serebriya",
    "state_id": 4669,
    "state_code": "05",
    "country_id": 230,
    "country_code": "UA",
    "latitude": "48.45593000",
    "longitude": "27.71923000",
    "wikiDataId": null
  },
  {
    "id": 110430,
    "name": "Sharhorod",
    "state_id": 4669,
    "state_code": "05",
    "country_id": 230,
    "country_code": "UA",
    "latitude": "48.75587000",
    "longitude": "28.07507000",
    "wikiDataId": null
  },
  {
    "id": 110496,
    "name": "Sobolivka",
    "state_id": 4669,
    "state_code": "05",
    "country_id": 230,
    "country_code": "UA",
    "latitude": "49.33604000",
    "longitude": "28.65096000",
    "wikiDataId": null
  },
  {
    "id": 110566,
    "name": "Sutysky",
    "state_id": 4669,
    "state_code": "05",
    "country_id": 230,
    "country_code": "UA",
    "latitude": "49.04245000",
    "longitude": "28.41733000",
    "wikiDataId": null
  },
  {
    "id": 110600,
    "name": "Teplyk",
    "state_id": 4669,
    "state_code": "05",
    "country_id": 230,
    "country_code": "UA",
    "latitude": "48.66566000",
    "longitude": "29.74504000",
    "wikiDataId": null
  },
  {
    "id": 110614,
    "name": "Tomashpil’",
    "state_id": 4669,
    "state_code": "05",
    "country_id": 230,
    "country_code": "UA",
    "latitude": "48.54256000",
    "longitude": "28.51684000",
    "wikiDataId": null
  },
  {
    "id": 110617,
    "name": "Torkanivka",
    "state_id": 4669,
    "state_code": "05",
    "country_id": 230,
    "country_code": "UA",
    "latitude": "48.32462000",
    "longitude": "29.14746000",
    "wikiDataId": null
  },
  {
    "id": 110633,
    "name": "Tsybulevka",
    "state_id": 4669,
    "state_code": "05",
    "country_id": 230,
    "country_code": "UA",
    "latitude": "48.38719000",
    "longitude": "29.10288000",
    "wikiDataId": null
  },
  {
    "id": 110636,
    "name": "Tulchyn",
    "state_id": 4669,
    "state_code": "05",
    "country_id": 230,
    "country_code": "UA",
    "latitude": "48.67448000",
    "longitude": "28.84641000",
    "wikiDataId": null
  },
  {
    "id": 110637,
    "name": "Turbiv",
    "state_id": 4669,
    "state_code": "05",
    "country_id": 230,
    "country_code": "UA",
    "latitude": "49.34788000",
    "longitude": "28.72117000",
    "wikiDataId": null
  },
  {
    "id": 110647,
    "name": "Tyvriv",
    "state_id": 4669,
    "state_code": "05",
    "country_id": 230,
    "country_code": "UA",
    "latitude": "49.01404000",
    "longitude": "28.50846000",
    "wikiDataId": null
  },
  {
    "id": 110654,
    "name": "Ulaniv",
    "state_id": 4669,
    "state_code": "05",
    "country_id": 230,
    "country_code": "UA",
    "latitude": "49.69512000",
    "longitude": "28.13298000",
    "wikiDataId": null
  },
  {
    "id": 110671,
    "name": "Vapnyarka",
    "state_id": 4669,
    "state_code": "05",
    "country_id": 230,
    "country_code": "UA",
    "latitude": "48.53479000",
    "longitude": "28.74358000",
    "wikiDataId": null
  },
  {
    "id": 110698,
    "name": "Vendychany",
    "state_id": 4669,
    "state_code": "05",
    "country_id": 230,
    "country_code": "UA",
    "latitude": "48.61176000",
    "longitude": "27.79324000",
    "wikiDataId": null
  },
  {
    "id": 110720,
    "name": "Vinnitskiy Rayon",
    "state_id": 4669,
    "state_code": "05",
    "country_id": 230,
    "country_code": "UA",
    "latitude": "49.23531000",
    "longitude": "28.47588000",
    "wikiDataId": null
  },
  {
    "id": 110722,
    "name": "Vinnytsia",
    "state_id": 4669,
    "state_code": "05",
    "country_id": 230,
    "country_code": "UA",
    "latitude": "49.23278000",
    "longitude": "28.48097000",
    "wikiDataId": null
  },
  {
    "id": 110727,
    "name": "Viytivka",
    "state_id": 4669,
    "state_code": "05",
    "country_id": 230,
    "country_code": "UA",
    "latitude": "48.42603000",
    "longitude": "29.54291000",
    "wikiDataId": null
  },
  {
    "id": 110743,
    "name": "Voronovytsya",
    "state_id": 4669,
    "state_code": "05",
    "country_id": 230,
    "country_code": "UA",
    "latitude": "49.10954000",
    "longitude": "28.68078000",
    "wikiDataId": null
  },
  {
    "id": 110780,
    "name": "Yampil’",
    "state_id": 4669,
    "state_code": "05",
    "country_id": 230,
    "country_code": "UA",
    "latitude": "48.24240000",
    "longitude": "28.28195000",
    "wikiDataId": null
  },
  {
    "id": 110844,
    "name": "Zhmerynka",
    "state_id": 4669,
    "state_code": "05",
    "country_id": 230,
    "country_code": "UA",
    "latitude": "49.03705000",
    "longitude": "28.11201000",
    "wikiDataId": null
  }
]