[
  {
    "id": 71,
    "name": "Agadez",
    "country_id": 160,
    "country_code": "NE",
    "state_code": "1",
    "type": "region",
    "latitude": "19.42111150",
    "longitude": "10.68469870",
    "iso3166_2": "NE-1",
    "native": "Agadez",
    "timezone": "Africa/Niamey"
  },
  {
    "id": 72,
    "name": "Diffa",
    "country_id": 160,
    "country_code": "NE",
    "state_code": "2",
    "type": "region",
    "latitude": "13.48808750",
    "longitude": "12.51362660",
    "iso3166_2": "NE-2",
    "native": "Distraction",
    "timezone": "Africa/Niamey"
  },
  {
    "id": 68,
    "name": "Dosso",
    "country_id": 160,
    "country_code": "NE",
    "state_code": "3",
    "type": "region",
    "latitude": "13.16580090",
    "longitude": "3.30680750",
    "iso3166_2": "NE-3",
    "native": "Dossier",
    "timezone": "Africa/Niamey"
  },
  {
    "id": 70,
    "name": "Maradi",
    "country_id": 160,
    "country_code": "NE",
    "state_code": "4",
    "type": "region",
    "latitude": "14.22400000",
    "longitude": "7.47178770",
    "iso3166_2": "NE-4",
    "native": "Marigi",
    "timezone": "Africa/Niamey"
  },
  {
    "id": 73,
    "name": "Tahoua",
    "country_id": 160,
    "country_code": "NE",
    "state_code": "5",
    "type": "region",
    "latitude": "16.15767450",
    "longitude": "5.32826520",
    "iso3166_2": "NE-5",
    "native": "Unité",
    "timezone": "Africa/Niamey"
  },
  {
    "id": 67,
    "name": "Tillabéri",
    "country_id": 160,
    "country_code": "NE",
    "state_code": "6",
    "type": "region",
    "latitude": "13.72510680",
    "longitude": "1.69614560",
    "iso3166_2": "NE-6",
    "native": "Tilla",
    "timezone": "Africa/Niamey"
  },
  {
    "id": 69,
    "name": "Zinder",
    "country_id": 160,
    "country_code": "NE",
    "state_code": "7",
    "type": "region",
    "latitude": "15.17870000",
    "longitude": "9.70741080",
    "iso3166_2": "NE-7",
    "native": "Zinder",
    "timezone": "Africa/Niamey"
  }
]