[
  {
    "id": 97149,
    "name": "Badovinci",
    "state_id": 3719,
    "state_code": "08",
    "country_id": 196,
    "country_code": "RS",
    "latitude": "44.78534000",
    "longitude": "19.37146000",
    "wikiDataId": null
  },
  {
    "id": 97157,
    "name": "Banovo Polje",
    "state_id": 3719,
    "state_code": "08",
    "country_id": 196,
    "country_code": "RS",
    "latitude": "44.91040000",
    "longitude": "19.44916000",
    "wikiDataId": null
  },
  {
    "id": 97172,
    "name": "Belotić",
    "state_id": 3719,
    "state_code": "08",
    "country_id": 196,
    "country_code": "RS",
    "latitude": "44.81782000",
    "longitude": "19.54801000",
    "wikiDataId": null
  },
  {
    "id": 97177,
    "name": "Bogatić",
    "state_id": 3719,
    "state_code": "08",
    "country_id": 196,
    "country_code": "RS",
    "latitude": "44.84997410",
    "longitude": "19.40134990",
    "wikiDataId": null
  },
  {
    "id": 97179,
    "name": "Bogosavac",
    "state_id": 3719,
    "state_code": "08",
    "country_id": 196,
    "country_code": "RS",
    "latitude": "44.71799000",
    "longitude": "19.59533000",
    "wikiDataId": null
  },
  {
    "id": 97186,
    "name": "Brdarica",
    "state_id": 3719,
    "state_code": "08",
    "country_id": 196,
    "country_code": "RS",
    "latitude": "44.55376000",
    "longitude": "19.77150000",
    "wikiDataId": null
  },
  {
    "id": 97187,
    "name": "Bukor",
    "state_id": 3719,
    "state_code": "08",
    "country_id": 196,
    "country_code": "RS",
    "latitude": "44.49523000",
    "longitude": "19.57116000",
    "wikiDataId": null
  },
  {
    "id": 97462,
    "name": "Čokešina",
    "state_id": 3719,
    "state_code": "08",
    "country_id": 196,
    "country_code": "RS",
    "latitude": "44.65319000",
    "longitude": "19.39016000",
    "wikiDataId": null
  },
  {
    "id": 97190,
    "name": "Crna Bara",
    "state_id": 3719,
    "state_code": "08",
    "country_id": 196,
    "country_code": "RS",
    "latitude": "44.87374000",
    "longitude": "19.39480000",
    "wikiDataId": null
  },
  {
    "id": 97195,
    "name": "Dobrić",
    "state_id": 3719,
    "state_code": "08",
    "country_id": 196,
    "country_code": "RS",
    "latitude": "44.70224000",
    "longitude": "19.57931000",
    "wikiDataId": null
  },
  {
    "id": 97196,
    "name": "Donji Dobrić",
    "state_id": 3719,
    "state_code": "08",
    "country_id": 196,
    "country_code": "RS",
    "latitude": "44.61183000",
    "longitude": "19.33109000",
    "wikiDataId": null
  },
  {
    "id": 97199,
    "name": "Draginje",
    "state_id": 3719,
    "state_code": "08",
    "country_id": 196,
    "country_code": "RS",
    "latitude": "44.53302000",
    "longitude": "19.76250000",
    "wikiDataId": null
  },
  {
    "id": 97209,
    "name": "Glušci",
    "state_id": 3719,
    "state_code": "08",
    "country_id": 196,
    "country_code": "RS",
    "latitude": "44.89021000",
    "longitude": "19.54913000",
    "wikiDataId": null
  },
  {
    "id": 97227,
    "name": "Jadranska Lešnica",
    "state_id": 3719,
    "state_code": "08",
    "country_id": 196,
    "country_code": "RS",
    "latitude": "44.59730000",
    "longitude": "19.35209000",
    "wikiDataId": null
  },
  {
    "id": 97235,
    "name": "Jelenča",
    "state_id": 3719,
    "state_code": "08",
    "country_id": 196,
    "country_code": "RS",
    "latitude": "44.72700000",
    "longitude": "19.73500000",
    "wikiDataId": null
  },
  {
    "id": 97237,
    "name": "Jevremovac",
    "state_id": 3719,
    "state_code": "08",
    "country_id": 196,
    "country_code": "RS",
    "latitude": "44.72172000",
    "longitude": "19.66364000",
    "wikiDataId": null
  },
  {
    "id": 155054,
    "name": "Koceljeva",
    "state_id": 3719,
    "state_code": "08",
    "country_id": 196,
    "country_code": "RS",
    "latitude": "44.46299340",
    "longitude": "19.78680540",
    "wikiDataId": null
  },
  {
    "id": 97254,
    "name": "Kozjak",
    "state_id": 3719,
    "state_code": "08",
    "country_id": 196,
    "country_code": "RS",
    "latitude": "45.18264000",
    "longitude": "20.86381000",
    "wikiDataId": null
  },
  {
    "id": 97260,
    "name": "Krupanj",
    "state_id": 3719,
    "state_code": "08",
    "country_id": 196,
    "country_code": "RS",
    "latitude": "44.36556000",
    "longitude": "19.36194000",
    "wikiDataId": null
  },
  {
    "id": 97273,
    "name": "Lešnica",
    "state_id": 3719,
    "state_code": "08",
    "country_id": 196,
    "country_code": "RS",
    "latitude": "44.65250000",
    "longitude": "19.31000000",
    "wikiDataId": null
  },
  {
    "id": 97274,
    "name": "Lipnički Šor",
    "state_id": 3719,
    "state_code": "08",
    "country_id": 196,
    "country_code": "RS",
    "latitude": "44.58058000",
    "longitude": "19.26572000",
    "wikiDataId": null
  },
  {
    "id": 97275,
    "name": "Lipolist",
    "state_id": 3719,
    "state_code": "08",
    "country_id": 196,
    "country_code": "RS",
    "latitude": "44.69783000",
    "longitude": "19.50101000",
    "wikiDataId": null
  },
  {
    "id": 97277,
    "name": "Ljubovija",
    "state_id": 3719,
    "state_code": "08",
    "country_id": 196,
    "country_code": "RS",
    "latitude": "44.18944000",
    "longitude": "19.37667000",
    "wikiDataId": null
  },
  {
    "id": 97289,
    "name": "Mačva",
    "state_id": 3719,
    "state_code": "08",
    "country_id": 196,
    "country_code": "RS",
    "latitude": "44.61472000",
    "longitude": "19.47222000",
    "wikiDataId": null
  },
  {
    "id": 97285,
    "name": "Majur",
    "state_id": 3719,
    "state_code": "08",
    "country_id": 196,
    "country_code": "RS",
    "latitude": "44.77105000",
    "longitude": "19.65512000",
    "wikiDataId": null
  },
  {
    "id": 97287,
    "name": "Mali Zvornik",
    "state_id": 3719,
    "state_code": "08",
    "country_id": 196,
    "country_code": "RS",
    "latitude": "44.37344000",
    "longitude": "19.10651000",
    "wikiDataId": null
  },
  {
    "id": 97292,
    "name": "Metković",
    "state_id": 3719,
    "state_code": "08",
    "country_id": 196,
    "country_code": "RS",
    "latitude": "44.85617000",
    "longitude": "19.54654000",
    "wikiDataId": null
  },
  {
    "id": 97318,
    "name": "Novo Selo",
    "state_id": 3719,
    "state_code": "08",
    "country_id": 196,
    "country_code": "RS",
    "latitude": "44.67041000",
    "longitude": "19.34495000",
    "wikiDataId": null
  },
  {
    "id": 97334,
    "name": "Petkovica",
    "state_id": 3719,
    "state_code": "08",
    "country_id": 196,
    "country_code": "RS",
    "latitude": "44.66627000",
    "longitude": "19.43923000",
    "wikiDataId": null
  },
  {
    "id": 97340,
    "name": "Pocerski Pričinović",
    "state_id": 3719,
    "state_code": "08",
    "country_id": 196,
    "country_code": "RS",
    "latitude": "44.72222000",
    "longitude": "19.70722000",
    "wikiDataId": null
  },
  {
    "id": 97362,
    "name": "Ribari",
    "state_id": 3719,
    "state_code": "08",
    "country_id": 196,
    "country_code": "RS",
    "latitude": "44.70961000",
    "longitude": "19.42472000",
    "wikiDataId": null
  },
  {
    "id": 97366,
    "name": "Rumska",
    "state_id": 3719,
    "state_code": "08",
    "country_id": 196,
    "country_code": "RS",
    "latitude": "44.57261000",
    "longitude": "19.58988000",
    "wikiDataId": null
  },
  {
    "id": 97465,
    "name": "Šabac",
    "state_id": 3719,
    "state_code": "08",
    "country_id": 196,
    "country_code": "RS",
    "latitude": "44.74667000",
    "longitude": "19.69000000",
    "wikiDataId": null
  },
  {
    "id": 97371,
    "name": "Salaš Crnobarski",
    "state_id": 3719,
    "state_code": "08",
    "country_id": 196,
    "country_code": "RS",
    "latitude": "44.82843000",
    "longitude": "19.39437000",
    "wikiDataId": null
  },
  {
    "id": 97468,
    "name": "Ševarice",
    "state_id": 3719,
    "state_code": "08",
    "country_id": 196,
    "country_code": "RS",
    "latitude": "44.86704000",
    "longitude": "19.66006000",
    "wikiDataId": null
  },
  {
    "id": 97380,
    "name": "Sinošević",
    "state_id": 3719,
    "state_code": "08",
    "country_id": 196,
    "country_code": "RS",
    "latitude": "44.61503000",
    "longitude": "19.63601000",
    "wikiDataId": null
  },
  {
    "id": 97471,
    "name": "Štitar",
    "state_id": 3719,
    "state_code": "08",
    "country_id": 196,
    "country_code": "RS",
    "latitude": "44.79415000",
    "longitude": "19.59529000",
    "wikiDataId": null
  },
  {
    "id": 97416,
    "name": "Tršić",
    "state_id": 3719,
    "state_code": "08",
    "country_id": 196,
    "country_code": "RS",
    "latitude": "44.49502000",
    "longitude": "19.26490000",
    "wikiDataId": null
  },
  {
    "id": 97423,
    "name": "Uzveće",
    "state_id": 3719,
    "state_code": "08",
    "country_id": 196,
    "country_code": "RS",
    "latitude": "44.87861000",
    "longitude": "19.60356000",
    "wikiDataId": null
  },
  {
    "id": 97434,
    "name": "Vladimirci",
    "state_id": 3719,
    "state_code": "08",
    "country_id": 196,
    "country_code": "RS",
    "latitude": "44.61472000",
    "longitude": "19.78528000",
    "wikiDataId": null
  },
  {
    "id": 97449,
    "name": "Zminjak",
    "state_id": 3719,
    "state_code": "08",
    "country_id": 196,
    "country_code": "RS",
    "latitude": "44.75711000",
    "longitude": "19.47070000",
    "wikiDataId": null
  }
]