[
  {
    "id": 1118,
    "name": "Adrar",
    "country_id": 4,
    "country_code": "DZ",
    "state_code": "01",
    "type": "province",
    "latitude": "26.48881550",
    "longitude": "-1.35824420",
    "iso3166_2": "DZ-01",
    "native": "أدرار",
    "timezone": "Africa/Algiers"
  },
  {
    "id": 1119,
    "name": "Aïn Defla",
    "country_id": 4,
    "country_code": "DZ",
    "state_code": "44",
    "type": "province",
    "latitude": "36.26571780",
    "longitude": "1.97013470",
    "iso3166_2": "DZ-44",
    "native": "عين الدفلى",
    "timezone": "Africa/Algiers"
  },
  {
    "id": 1122,
    "name": "Aïn Témouchent",
    "country_id": 4,
    "country_code": "DZ",
    "state_code": "46",
    "type": "province",
    "latitude": "35.29926980",
    "longitude": "-1.13927920",
    "iso3166_2": "DZ-46",
    "native": "عين تموشنت",
    "timezone": "Africa/Algiers"
  },
  {
    "id": 1144,
    "name": "Algiers",
    "country_id": 4,
    "country_code": "DZ",
    "state_code": "16",
    "type": "province",
    "latitude": "36.70005090",
    "longitude": "3.02912660",
    "iso3166_2": "DZ-16",
    "native": "الجزائر",
    "timezone": "Africa/Algiers"
  },
  {
    "id": 1103,
    "name": "Annaba",
    "country_id": 4,
    "country_code": "DZ",
    "state_code": "23",
    "type": "province",
    "latitude": "36.84384480",
    "longitude": "7.59817380",
    "iso3166_2": "DZ-23",
    "native": "عنابة",
    "timezone": "Africa/Algiers"
  },
  {
    "id": 1142,
    "name": "Batna",
    "country_id": 4,
    "country_code": "DZ",
    "state_code": "05",
    "type": "province",
    "latitude": "35.54923460",
    "longitude": "6.11603820",
    "iso3166_2": "DZ-05",
    "native": "باتنة",
    "timezone": "Africa/Algiers"
  },
  {
    "id": 1108,
    "name": "Béchar",
    "country_id": 4,
    "country_code": "DZ",
    "state_code": "08",
    "type": "province",
    "latitude": "31.62380980",
    "longitude": "-2.21624430",
    "iso3166_2": "DZ-08",
    "native": "بشار",
    "timezone": "Africa/Algiers"
  },
  {
    "id": 1128,
    "name": "Béjaïa",
    "country_id": 4,
    "country_code": "DZ",
    "state_code": "06",
    "type": "province",
    "latitude": "36.75152580",
    "longitude": "5.05568370",
    "iso3166_2": "DZ-06",
    "native": "بجاية",
    "timezone": "Africa/Algiers"
  },
  {
    "id": 4909,
    "name": "Béni Abbès",
    "country_id": 4,
    "country_code": "DZ",
    "state_code": "53",
    "type": "province",
    "latitude": "30.10892100",
    "longitude": "-2.46225480",
    "iso3166_2": "DZ-53",
    "native": "بني عباس",
    "timezone": "Africa/Algiers"
  },
  {
    "id": 1114,
    "name": "Biskra",
    "country_id": 4,
    "country_code": "DZ",
    "state_code": "07",
    "type": "province",
    "latitude": "34.84494370",
    "longitude": "5.72485670",
    "iso3166_2": "DZ-07",
    "native": "بسكرة",
    "timezone": "Africa/Algiers"
  },
  {
    "id": 1111,
    "name": "Blida",
    "country_id": 4,
    "country_code": "DZ",
    "state_code": "09",
    "type": "province",
    "latitude": "36.50125950",
    "longitude": "2.95176660",
    "iso3166_2": "DZ-09",
    "native": "البليدة",
    "timezone": "Africa/Algiers"
  },
  {
    "id": 4908,
    "name": "Bordj Baji Mokhtar",
    "country_id": 4,
    "country_code": "DZ",
    "state_code": "52",
    "type": "province",
    "latitude": "22.62614610",
    "longitude": "0.12758170",
    "iso3166_2": "DZ-52",
    "native": "برج باجي مختار",
    "timezone": "Africa/Algiers"
  },
  {
    "id": 1116,
    "name": "Bordj Bou Arréridj",
    "country_id": 4,
    "country_code": "DZ",
    "state_code": "34",
    "type": "province",
    "latitude": "36.07399250",
    "longitude": "4.76302710",
    "iso3166_2": "DZ-34",
    "native": "برج بوعريريج",
    "timezone": "Africa/Algiers"
  },
  {
    "id": 1104,
    "name": "Bouïra",
    "country_id": 4,
    "country_code": "DZ",
    "state_code": "10",
    "type": "province",
    "latitude": "36.36918460",
    "longitude": "3.90061940",
    "iso3166_2": "DZ-10",
    "native": "بويرة",
    "timezone": "Africa/Algiers"
  },
  {
    "id": 1125,
    "name": "Boumerdès",
    "country_id": 4,
    "country_code": "DZ",
    "state_code": "35",
    "type": "province",
    "latitude": "36.73580320",
    "longitude": "3.61630460",
    "iso3166_2": "DZ-35",
    "native": "بومرداس",
    "timezone": "Africa/Algiers"
  },
  {
    "id": 1105,
    "name": "Chlef",
    "country_id": 4,
    "country_code": "DZ",
    "state_code": "02",
    "type": "province",
    "latitude": "36.16459200",
    "longitude": "1.33149900",
    "iso3166_2": "DZ-02",
    "native": "الشلف",
    "timezone": "Africa/Algiers"
  },
  {
    "id": 1121,
    "name": "Constantine",
    "country_id": 4,
    "country_code": "DZ",
    "state_code": "25",
    "type": "province",
    "latitude": "36.35841650",
    "longitude": "6.66716740",
    "iso3166_2": "DZ-25",
    "native": "قسطنطين",
    "timezone": "Africa/Algiers"
  },
  {
    "id": 4912,
    "name": "Djanet",
    "country_id": 4,
    "country_code": "DZ",
    "state_code": "56",
    "type": "province",
    "latitude": "24.07152100",
    "longitude": "9.61558470",
    "iso3166_2": "DZ-56",
    "native": "جانت",
    "timezone": "Africa/Algiers"
  },
  {
    "id": 1098,
    "name": "Djelfa",
    "country_id": 4,
    "country_code": "DZ",
    "state_code": "17",
    "type": "province",
    "latitude": "34.67039560",
    "longitude": "3.25037610",
    "iso3166_2": "DZ-17",
    "native": "الجلفة",
    "timezone": "Africa/Algiers"
  },
  {
    "id": 1129,
    "name": "El Bayadh",
    "country_id": 4,
    "country_code": "DZ",
    "state_code": "32",
    "type": "province",
    "latitude": "32.57030300",
    "longitude": "1.12595810",
    "iso3166_2": "DZ-32",
    "native": "البيض",
    "timezone": "Africa/Algiers"
  },
  {
    "id": 4905,
    "name": "El M'ghair",
    "country_id": 4,
    "country_code": "DZ",
    "state_code": "49",
    "type": "province",
    "latitude": "33.95807000",
    "longitude": "5.70112620",
    "iso3166_2": "DZ-49",
    "native": "المغير",
    "timezone": "Africa/Algiers"
  },
  {
    "id": 4906,
    "name": "El Menia",
    "country_id": 4,
    "country_code": "DZ",
    "state_code": "50",
    "type": "province",
    "latitude": "30.70718850",
    "longitude": "3.04806250",
    "iso3166_2": "DZ-50",
    "native": "المنيا",
    "timezone": "Africa/Algiers"
  },
  {
    "id": 1099,
    "name": "El Oued",
    "country_id": 4,
    "country_code": "DZ",
    "state_code": "39",
    "type": "province",
    "latitude": "33.36115310",
    "longitude": "6.86066930",
    "iso3166_2": "DZ-39",
    "native": "الواد",
    "timezone": "Africa/Algiers"
  },
  {
    "id": 1100,
    "name": "El Tarf",
    "country_id": 4,
    "country_code": "DZ",
    "state_code": "36",
    "type": "province",
    "latitude": "36.76671860",
    "longitude": "8.31694180",
    "iso3166_2": "DZ-36",
    "native": "الطارف",
    "timezone": "Africa/Algiers"
  },
  {
    "id": 1127,
    "name": "Ghardaïa",
    "country_id": 4,
    "country_code": "DZ",
    "state_code": "47",
    "type": "province",
    "latitude": "32.48585500",
    "longitude": "3.67710400",
    "iso3166_2": "DZ-47",
    "native": "غرداية",
    "timezone": "Africa/Algiers"
  },
  {
    "id": 1137,
    "name": "Guelma",
    "country_id": 4,
    "country_code": "DZ",
    "state_code": "24",
    "type": "province",
    "latitude": "36.46274440",
    "longitude": "7.43308330",
    "iso3166_2": "DZ-24",
    "native": "قالمة",
    "timezone": "Africa/Algiers"
  },
  {
    "id": 1112,
    "name": "Illizi",
    "country_id": 4,
    "country_code": "DZ",
    "state_code": "33",
    "type": "province",
    "latitude": "26.50419100",
    "longitude": "8.47992600",
    "iso3166_2": "DZ-33",
    "native": "إليزي",
    "timezone": "Africa/Algiers"
  },
  {
    "id": 4914,
    "name": "In Guezzam",
    "country_id": 4,
    "country_code": "DZ",
    "state_code": "58",
    "type": "province",
    "latitude": "20.42753000",
    "longitude": "4.67663100",
    "iso3166_2": "DZ-58",
    "native": "في قزام",
    "timezone": "Africa/Algiers"
  },
  {
    "id": 4913,
    "name": "In Salah",
    "country_id": 4,
    "country_code": "DZ",
    "state_code": "57",
    "type": "province",
    "latitude": "27.19503310",
    "longitude": "2.48261320",
    "iso3166_2": "DZ-57",
    "native": "في صلاح",
    "timezone": "Africa/Algiers"
  },
  {
    "id": 1113,
    "name": "Jijel",
    "country_id": 4,
    "country_code": "DZ",
    "state_code": "18",
    "type": "province",
    "latitude": "36.72921880",
    "longitude": "5.96077760",
    "iso3166_2": "DZ-18",
    "native": "جيجل",
    "timezone": "Africa/Algiers"
  },
  {
    "id": 1126,
    "name": "Khenchela",
    "country_id": 4,
    "country_code": "DZ",
    "state_code": "40",
    "type": "province",
    "latitude": "35.42694040",
    "longitude": "7.14601550",
    "iso3166_2": "DZ-40",
    "native": "خنشلة",
    "timezone": "Africa/Algiers"
  },
  {
    "id": 1138,
    "name": "Laghouat",
    "country_id": 4,
    "country_code": "DZ",
    "state_code": "03",
    "type": "province",
    "latitude": "33.80634510",
    "longitude": "2.88026350",
    "iso3166_2": "DZ-03",
    "native": "الأغواط",
    "timezone": "Africa/Algiers"
  },
  {
    "id": 1134,
    "name": "M'Sila",
    "country_id": 4,
    "country_code": "DZ",
    "state_code": "28",
    "type": "province",
    "latitude": "35.70875530",
    "longitude": "4.53715520",
    "iso3166_2": "DZ-28",
    "native": "مسيلة",
    "timezone": "Africa/Algiers"
  },
  {
    "id": 1124,
    "name": "Mascara",
    "country_id": 4,
    "country_code": "DZ",
    "state_code": "29",
    "type": "province",
    "latitude": "35.39408100",
    "longitude": "0.13795680",
    "iso3166_2": "DZ-29",
    "native": "ماسكارا",
    "timezone": "Africa/Algiers"
  },
  {
    "id": 1109,
    "name": "Médéa",
    "country_id": 4,
    "country_code": "DZ",
    "state_code": "26",
    "type": "province",
    "latitude": "36.26370780",
    "longitude": "2.75878570",
    "iso3166_2": "DZ-26",
    "native": "ميديا",
    "timezone": "Africa/Algiers"
  },
  {
    "id": 1132,
    "name": "Mila",
    "country_id": 4,
    "country_code": "DZ",
    "state_code": "43",
    "type": "province",
    "latitude": "36.25021350",
    "longitude": "6.16521630",
    "iso3166_2": "DZ-43",
    "native": "ميلا",
    "timezone": "Africa/Algiers"
  },
  {
    "id": 1140,
    "name": "Mostaganem",
    "country_id": 4,
    "country_code": "DZ",
    "state_code": "27",
    "type": "province",
    "latitude": "36.00269150",
    "longitude": "0.36868670",
    "iso3166_2": "DZ-27",
    "native": "مستغانم",
    "timezone": "Africa/Algiers"
  },
  {
    "id": 1102,
    "name": "Naama",
    "country_id": 4,
    "country_code": "DZ",
    "state_code": "45",
    "type": "province",
    "latitude": "33.26673170",
    "longitude": "-0.31286590",
    "iso3166_2": "DZ-45",
    "native": "نعمة",
    "timezone": "Africa/Algiers"
  },
  {
    "id": 1101,
    "name": "Oran",
    "country_id": 4,
    "country_code": "DZ",
    "state_code": "31",
    "type": "province",
    "latitude": "35.62158610",
    "longitude": "-0.70161430",
    "iso3166_2": "DZ-31",
    "native": "وهران",
    "timezone": "Africa/Algiers"
  },
  {
    "id": 1139,
    "name": "Ouargla",
    "country_id": 4,
    "country_code": "DZ",
    "state_code": "30",
    "type": "province",
    "latitude": "31.94449980",
    "longitude": "5.32178130",
    "iso3166_2": "DZ-30",
    "native": "ورقلة",
    "timezone": "Africa/Algiers"
  },
  {
    "id": 4907,
    "name": "Ouled Djellal",
    "country_id": 4,
    "country_code": "DZ",
    "state_code": "51",
    "type": "province",
    "latitude": "34.42541030",
    "longitude": "5.06443420",
    "iso3166_2": "DZ-51",
    "native": "أولاد جلال",
    "timezone": "Africa/Algiers"
  },
  {
    "id": 1136,
    "name": "Oum El Bouaghi",
    "country_id": 4,
    "country_code": "DZ",
    "state_code": "04",
    "type": "province",
    "latitude": "35.86887890",
    "longitude": "7.11082660",
    "iso3166_2": "DZ-04",
    "native": "أم البواقي",
    "timezone": "Africa/Algiers"
  },
  {
    "id": 1130,
    "name": "Relizane",
    "country_id": 4,
    "country_code": "DZ",
    "state_code": "48",
    "type": "province",
    "latitude": "35.73811930",
    "longitude": "0.55476730",
    "iso3166_2": "DZ-48",
    "native": "غليزان",
    "timezone": "Africa/Algiers"
  },
  {
    "id": 1123,
    "name": "Saïda",
    "country_id": 4,
    "country_code": "DZ",
    "state_code": "20",
    "type": "province",
    "latitude": "34.83020670",
    "longitude": "0.15026920",
    "iso3166_2": "DZ-20",
    "native": "صيدا",
    "timezone": "Africa/Algiers"
  },
  {
    "id": 1141,
    "name": "Sétif",
    "country_id": 4,
    "country_code": "DZ",
    "state_code": "19",
    "type": "province",
    "latitude": "36.18934940",
    "longitude": "5.40468760",
    "iso3166_2": "DZ-19",
    "native": "سطيف",
    "timezone": "Africa/Algiers"
  },
  {
    "id": 4902,
    "name": "Sidi Bel Abbès",
    "country_id": 4,
    "country_code": "DZ",
    "state_code": "22",
    "type": "province",
    "latitude": "34.68226800",
    "longitude": "-0.43575550",
    "iso3166_2": "DZ-22",
    "native": "سيدي بلعباس",
    "timezone": "Africa/Algiers"
  },
  {
    "id": 1110,
    "name": "Skikda",
    "country_id": 4,
    "country_code": "DZ",
    "state_code": "21",
    "type": "province",
    "latitude": "36.75451150",
    "longitude": "6.88562550",
    "iso3166_2": "DZ-21",
    "native": "سكيكدة",
    "timezone": "Africa/Algiers"
  },
  {
    "id": 1143,
    "name": "Souk Ahras",
    "country_id": 4,
    "country_code": "DZ",
    "state_code": "41",
    "type": "province",
    "latitude": "36.28286500",
    "longitude": "7.95378960",
    "iso3166_2": "DZ-41",
    "native": "سوق أهراس",
    "timezone": "Africa/Algiers"
  },
  {
    "id": 1135,
    "name": "Tamanghasset",
    "country_id": 4,
    "country_code": "DZ",
    "state_code": "11",
    "type": "province",
    "latitude": "22.78593720",
    "longitude": "5.52913950",
    "iso3166_2": "DZ-11",
    "native": "تمنغست",
    "timezone": "Africa/Algiers"
  },
  {
    "id": 1117,
    "name": "Tébessa",
    "country_id": 4,
    "country_code": "DZ",
    "state_code": "12",
    "type": "province",
    "latitude": "35.12494500",
    "longitude": "7.90117350",
    "iso3166_2": "DZ-12",
    "native": "تبسة",
    "timezone": "Africa/Algiers"
  },
  {
    "id": 1106,
    "name": "Tiaret",
    "country_id": 4,
    "country_code": "DZ",
    "state_code": "14",
    "type": "province",
    "latitude": "35.37086890",
    "longitude": "1.32178520",
    "iso3166_2": "DZ-14",
    "native": "تيارت",
    "timezone": "Africa/Algiers"
  },
  {
    "id": 4910,
    "name": "Timimoun",
    "country_id": 4,
    "country_code": "DZ",
    "state_code": "54",
    "type": "province",
    "latitude": "30.02447250",
    "longitude": "0.84859790",
    "iso3166_2": "DZ-54",
    "native": "تيميمون",
    "timezone": "Africa/Algiers"
  },
  {
    "id": 1120,
    "name": "Tindouf",
    "country_id": 4,
    "country_code": "DZ",
    "state_code": "37",
    "type": "province",
    "latitude": "27.54390700",
    "longitude": "-6.24004110",
    "iso3166_2": "DZ-37",
    "native": "تندوف",
    "timezone": "Africa/Algiers"
  },
  {
    "id": 1115,
    "name": "Tipasa",
    "country_id": 4,
    "country_code": "DZ",
    "state_code": "42",
    "type": "province",
    "latitude": "36.52715700",
    "longitude": "2.16720120",
    "iso3166_2": "DZ-42",
    "native": "تيبازة",
    "timezone": "Africa/Algiers"
  },
  {
    "id": 1133,
    "name": "Tissemsilt",
    "country_id": 4,
    "country_code": "DZ",
    "state_code": "38",
    "type": "province",
    "latitude": "35.60537810",
    "longitude": "1.81309800",
    "iso3166_2": "DZ-38",
    "native": "تيسمسيلت",
    "timezone": "Africa/Algiers"
  },
  {
    "id": 1131,
    "name": "Tizi Ouzou",
    "country_id": 4,
    "country_code": "DZ",
    "state_code": "15",
    "type": "province",
    "latitude": "36.68161750",
    "longitude": "4.23718600",
    "iso3166_2": "DZ-15",
    "native": "تيزي وزو",
    "timezone": "Africa/Algiers"
  },
  {
    "id": 1107,
    "name": "Tlemcen",
    "country_id": 4,
    "country_code": "DZ",
    "state_code": "13",
    "type": "province",
    "latitude": "34.66746800",
    "longitude": "-1.29781320",
    "iso3166_2": "DZ-13",
    "native": "تلمسان",
    "timezone": "Africa/Algiers"
  },
  {
    "id": 4911,
    "name": "Touggourt",
    "country_id": 4,
    "country_code": "DZ",
    "state_code": "55",
    "type": "province",
    "latitude": "33.10485740",
    "longitude": "6.06672760",
    "iso3166_2": "DZ-55",
    "native": "تقرت",
    "timezone": "Africa/Algiers"
  }
]