[
  {
    "id": 107182,
    "name": "Ardeşen",
    "state_id": 2219,
    "state_code": "53",
    "country_id": 225,
    "country_code": "TR",
    "latitude": "41.19111000",
    "longitude": "40.98750000",
    "wikiDataId": null
  },
  {
    "id": 153358,
    "name": "Çamlıhemşin",
    "state_id": 2219,
    "state_code": "53",
    "country_id": 225,
    "country_code": "TR",
    "latitude": "41.04593800",
    "longitude": "41.00527500",
    "wikiDataId": null
  },
  {
    "id": 108800,
    "name": "Çayeli",
    "state_id": 2219,
    "state_code": "53",
    "country_id": 225,
    "country_code": "TR",
    "latitude": "41.08941000",
    "longitude": "40.73696000",
    "wikiDataId": null
  },
  {
    "id": 153359,
    "name": "Derepazarı",
    "state_id": 2219,
    "state_code": "53",
    "country_id": 225,
    "country_code": "TR",
    "latitude": "41.02472200",
    "longitude": "40.42555600",
    "wikiDataId": null
  },
  {
    "id": 107644,
    "name": "Fındıklı",
    "state_id": 2219,
    "state_code": "53",
    "country_id": 225,
    "country_code": "TR",
    "latitude": "41.27110000",
    "longitude": "41.14449000",
    "wikiDataId": null
  },
  {
    "id": 107743,
    "name": "Güneysu",
    "state_id": 2219,
    "state_code": "53",
    "country_id": 225,
    "country_code": "TR",
    "latitude": "40.98130000",
    "longitude": "40.60465000",
    "wikiDataId": null
  },
  {
    "id": 107821,
    "name": "Hemşin",
    "state_id": 2219,
    "state_code": "53",
    "country_id": 225,
    "country_code": "TR",
    "latitude": "41.05922000",
    "longitude": "40.90140000",
    "wikiDataId": null
  },
  {
    "id": 108889,
    "name": "İkizdere",
    "state_id": 2219,
    "state_code": "53",
    "country_id": 225,
    "country_code": "TR",
    "latitude": "40.77713000",
    "longitude": "40.56076000",
    "wikiDataId": null
  },
  {
    "id": 108922,
    "name": "İyidere",
    "state_id": 2219,
    "state_code": "53",
    "country_id": 225,
    "country_code": "TR",
    "latitude": "41.00905000",
    "longitude": "40.37776000",
    "wikiDataId": null
  },
  {
    "id": 107877,
    "name": "Kalkandere",
    "state_id": 2219,
    "state_code": "53",
    "country_id": 225,
    "country_code": "TR",
    "latitude": "40.92143000",
    "longitude": "40.43999000",
    "wikiDataId": null
  },
  {
    "id": 108371,
    "name": "Merkez",
    "state_id": 2219,
    "state_code": "53",
    "country_id": 225,
    "country_code": "TR",
    "latitude": "41.02083000",
    "longitude": "40.52194000",
    "wikiDataId": null
  },
  {
    "id": 108321,
    "name": "Pazar",
    "state_id": 2219,
    "state_code": "53",
    "country_id": 225,
    "country_code": "TR",
    "latitude": "41.17917000",
    "longitude": "40.88417000",
    "wikiDataId": null
  }
]