[
  {
    "id": 38732,
    "name": "Alastaro",
    "state_id": 1507,
    "state_code": "19",
    "country_id": 74,
    "country_code": "FI",
    "latitude": "60.95000000",
    "longitude": "22.85000000",
    "wikiDataId": null
  },
  {
    "id": 38738,
    "name": "Askainen",
    "state_id": 1507,
    "state_code": "19",
    "country_id": 74,
    "country_code": "FI",
    "latitude": "60.56667000",
    "longitude": "21.86667000",
    "wikiDataId": null
  },
  {
    "id": 38740,
    "name": "Aura",
    "state_id": 1507,
    "state_code": "19",
    "country_id": 74,
    "country_code": "FI",
    "latitude": "60.64710000",
    "longitude": "22.58755000",
    "wikiDataId": null
  },
  {
    "id": 38742,
    "name": "Dragsfjärd",
    "state_id": 1507,
    "state_code": "19",
    "country_id": 74,
    "country_code": "FI",
    "latitude": "60.06667000",
    "longitude": "22.48333000",
    "wikiDataId": null
  },
  {
    "id": 38757,
    "name": "Halikko",
    "state_id": 1507,
    "state_code": "19",
    "country_id": 74,
    "country_code": "FI",
    "latitude": "60.40000000",
    "longitude": "23.08333000",
    "wikiDataId": null
  },
  {
    "id": 38775,
    "name": "Houtskär",
    "state_id": 1507,
    "state_code": "19",
    "country_id": 74,
    "country_code": "FI",
    "latitude": "60.22284000",
    "longitude": "21.37218000",
    "wikiDataId": null
  },
  {
    "id": 38790,
    "name": "Iniö",
    "state_id": 1507,
    "state_code": "19",
    "country_id": 74,
    "country_code": "FI",
    "latitude": "60.40000000",
    "longitude": "21.40000000",
    "wikiDataId": null
  },
  {
    "id": 38814,
    "name": "Kaarina",
    "state_id": 1507,
    "state_code": "19",
    "country_id": 74,
    "country_code": "FI",
    "latitude": "60.40724000",
    "longitude": "22.36904000",
    "wikiDataId": null
  },
  {
    "id": 38827,
    "name": "Karinainen",
    "state_id": 1507,
    "state_code": "19",
    "country_id": 74,
    "country_code": "FI",
    "latitude": "60.66667000",
    "longitude": "22.76667000",
    "wikiDataId": null
  },
  {
    "id": 38851,
    "name": "Kiikala",
    "state_id": 1507,
    "state_code": "19",
    "country_id": 74,
    "country_code": "FI",
    "latitude": "60.46667000",
    "longitude": "23.56667000",
    "wikiDataId": null
  },
  {
    "id": 38854,
    "name": "Kimito",
    "state_id": 1507,
    "state_code": "19",
    "country_id": 74,
    "country_code": "FI",
    "latitude": "60.16047000",
    "longitude": "22.72900000",
    "wikiDataId": null
  },
  {
    "id": 38857,
    "name": "Kisko",
    "state_id": 1507,
    "state_code": "19",
    "country_id": 74,
    "country_code": "FI",
    "latitude": "60.23333000",
    "longitude": "23.48333000",
    "wikiDataId": null
  },
  {
    "id": 38884,
    "name": "Kustavi",
    "state_id": 1507,
    "state_code": "19",
    "country_id": 74,
    "country_code": "FI",
    "latitude": "60.54529000",
    "longitude": "21.35880000",
    "wikiDataId": null
  },
  {
    "id": 38886,
    "name": "Kuusjoki",
    "state_id": 1507,
    "state_code": "19",
    "country_id": 74,
    "country_code": "FI",
    "latitude": "60.51667000",
    "longitude": "23.20000000",
    "wikiDataId": null
  },
  {
    "id": 38894,
    "name": "Laitila",
    "state_id": 1507,
    "state_code": "19",
    "country_id": 74,
    "country_code": "FI",
    "latitude": "60.87575000",
    "longitude": "21.69765000",
    "wikiDataId": null
  },
  {
    "id": 38909,
    "name": "Lemu",
    "state_id": 1507,
    "state_code": "19",
    "country_id": 74,
    "country_code": "FI",
    "latitude": "60.56667000",
    "longitude": "21.96667000",
    "wikiDataId": null
  },
  {
    "id": 38913,
    "name": "Lieto",
    "state_id": 1507,
    "state_code": "19",
    "country_id": 74,
    "country_code": "FI",
    "latitude": "60.51032000",
    "longitude": "22.46176000",
    "wikiDataId": null
  },
  {
    "id": 38928,
    "name": "Marttila",
    "state_id": 1507,
    "state_code": "19",
    "country_id": 74,
    "country_code": "FI",
    "latitude": "60.58333000",
    "longitude": "22.90000000",
    "wikiDataId": null
  },
  {
    "id": 38929,
    "name": "Masku",
    "state_id": 1507,
    "state_code": "19",
    "country_id": 74,
    "country_code": "FI",
    "latitude": "60.57082000",
    "longitude": "22.09883000",
    "wikiDataId": null
  },
  {
    "id": 38930,
    "name": "Mellilä",
    "state_id": 1507,
    "state_code": "19",
    "country_id": 74,
    "country_code": "FI",
    "latitude": "60.76667000",
    "longitude": "22.95000000",
    "wikiDataId": null
  },
  {
    "id": 38934,
    "name": "Merimasku",
    "state_id": 1507,
    "state_code": "19",
    "country_id": 74,
    "country_code": "FI",
    "latitude": "60.48333000",
    "longitude": "21.86667000",
    "wikiDataId": null
  },
  {
    "id": 38936,
    "name": "Mietoinen",
    "state_id": 1507,
    "state_code": "19",
    "country_id": 74,
    "country_code": "FI",
    "latitude": "60.63333000",
    "longitude": "21.93333000",
    "wikiDataId": null
  },
  {
    "id": 38943,
    "name": "Muurla",
    "state_id": 1507,
    "state_code": "19",
    "country_id": 74,
    "country_code": "FI",
    "latitude": "60.35000000",
    "longitude": "23.28333000",
    "wikiDataId": null
  },
  {
    "id": 38944,
    "name": "Mynämäki",
    "state_id": 1507,
    "state_code": "19",
    "country_id": 74,
    "country_code": "FI",
    "latitude": "60.67915000",
    "longitude": "21.99274000",
    "wikiDataId": null
  },
  {
    "id": 38948,
    "name": "Naantali",
    "state_id": 1507,
    "state_code": "19",
    "country_id": 74,
    "country_code": "FI",
    "latitude": "60.46744000",
    "longitude": "22.02428000",
    "wikiDataId": null
  },
  {
    "id": 38949,
    "name": "Nagu",
    "state_id": 1507,
    "state_code": "19",
    "country_id": 74,
    "country_code": "FI",
    "latitude": "60.19375000",
    "longitude": "21.90972000",
    "wikiDataId": null
  },
  {
    "id": 38955,
    "name": "Nousiainen",
    "state_id": 1507,
    "state_code": "19",
    "country_id": 74,
    "country_code": "FI",
    "latitude": "60.60416000",
    "longitude": "22.07926000",
    "wikiDataId": null
  },
  {
    "id": 38963,
    "name": "Oripää",
    "state_id": 1507,
    "state_code": "19",
    "country_id": 74,
    "country_code": "FI",
    "latitude": "60.85000000",
    "longitude": "22.68333000",
    "wikiDataId": null
  },
  {
    "id": 38970,
    "name": "Paimio",
    "state_id": 1507,
    "state_code": "19",
    "country_id": 74,
    "country_code": "FI",
    "latitude": "60.45671000",
    "longitude": "22.68694000",
    "wikiDataId": null
  },
  {
    "id": 38972,
    "name": "Pargas",
    "state_id": 1507,
    "state_code": "19",
    "country_id": 74,
    "country_code": "FI",
    "latitude": "60.30672000",
    "longitude": "22.30097000",
    "wikiDataId": null
  },
  {
    "id": 38978,
    "name": "Perniö",
    "state_id": 1507,
    "state_code": "19",
    "country_id": 74,
    "country_code": "FI",
    "latitude": "60.20000000",
    "longitude": "23.13333000",
    "wikiDataId": null
  },
  {
    "id": 38980,
    "name": "Pertteli",
    "state_id": 1507,
    "state_code": "19",
    "country_id": 74,
    "country_code": "FI",
    "latitude": "60.43333000",
    "longitude": "23.26667000",
    "wikiDataId": null
  },
  {
    "id": 38986,
    "name": "Piikkiö",
    "state_id": 1507,
    "state_code": "19",
    "country_id": 74,
    "country_code": "FI",
    "latitude": "60.42481000",
    "longitude": "22.51601000",
    "wikiDataId": null
  },
  {
    "id": 39009,
    "name": "Pöytyä",
    "state_id": 1507,
    "state_code": "19",
    "country_id": 74,
    "country_code": "FI",
    "latitude": "60.76667000",
    "longitude": "22.66667000",
    "wikiDataId": null
  },
  {
    "id": 39006,
    "name": "Pyhäranta",
    "state_id": 1507,
    "state_code": "19",
    "country_id": 74,
    "country_code": "FI",
    "latitude": "60.95000000",
    "longitude": "21.45000000",
    "wikiDataId": null
  },
  {
    "id": 39012,
    "name": "Raisio",
    "state_id": 1507,
    "state_code": "19",
    "country_id": 74,
    "country_code": "FI",
    "latitude": "60.48592000",
    "longitude": "22.16895000",
    "wikiDataId": null
  },
  {
    "id": 39030,
    "name": "Rusko",
    "state_id": 1507,
    "state_code": "19",
    "country_id": 74,
    "country_code": "FI",
    "latitude": "60.53333000",
    "longitude": "22.21667000",
    "wikiDataId": null
  },
  {
    "id": 39032,
    "name": "Rymättylä",
    "state_id": 1507,
    "state_code": "19",
    "country_id": 74,
    "country_code": "FI",
    "latitude": "60.37658000",
    "longitude": "21.94184000",
    "wikiDataId": null
  },
  {
    "id": 39037,
    "name": "Salo",
    "state_id": 1507,
    "state_code": "19",
    "country_id": 74,
    "country_code": "FI",
    "latitude": "60.38333000",
    "longitude": "23.13333000",
    "wikiDataId": null
  },
  {
    "id": 39065,
    "name": "Särkisalo",
    "state_id": 1507,
    "state_code": "19",
    "country_id": 74,
    "country_code": "FI",
    "latitude": "60.11389000",
    "longitude": "22.95000000",
    "wikiDataId": null
  },
  {
    "id": 39039,
    "name": "Sauvo",
    "state_id": 1507,
    "state_code": "19",
    "country_id": 74,
    "country_code": "FI",
    "latitude": "60.34306000",
    "longitude": "22.69642000",
    "wikiDataId": null
  },
  {
    "id": 39054,
    "name": "Somero",
    "state_id": 1507,
    "state_code": "19",
    "country_id": 74,
    "country_code": "FI",
    "latitude": "60.61667000",
    "longitude": "23.53333000",
    "wikiDataId": null
  },
  {
    "id": 39060,
    "name": "Suomusjärvi",
    "state_id": 1507,
    "state_code": "19",
    "country_id": 74,
    "country_code": "FI",
    "latitude": "60.35000000",
    "longitude": "23.65000000",
    "wikiDataId": null
  },
  {
    "id": 39069,
    "name": "Taivassalo",
    "state_id": 1507,
    "state_code": "19",
    "country_id": 74,
    "country_code": "FI",
    "latitude": "60.56085000",
    "longitude": "21.61639000",
    "wikiDataId": null
  },
  {
    "id": 39071,
    "name": "Tarvasjoki",
    "state_id": 1507,
    "state_code": "19",
    "country_id": 74,
    "country_code": "FI",
    "latitude": "60.58333000",
    "longitude": "22.73333000",
    "wikiDataId": null
  },
  {
    "id": 39081,
    "name": "Turku",
    "state_id": 1507,
    "state_code": "19",
    "country_id": 74,
    "country_code": "FI",
    "latitude": "60.45148000",
    "longitude": "22.26869000",
    "wikiDataId": null
  },
  {
    "id": 39093,
    "name": "Uusikaupunki",
    "state_id": 1507,
    "state_code": "19",
    "country_id": 74,
    "country_code": "FI",
    "latitude": "60.80043000",
    "longitude": "21.40841000",
    "wikiDataId": null
  },
  {
    "id": 39096,
    "name": "Vahto",
    "state_id": 1507,
    "state_code": "19",
    "country_id": 74,
    "country_code": "FI",
    "latitude": "60.60000000",
    "longitude": "22.30000000",
    "wikiDataId": null
  },
  {
    "id": 39119,
    "name": "Väståboland",
    "state_id": 1507,
    "state_code": "19",
    "country_id": 74,
    "country_code": "FI",
    "latitude": "60.29972000",
    "longitude": "22.30040000",
    "wikiDataId": null
  },
  {
    "id": 39118,
    "name": "Västanfjärd",
    "state_id": 1507,
    "state_code": "19",
    "country_id": 74,
    "country_code": "FI",
    "latitude": "60.05000000",
    "longitude": "22.68333000",
    "wikiDataId": null
  },
  {
    "id": 39102,
    "name": "Vehmaa",
    "state_id": 1507,
    "state_code": "19",
    "country_id": 74,
    "country_code": "FI",
    "latitude": "60.68333000",
    "longitude": "21.66667000",
    "wikiDataId": null
  },
  {
    "id": 39104,
    "name": "Velkua",
    "state_id": 1507,
    "state_code": "19",
    "country_id": 74,
    "country_code": "FI",
    "latitude": "60.46667000",
    "longitude": "21.66667000",
    "wikiDataId": null
  },
  {
    "id": 39128,
    "name": "Yläne",
    "state_id": 1507,
    "state_code": "19",
    "country_id": 74,
    "country_code": "FI",
    "latitude": "60.88333000",
    "longitude": "22.41667000",
    "wikiDataId": null
  }
]