[
  {
    "id": 56395,
    "name": "Kabupaten Deiyai",
    "state_id": 5235,
    "state_code": "PT",
    "country_id": 102,
    "country_code": "ID",
    "latitude": "-3.94737000",
    "longitude": "135.95032000",
    "wikiDataId": null
  },
  {
    "id": 56399,
    "name": "Kabupaten Dogiyai",
    "state_id": 5235,
    "state_code": "PT",
    "country_id": 102,
    "country_code": "ID",
    "latitude": "-4.03186000",
    "longitude": "135.43945000",
    "wikiDataId": null
  },
  {
    "id": 56427,
    "name": "Kabupaten Intan Jaya",
    "state_id": 5235,
    "state_code": "PT",
    "country_id": 102,
    "country_code": "ID",
    "latitude": "-3.41016000",
    "longitude": "136.70837000",
    "wikiDataId": null
  },
  {
    "id": 56535,
    "name": "Kabupaten Mimika",
    "state_id": 5235,
    "state_code": "PT",
    "country_id": 102,
    "country_code": "ID",
    "latitude": "-4.54357000",
    "longitude": "136.56555000",
    "wikiDataId": null
  },
  {
    "id": 56551,
    "name": "Kabupaten Nabire",
    "state_id": 5235,
    "state_code": "PT",
    "country_id": 102,
    "country_code": "ID",
    "latitude": "-3.54016000",
    "longitude": "135.55511000",
    "wikiDataId": null
  },
  {
    "id": 56577,
    "name": "Kabupaten Paniai",
    "state_id": 5235,
    "state_code": "PT",
    "country_id": 102,
    "country_code": "ID",
    "latitude": "-3.90000000",
    "longitude": "136.60000000",
    "wikiDataId": null
  },
  {
    "id": 56604,
    "name": "Kabupaten Puncak",
    "state_id": 5235,
    "state_code": "PT",
    "country_id": 102,
    "country_code": "ID",
    "latitude": "-3.67241000",
    "longitude": "137.43896000",
    "wikiDataId": null
  },
  {
    "id": 153774,
    "name": "Kabupaten Puncak Jaya",
    "state_id": 5235,
    "state_code": "PT",
    "country_id": 102,
    "country_code": "ID",
    "latitude": "-3.51069440",
    "longitude": "137.86611111",
    "wikiDataId": null
  },
  {
    "id": 56882,
    "name": "Nabire",
    "state_id": 5235,
    "state_code": "PT",
    "country_id": 102,
    "country_code": "ID",
    "latitude": "-3.35989000",
    "longitude": "135.50074000",
    "wikiDataId": null
  }
]