[
  {
    "id": 827,
    "name": "Aichi",
    "country_id": 109,
    "country_code": "JP",
    "state_code": "23",
    "type": "prefecture",
    "latitude": "34.99916450",
    "longitude": "137.25457400",
    "iso3166_2": "JP-23",
    "native": "愛知",
    "timezone": "Asia/Tokyo"
  },
  {
    "id": 829,
    "name": "Akita",
    "country_id": 109,
    "country_code": "JP",
    "state_code": "05",
    "type": "prefecture",
    "latitude": "39.68988020",
    "longitude": "140.34260800",
    "iso3166_2": "JP-05",
    "native": "秋田",
    "timezone": "Asia/Tokyo"
  },
  {
    "id": 839,
    "name": "Aomori",
    "country_id": 109,
    "country_code": "JP",
    "state_code": "02",
    "type": "prefecture",
    "latitude": "40.82228330",
    "longitude": "140.74720270",
    "iso3166_2": "JP-02",
    "native": "青森",
    "timezone": "Asia/Tokyo"
  },
  {
    "id": 821,
    "name": "Chiba",
    "country_id": 109,
    "country_code": "JP",
    "state_code": "12",
    "type": "prefecture",
    "latitude": "35.54939900",
    "longitude": "140.26473030",
    "iso3166_2": "JP-12",
    "native": "千葉",
    "timezone": "Asia/Tokyo"
  },
  {
    "id": 865,
    "name": "Ehime",
    "country_id": 109,
    "country_code": "JP",
    "state_code": "38",
    "type": "prefecture",
    "latitude": "33.60136460",
    "longitude": "132.81852750",
    "iso3166_2": "JP-38",
    "native": "愛媛",
    "timezone": "Asia/Tokyo"
  },
  {
    "id": 848,
    "name": "Fukui",
    "country_id": 109,
    "country_code": "JP",
    "state_code": "18",
    "type": "prefecture",
    "latitude": "36.06175100",
    "longitude": "136.22605420",
    "iso3166_2": "JP-18",
    "native": "福井",
    "timezone": "Asia/Tokyo"
  },
  {
    "id": 861,
    "name": "Fukuoka",
    "country_id": 109,
    "country_code": "JP",
    "state_code": "40",
    "type": "prefecture",
    "latitude": "33.62512410",
    "longitude": "130.61800160",
    "iso3166_2": "JP-40",
    "native": "福岡",
    "timezone": "Asia/Tokyo"
  },
  {
    "id": 847,
    "name": "Fukushima",
    "country_id": 109,
    "country_code": "JP",
    "state_code": "07",
    "type": "prefecture",
    "latitude": "37.76077700",
    "longitude": "140.47458070",
    "iso3166_2": "JP-07",
    "native": "福島",
    "timezone": "Asia/Tokyo"
  },
  {
    "id": 858,
    "name": "Gifu",
    "country_id": 109,
    "country_code": "JP",
    "state_code": "21",
    "type": "prefecture",
    "latitude": "35.78674490",
    "longitude": "137.04607770",
    "iso3166_2": "JP-21",
    "native": "岐阜",
    "timezone": "Asia/Tokyo"
  },
  {
    "id": 862,
    "name": "Gunma",
    "country_id": 109,
    "country_code": "JP",
    "state_code": "10",
    "type": "prefecture",
    "latitude": "36.52198000",
    "longitude": "139.03348300",
    "iso3166_2": "JP-10",
    "native": "群馬",
    "timezone": "Asia/Tokyo"
  },
  {
    "id": 828,
    "name": "Hiroshima",
    "country_id": 109,
    "country_code": "JP",
    "state_code": "34",
    "type": "prefecture",
    "latitude": "34.39172410",
    "longitude": "132.45175890",
    "iso3166_2": "JP-34",
    "native": "広島",
    "timezone": "Asia/Tokyo"
  },
  {
    "id": 832,
    "name": "Hokkaidō",
    "country_id": 109,
    "country_code": "JP",
    "state_code": "01",
    "type": "prefecture",
    "latitude": "43.45198310",
    "longitude": "142.81978340",
    "iso3166_2": "JP-01",
    "native": "北海道",
    "timezone": "Asia/Tokyo"
  },
  {
    "id": 831,
    "name": "Hyōgo",
    "country_id": 109,
    "country_code": "JP",
    "state_code": "28",
    "type": "prefecture",
    "latitude": "34.91493400",
    "longitude": "134.86066600",
    "iso3166_2": "JP-28",
    "native": "兵庫県",
    "timezone": "Asia/Tokyo"
  },
  {
    "id": 851,
    "name": "Ibaraki",
    "country_id": 109,
    "country_code": "JP",
    "state_code": "08",
    "type": "prefecture",
    "latitude": "36.28711860",
    "longitude": "140.42409260",
    "iso3166_2": "JP-08",
    "native": "茨城",
    "timezone": "Asia/Tokyo"
  },
  {
    "id": 830,
    "name": "Ishikawa",
    "country_id": 109,
    "country_code": "JP",
    "state_code": "17",
    "type": "prefecture",
    "latitude": "36.98905740",
    "longitude": "136.81628390",
    "iso3166_2": "JP-17",
    "native": "石川",
    "timezone": "Asia/Tokyo"
  },
  {
    "id": 856,
    "name": "Iwate",
    "country_id": 109,
    "country_code": "JP",
    "state_code": "03",
    "type": "prefecture",
    "latitude": "39.57137630",
    "longitude": "141.42535740",
    "iso3166_2": "JP-03",
    "native": "岩手",
    "timezone": "Asia/Tokyo"
  },
  {
    "id": 864,
    "name": "Kagawa",
    "country_id": 109,
    "country_code": "JP",
    "state_code": "37",
    "type": "prefecture",
    "latitude": "34.24801040",
    "longitude": "134.05865790",
    "iso3166_2": "JP-37",
    "native": "香川",
    "timezone": "Asia/Tokyo"
  },
  {
    "id": 840,
    "name": "Kagoshima",
    "country_id": 109,
    "country_code": "JP",
    "state_code": "46",
    "type": "prefecture",
    "latitude": "31.52158700",
    "longitude": "130.54740770",
    "iso3166_2": "JP-46",
    "native": "鹿児島",
    "timezone": "Asia/Tokyo"
  },
  {
    "id": 842,
    "name": "Kanagawa",
    "country_id": 109,
    "country_code": "JP",
    "state_code": "14",
    "type": "prefecture",
    "latitude": "35.43429350",
    "longitude": "139.37475300",
    "iso3166_2": "JP-14",
    "native": "神奈川",
    "timezone": "Asia/Tokyo"
  },
  {
    "id": 4924,
    "name": "Kōchi",
    "country_id": 109,
    "country_code": "JP",
    "state_code": "39",
    "type": "prefecture",
    "latitude": "33.56803840",
    "longitude": "133.53942210",
    "iso3166_2": "JP-39",
    "native": "高知",
    "timezone": "Asia/Tokyo"
  },
  {
    "id": 846,
    "name": "Kumamoto",
    "country_id": 109,
    "country_code": "JP",
    "state_code": "43",
    "type": "prefecture",
    "latitude": "32.80339090",
    "longitude": "130.70827370",
    "iso3166_2": "JP-43",
    "native": "熊本",
    "timezone": "Asia/Tokyo"
  },
  {
    "id": 834,
    "name": "Kyōto",
    "country_id": 109,
    "country_code": "JP",
    "state_code": "26",
    "type": "prefecture",
    "latitude": "35.01157540",
    "longitude": "135.76814410",
    "iso3166_2": "JP-26",
    "native": "京都",
    "timezone": "Asia/Tokyo"
  },
  {
    "id": 833,
    "name": "Mie",
    "country_id": 109,
    "country_code": "JP",
    "state_code": "24",
    "type": "prefecture",
    "latitude": "34.73396850",
    "longitude": "136.51544890",
    "iso3166_2": "JP-24",
    "native": "三重",
    "timezone": "Asia/Tokyo"
  },
  {
    "id": 857,
    "name": "Miyagi",
    "country_id": 109,
    "country_code": "JP",
    "state_code": "04",
    "type": "prefecture",
    "latitude": "38.38801550",
    "longitude": "140.97610250",
    "iso3166_2": "JP-04",
    "native": "宮城県",
    "timezone": "Asia/Tokyo"
  },
  {
    "id": 855,
    "name": "Miyazaki",
    "country_id": 109,
    "country_code": "JP",
    "state_code": "45",
    "type": "prefecture",
    "latitude": "32.09768100",
    "longitude": "131.29454200",
    "iso3166_2": "JP-45",
    "native": "宮崎",
    "timezone": "Asia/Tokyo"
  },
  {
    "id": 843,
    "name": "Nagano",
    "country_id": 109,
    "country_code": "JP",
    "state_code": "20",
    "type": "prefecture",
    "latitude": "36.11439450",
    "longitude": "138.03190150",
    "iso3166_2": "JP-20",
    "native": "長野",
    "timezone": "Asia/Tokyo"
  },
  {
    "id": 849,
    "name": "Nagasaki",
    "country_id": 109,
    "country_code": "JP",
    "state_code": "42",
    "type": "prefecture",
    "latitude": "33.11546830",
    "longitude": "129.78743390",
    "iso3166_2": "JP-42",
    "native": "長崎",
    "timezone": "Asia/Tokyo"
  },
  {
    "id": 824,
    "name": "Nara",
    "country_id": 109,
    "country_code": "JP",
    "state_code": "29",
    "type": "prefecture",
    "latitude": "34.29630890",
    "longitude": "135.88168190",
    "iso3166_2": "JP-29",
    "native": "奈良",
    "timezone": "Asia/Tokyo"
  },
  {
    "id": 841,
    "name": "Niigata",
    "country_id": 109,
    "country_code": "JP",
    "state_code": "15",
    "type": "prefecture",
    "latitude": "37.64522830",
    "longitude": "138.76691250",
    "iso3166_2": "JP-15",
    "native": "新潟",
    "timezone": "Asia/Tokyo"
  },
  {
    "id": 822,
    "name": "Ōita",
    "country_id": 109,
    "country_code": "JP",
    "state_code": "44",
    "type": "prefecture",
    "latitude": "33.18198750",
    "longitude": "131.42702170",
    "iso3166_2": "JP-44",
    "native": "大分",
    "timezone": "Asia/Tokyo"
  },
  {
    "id": 820,
    "name": "Okayama",
    "country_id": 109,
    "country_code": "JP",
    "state_code": "33",
    "type": "prefecture",
    "latitude": "34.85813340",
    "longitude": "133.77592560",
    "iso3166_2": "JP-33",
    "native": "岡山",
    "timezone": "Asia/Tokyo"
  },
  {
    "id": 853,
    "name": "Okinawa",
    "country_id": 109,
    "country_code": "JP",
    "state_code": "47",
    "type": "prefecture",
    "latitude": "26.33437380",
    "longitude": "127.80565970",
    "iso3166_2": "JP-47",
    "native": "沖縄",
    "timezone": "Asia/Tokyo"
  },
  {
    "id": 859,
    "name": "Ōsaka",
    "country_id": 109,
    "country_code": "JP",
    "state_code": "27",
    "type": "prefecture",
    "latitude": "34.61988130",
    "longitude": "135.49035700",
    "iso3166_2": "JP-27",
    "native": "大阪",
    "timezone": "Asia/Tokyo"
  },
  {
    "id": 863,
    "name": "Saga",
    "country_id": 109,
    "country_code": "JP",
    "state_code": "41",
    "type": "prefecture",
    "latitude": "33.26391340",
    "longitude": "130.30083780",
    "iso3166_2": "JP-41",
    "native": "佐賀",
    "timezone": "Asia/Tokyo"
  },
  {
    "id": 860,
    "name": "Saitama",
    "country_id": 109,
    "country_code": "JP",
    "state_code": "11",
    "type": "prefecture",
    "latitude": "35.97541680",
    "longitude": "139.41601140",
    "iso3166_2": "JP-11",
    "native": "埼玉",
    "timezone": "Asia/Tokyo"
  },
  {
    "id": 845,
    "name": "Shiga",
    "country_id": 109,
    "country_code": "JP",
    "state_code": "25",
    "type": "prefecture",
    "latitude": "35.24715400",
    "longitude": "136.10938500",
    "iso3166_2": "JP-25",
    "native": "滋賀",
    "timezone": "Asia/Tokyo"
  },
  {
    "id": 826,
    "name": "Shimane",
    "country_id": 109,
    "country_code": "JP",
    "state_code": "32",
    "type": "prefecture",
    "latitude": "34.94182120",
    "longitude": "132.53743900",
    "iso3166_2": "JP-32",
    "native": "島根",
    "timezone": "Asia/Tokyo"
  },
  {
    "id": 825,
    "name": "Shizuoka",
    "country_id": 109,
    "country_code": "JP",
    "state_code": "22",
    "type": "prefecture",
    "latitude": "34.97519740",
    "longitude": "138.38316970",
    "iso3166_2": "JP-22",
    "native": "静岡",
    "timezone": "Asia/Tokyo"
  },
  {
    "id": 854,
    "name": "Tochigi",
    "country_id": 109,
    "country_code": "JP",
    "state_code": "09",
    "type": "prefecture",
    "latitude": "36.67821670",
    "longitude": "139.80965490",
    "iso3166_2": "JP-09",
    "native": "栃木県",
    "timezone": "Asia/Tokyo"
  },
  {
    "id": 836,
    "name": "Tokushima",
    "country_id": 109,
    "country_code": "JP",
    "state_code": "36",
    "type": "prefecture",
    "latitude": "33.91964180",
    "longitude": "134.25096340",
    "iso3166_2": "JP-36",
    "native": "徳島",
    "timezone": "Asia/Tokyo"
  },
  {
    "id": 823,
    "name": "Tokyo",
    "country_id": 109,
    "country_code": "JP",
    "state_code": "13",
    "type": "prefecture",
    "latitude": "35.67686010",
    "longitude": "139.76389470",
    "iso3166_2": "JP-13",
    "native": "東京",
    "timezone": "Asia/Tokyo"
  },
  {
    "id": 850,
    "name": "Tottori",
    "country_id": 109,
    "country_code": "JP",
    "state_code": "31",
    "type": "prefecture",
    "latitude": "35.35550750",
    "longitude": "133.86785250",
    "iso3166_2": "JP-31",
    "native": "鳥取",
    "timezone": "Asia/Tokyo"
  },
  {
    "id": 838,
    "name": "Toyama",
    "country_id": 109,
    "country_code": "JP",
    "state_code": "16",
    "type": "prefecture",
    "latitude": "36.69582660",
    "longitude": "137.21370710",
    "iso3166_2": "JP-16",
    "native": "富山",
    "timezone": "Asia/Tokyo"
  },
  {
    "id": 844,
    "name": "Wakayama",
    "country_id": 109,
    "country_code": "JP",
    "state_code": "30",
    "type": "prefecture",
    "latitude": "33.80702920",
    "longitude": "135.59307430",
    "iso3166_2": "JP-30",
    "native": "和歌山",
    "timezone": "Asia/Tokyo"
  },
  {
    "id": 837,
    "name": "Yamagata",
    "country_id": 109,
    "country_code": "JP",
    "state_code": "06",
    "type": "prefecture",
    "latitude": "38.47467050",
    "longitude": "140.08323700",
    "iso3166_2": "JP-06",
    "native": "山形",
    "timezone": "Asia/Tokyo"
  },
  {
    "id": 835,
    "name": "Yamaguchi",
    "country_id": 109,
    "country_code": "JP",
    "state_code": "35",
    "type": "prefecture",
    "latitude": "34.23796140",
    "longitude": "131.58738450",
    "iso3166_2": "JP-35",
    "native": "山口",
    "timezone": "Asia/Tokyo"
  },
  {
    "id": 852,
    "name": "Yamanashi",
    "country_id": 109,
    "country_code": "JP",
    "state_code": "19",
    "type": "prefecture",
    "latitude": "35.63993280",
    "longitude": "138.63804950",
    "iso3166_2": "JP-19",
    "native": "山梨",
    "timezone": "Asia/Tokyo"
  }
]