[
  {
    "id": 90042,
    "name": "Baldovinești",
    "state_id": 4736,
    "state_code": "BR",
    "country_id": 181,
    "country_code": "RO",
    "latitude": "45.32182000",
    "longitude": "27.91107000",
    "wikiDataId": null
  },
  {
    "id": 90547,
    "name": "Bărăganul",
    "state_id": 4736,
    "state_code": "BR",
    "country_id": 181,
    "country_code": "RO",
    "latitude": "44.80000000",
    "longitude": "27.51667000",
    "wikiDataId": null
  },
  {
    "id": 90115,
    "name": "Berteştii de Jos",
    "state_id": 4736,
    "state_code": "BR",
    "country_id": 181,
    "country_code": "RO",
    "latitude": "44.83333000",
    "longitude": "27.75000000",
    "wikiDataId": null
  },
  {
    "id": 90224,
    "name": "Bordei Verde",
    "state_id": 4736,
    "state_code": "BR",
    "country_id": 181,
    "country_code": "RO",
    "latitude": "45.08333000",
    "longitude": "27.56667000",
    "wikiDataId": null
  },
  {
    "id": 90334,
    "name": "Brăila",
    "state_id": 4736,
    "state_code": "BR",
    "country_id": 181,
    "country_code": "RO",
    "latitude": "45.27152000",
    "longitude": "27.97429000",
    "wikiDataId": null
  },
  {
    "id": 90594,
    "name": "Cazasu",
    "state_id": 4736,
    "state_code": "BR",
    "country_id": 181,
    "country_code": "RO",
    "latitude": "45.27036970",
    "longitude": "27.88637280",
    "wikiDataId": null
  },
  {
    "id": 90681,
    "name": "Chiscani",
    "state_id": 4736,
    "state_code": "BR",
    "country_id": 181,
    "country_code": "RO",
    "latitude": "45.18333000",
    "longitude": "27.93333000",
    "wikiDataId": null
  },
  {
    "id": 90709,
    "name": "Ciocile",
    "state_id": 4736,
    "state_code": "BR",
    "country_id": 181,
    "country_code": "RO",
    "latitude": "44.81667000",
    "longitude": "27.23333000",
    "wikiDataId": null
  },
  {
    "id": 90733,
    "name": "Cireşu",
    "state_id": 4736,
    "state_code": "BR",
    "country_id": 181,
    "country_code": "RO",
    "latitude": "44.95000000",
    "longitude": "27.35000000",
    "wikiDataId": null
  },
  {
    "id": 91243,
    "name": "Comuna Bărăganul",
    "state_id": 4736,
    "state_code": "BR",
    "country_id": 181,
    "country_code": "RO",
    "latitude": "44.81068000",
    "longitude": "27.51515000",
    "wikiDataId": null
  },
  {
    "id": 90973,
    "name": "Comuna Berteştii de Jos",
    "state_id": 4736,
    "state_code": "BR",
    "country_id": 181,
    "country_code": "RO",
    "latitude": "44.83024000",
    "longitude": "27.72008000",
    "wikiDataId": null
  },
  {
    "id": 91047,
    "name": "Comuna Bordei Verde",
    "state_id": 4736,
    "state_code": "BR",
    "country_id": 181,
    "country_code": "RO",
    "latitude": "45.03225000",
    "longitude": "27.57088000",
    "wikiDataId": null
  },
  {
    "id": 91324,
    "name": "Comuna Chiscani",
    "state_id": 4736,
    "state_code": "BR",
    "country_id": 181,
    "country_code": "RO",
    "latitude": "45.20880000",
    "longitude": "27.91776000",
    "wikiDataId": null
  },
  {
    "id": 91342,
    "name": "Comuna Ciocile",
    "state_id": 4736,
    "state_code": "BR",
    "country_id": 181,
    "country_code": "RO",
    "latitude": "44.82211000",
    "longitude": "27.25180000",
    "wikiDataId": null
  },
  {
    "id": 91359,
    "name": "Comuna Cireşu",
    "state_id": 4736,
    "state_code": "BR",
    "country_id": 181,
    "country_code": "RO",
    "latitude": "44.95368000",
    "longitude": "27.37901000",
    "wikiDataId": null
  },
  {
    "id": 91706,
    "name": "Comuna Dudeşti",
    "state_id": 4736,
    "state_code": "BR",
    "country_id": 181,
    "country_code": "RO",
    "latitude": "44.87624000",
    "longitude": "27.44325000",
    "wikiDataId": null
  },
  {
    "id": 91781,
    "name": "Comuna Frecãţei",
    "state_id": 4736,
    "state_code": "BR",
    "country_id": 181,
    "country_code": "RO",
    "latitude": "44.85977000",
    "longitude": "28.08422000",
    "wikiDataId": null
  },
  {
    "id": 91828,
    "name": "Comuna Galbenu",
    "state_id": 4736,
    "state_code": "BR",
    "country_id": 181,
    "country_code": "RO",
    "latitude": "45.19252000",
    "longitude": "27.16669000",
    "wikiDataId": null
  },
  {
    "id": 91836,
    "name": "Comuna Gemenele",
    "state_id": 4736,
    "state_code": "BR",
    "country_id": 181,
    "country_code": "RO",
    "latitude": "45.28931000",
    "longitude": "27.65637000",
    "wikiDataId": null
  },
  {
    "id": 91941,
    "name": "Comuna Grădiştea",
    "state_id": 4736,
    "state_code": "BR",
    "country_id": 181,
    "country_code": "RO",
    "latitude": "45.24832000",
    "longitude": "27.38192000",
    "wikiDataId": null
  },
  {
    "id": 91924,
    "name": "Comuna Gropeni",
    "state_id": 4736,
    "state_code": "BR",
    "country_id": 181,
    "country_code": "RO",
    "latitude": "45.07328000",
    "longitude": "27.88606000",
    "wikiDataId": null
  },
  {
    "id": 92126,
    "name": "Comuna Jirlău",
    "state_id": 4736,
    "state_code": "BR",
    "country_id": 181,
    "country_code": "RO",
    "latitude": "45.15314000",
    "longitude": "27.20900000",
    "wikiDataId": null
  },
  {
    "id": 92405,
    "name": "Comuna Măraşu",
    "state_id": 4736,
    "state_code": "BR",
    "country_id": 181,
    "country_code": "RO",
    "latitude": "45.00807000",
    "longitude": "27.98062000",
    "wikiDataId": null
  },
  {
    "id": 92422,
    "name": "Comuna Măxineni",
    "state_id": 4736,
    "state_code": "BR",
    "country_id": 181,
    "country_code": "RO",
    "latitude": "45.41803000",
    "longitude": "27.66470000",
    "wikiDataId": null
  },
  {
    "id": 92295,
    "name": "Comuna Mircea Vodă",
    "state_id": 4736,
    "state_code": "BR",
    "country_id": 181,
    "country_code": "RO",
    "latitude": "45.12889000",
    "longitude": "27.38258000",
    "wikiDataId": null
  },
  {
    "id": 92339,
    "name": "Comuna Movila Miresii",
    "state_id": 4736,
    "state_code": "BR",
    "country_id": 181,
    "country_code": "RO",
    "latitude": "45.19574000",
    "longitude": "27.60368000",
    "wikiDataId": null
  },
  {
    "id": 92737,
    "name": "Comuna Racoviţa",
    "state_id": 4736,
    "state_code": "BR",
    "country_id": 181,
    "country_code": "RO",
    "latitude": "45.30627000",
    "longitude": "27.46720000",
    "wikiDataId": null
  },
  {
    "id": 92823,
    "name": "Comuna Râmnicelu",
    "state_id": 4736,
    "state_code": "BR",
    "country_id": 181,
    "country_code": "RO",
    "latitude": "45.29786000",
    "longitude": "27.51338000",
    "wikiDataId": null
  },
  {
    "id": 92782,
    "name": "Comuna Romanu",
    "state_id": 4736,
    "state_code": "BR",
    "country_id": 181,
    "country_code": "RO",
    "latitude": "45.31818000",
    "longitude": "27.74046000",
    "wikiDataId": null
  },
  {
    "id": 92804,
    "name": "Comuna Roşiori",
    "state_id": 4736,
    "state_code": "BR",
    "country_id": 181,
    "country_code": "RO",
    "latitude": "44.84097000",
    "longitude": "27.34129000",
    "wikiDataId": null
  },
  {
    "id": 92866,
    "name": "Comuna Salcia Tudor",
    "state_id": 4736,
    "state_code": "BR",
    "country_id": 181,
    "country_code": "RO",
    "latitude": "45.40260000",
    "longitude": "27.50380000",
    "wikiDataId": null
  },
  {
    "id": 92893,
    "name": "Comuna Scorţaru Nou",
    "state_id": 4736,
    "state_code": "BR",
    "country_id": 181,
    "country_code": "RO",
    "latitude": "45.34905000",
    "longitude": "27.61478000",
    "wikiDataId": null
  },
  {
    "id": 92932,
    "name": "Comuna Siliştea",
    "state_id": 4736,
    "state_code": "BR",
    "country_id": 181,
    "country_code": "RO",
    "latitude": "45.35263000",
    "longitude": "27.82592000",
    "wikiDataId": null
  },
  {
    "id": 93015,
    "name": "Comuna Stăncuţa",
    "state_id": 4736,
    "state_code": "BR",
    "country_id": 181,
    "country_code": "RO",
    "latitude": "44.88885000",
    "longitude": "27.79614000",
    "wikiDataId": null
  },
  {
    "id": 93038,
    "name": "Comuna Surdila-Găiseanca",
    "state_id": 4736,
    "state_code": "BR",
    "country_id": 181,
    "country_code": "RO",
    "latitude": "45.09893000",
    "longitude": "27.33491000",
    "wikiDataId": null
  },
  {
    "id": 93037,
    "name": "Comuna Surdila-Greci",
    "state_id": 4736,
    "state_code": "BR",
    "country_id": 181,
    "country_code": "RO",
    "latitude": "45.07288000",
    "longitude": "27.26840000",
    "wikiDataId": null
  },
  {
    "id": 93565,
    "name": "Comuna Şuţeşti",
    "state_id": 4736,
    "state_code": "BR",
    "country_id": 181,
    "country_code": "RO",
    "latitude": "45.22101000",
    "longitude": "27.47067000",
    "wikiDataId": null
  },
  {
    "id": 93148,
    "name": "Comuna Tichileşti",
    "state_id": 4736,
    "state_code": "BR",
    "country_id": 181,
    "country_code": "RO",
    "latitude": "45.14822000",
    "longitude": "27.89059000",
    "wikiDataId": null
  },
  {
    "id": 93189,
    "name": "Comuna Traian",
    "state_id": 4736,
    "state_code": "BR",
    "country_id": 181,
    "country_code": "RO",
    "latitude": "45.15355000",
    "longitude": "27.69170000",
    "wikiDataId": null
  },
  {
    "id": 93199,
    "name": "Comuna Tudor Vladimirescu",
    "state_id": 4736,
    "state_code": "BR",
    "country_id": 181,
    "country_code": "RO",
    "latitude": "45.22537000",
    "longitude": "27.75299000",
    "wikiDataId": null
  },
  {
    "id": 93202,
    "name": "Comuna Tufeşti",
    "state_id": 4736,
    "state_code": "BR",
    "country_id": 181,
    "country_code": "RO",
    "latitude": "44.98719000",
    "longitude": "27.80256000",
    "wikiDataId": null
  },
  {
    "id": 93264,
    "name": "Comuna Ulmu",
    "state_id": 4736,
    "state_code": "BR",
    "country_id": 181,
    "country_code": "RO",
    "latitude": "44.94821000",
    "longitude": "27.29836000",
    "wikiDataId": null
  },
  {
    "id": 93277,
    "name": "Comuna Unirea",
    "state_id": 4736,
    "state_code": "BR",
    "country_id": 181,
    "country_code": "RO",
    "latitude": "45.10592000",
    "longitude": "27.77613000",
    "wikiDataId": null
  },
  {
    "id": 93454,
    "name": "Comuna Vădeni",
    "state_id": 4736,
    "state_code": "BR",
    "country_id": 181,
    "country_code": "RO",
    "latitude": "45.33745000",
    "longitude": "27.90589000",
    "wikiDataId": null
  },
  {
    "id": 93352,
    "name": "Comuna Victoria",
    "state_id": 4736,
    "state_code": "BR",
    "country_id": 181,
    "country_code": "RO",
    "latitude": "44.79568000",
    "longitude": "27.67036000",
    "wikiDataId": null
  },
  {
    "id": 93374,
    "name": "Comuna Vişani",
    "state_id": 4736,
    "state_code": "BR",
    "country_id": 181,
    "country_code": "RO",
    "latitude": "45.18495000",
    "longitude": "27.30611000",
    "wikiDataId": null
  },
  {
    "id": 93373,
    "name": "Comuna Viziru",
    "state_id": 4736,
    "state_code": "BR",
    "country_id": 181,
    "country_code": "RO",
    "latitude": "45.02027000",
    "longitude": "27.73217000",
    "wikiDataId": null
  },
  {
    "id": 93491,
    "name": "Comuna Zăvoaia",
    "state_id": 4736,
    "state_code": "BR",
    "country_id": 181,
    "country_code": "RO",
    "latitude": "44.95276000",
    "longitude": "27.45613000",
    "wikiDataId": null
  },
  {
    "id": 93621,
    "name": "Corbu Nou",
    "state_id": 4736,
    "state_code": "BR",
    "country_id": 181,
    "country_code": "RO",
    "latitude": "45.40996000",
    "longitude": "27.59191000",
    "wikiDataId": null
  },
  {
    "id": 93785,
    "name": "Cuza Vodă",
    "state_id": 4736,
    "state_code": "BR",
    "country_id": 181,
    "country_code": "RO",
    "latitude": "44.92513000",
    "longitude": "27.73273000",
    "wikiDataId": null
  },
  {
    "id": 93908,
    "name": "Dedulești",
    "state_id": 4736,
    "state_code": "BR",
    "country_id": 181,
    "country_code": "RO",
    "latitude": "45.14679000",
    "longitude": "27.38907000",
    "wikiDataId": null
  },
  {
    "id": 94069,
    "name": "Dudeşti",
    "state_id": 4736,
    "state_code": "BR",
    "country_id": 181,
    "country_code": "RO",
    "latitude": "44.90000000",
    "longitude": "27.43333000",
    "wikiDataId": null
  },
  {
    "id": 94269,
    "name": "Făurei",
    "state_id": 4736,
    "state_code": "BR",
    "country_id": 181,
    "country_code": "RO",
    "latitude": "45.08333000",
    "longitude": "27.26667000",
    "wikiDataId": null
  },
  {
    "id": 94205,
    "name": "Frecăţei",
    "state_id": 4736,
    "state_code": "BR",
    "country_id": 181,
    "country_code": "RO",
    "latitude": "44.90000000",
    "longitude": "28.11667000",
    "wikiDataId": null
  },
  {
    "id": 94275,
    "name": "Galbenu",
    "state_id": 4736,
    "state_code": "BR",
    "country_id": 181,
    "country_code": "RO",
    "latitude": "45.21667000",
    "longitude": "27.16667000",
    "wikiDataId": null
  },
  {
    "id": 94289,
    "name": "Gemenele",
    "state_id": 4736,
    "state_code": "BR",
    "country_id": 181,
    "country_code": "RO",
    "latitude": "45.28333000",
    "longitude": "27.61667000",
    "wikiDataId": null
  },
  {
    "id": 94440,
    "name": "Grădiştea",
    "state_id": 4736,
    "state_code": "BR",
    "country_id": 181,
    "country_code": "RO",
    "latitude": "45.26667000",
    "longitude": "27.38333000",
    "wikiDataId": null
  },
  {
    "id": 94419,
    "name": "Gropeni",
    "state_id": 4736,
    "state_code": "BR",
    "country_id": 181,
    "country_code": "RO",
    "latitude": "45.07547000",
    "longitude": "27.87969000",
    "wikiDataId": null
  },
  {
    "id": 94620,
    "name": "Ianca",
    "state_id": 4736,
    "state_code": "BR",
    "country_id": 181,
    "country_code": "RO",
    "latitude": "45.13333000",
    "longitude": "27.45000000",
    "wikiDataId": null
  },
  {
    "id": 97024,
    "name": "Însurăţei",
    "state_id": 4736,
    "state_code": "BR",
    "country_id": 181,
    "country_code": "RO",
    "latitude": "44.91667000",
    "longitude": "27.60000000",
    "wikiDataId": null
  },
  {
    "id": 94740,
    "name": "Jirlău",
    "state_id": 4736,
    "state_code": "BR",
    "country_id": 181,
    "country_code": "RO",
    "latitude": "45.16667000",
    "longitude": "27.16667000",
    "wikiDataId": null
  },
  {
    "id": 94751,
    "name": "Jugureanu",
    "state_id": 4736,
    "state_code": "BR",
    "country_id": 181,
    "country_code": "RO",
    "latitude": "44.94313000",
    "longitude": "27.27878000",
    "wikiDataId": null
  },
  {
    "id": 94756,
    "name": "Lacu Sărat",
    "state_id": 4736,
    "state_code": "BR",
    "country_id": 181,
    "country_code": "RO",
    "latitude": "45.21867000",
    "longitude": "27.88764000",
    "wikiDataId": null
  },
  {
    "id": 94759,
    "name": "Lanurile",
    "state_id": 4736,
    "state_code": "BR",
    "country_id": 181,
    "country_code": "RO",
    "latitude": "45.04149000",
    "longitude": "27.74916000",
    "wikiDataId": null
  },
  {
    "id": 95265,
    "name": "Măraşu",
    "state_id": 4736,
    "state_code": "BR",
    "country_id": 181,
    "country_code": "RO",
    "latitude": "44.85000000",
    "longitude": "27.96667000",
    "wikiDataId": null
  },
  {
    "id": 95293,
    "name": "Măxineni",
    "state_id": 4736,
    "state_code": "BR",
    "country_id": 181,
    "country_code": "RO",
    "latitude": "45.40000000",
    "longitude": "27.63333000",
    "wikiDataId": null
  },
  {
    "id": 94977,
    "name": "Mihai Bravu",
    "state_id": 4736,
    "state_code": "BR",
    "country_id": 181,
    "country_code": "RO",
    "latitude": "44.78469000",
    "longitude": "27.72144000",
    "wikiDataId": null
  },
  {
    "id": 95013,
    "name": "Mircea Vodă",
    "state_id": 4736,
    "state_code": "BR",
    "country_id": 181,
    "country_code": "RO",
    "latitude": "45.11667000",
    "longitude": "27.38333000",
    "wikiDataId": null
  },
  {
    "id": 95081,
    "name": "Movila Miresii",
    "state_id": 4736,
    "state_code": "BR",
    "country_id": 181,
    "country_code": "RO",
    "latitude": "45.21667000",
    "longitude": "27.60000000",
    "wikiDataId": null
  },
  {
    "id": 95118,
    "name": "Municipiul Brãila",
    "state_id": 4736,
    "state_code": "BR",
    "country_id": 181,
    "country_code": "RO",
    "latitude": "45.27190000",
    "longitude": "27.97500000",
    "wikiDataId": null
  },
  {
    "id": 95522,
    "name": "Oraş Fãurei",
    "state_id": 4736,
    "state_code": "BR",
    "country_id": 181,
    "country_code": "RO",
    "latitude": "45.08534000",
    "longitude": "27.27155000",
    "wikiDataId": null
  },
  {
    "id": 95533,
    "name": "Oraş Ianca",
    "state_id": 4736,
    "state_code": "BR",
    "country_id": 181,
    "country_code": "RO",
    "latitude": "45.11446000",
    "longitude": "27.50205000",
    "wikiDataId": null
  },
  {
    "id": 95627,
    "name": "Oraş Însurãţei",
    "state_id": 4736,
    "state_code": "BR",
    "country_id": 181,
    "country_code": "RO",
    "latitude": "44.91928000",
    "longitude": "27.64433000",
    "wikiDataId": null
  },
  {
    "id": 95739,
    "name": "Perișoru",
    "state_id": 4736,
    "state_code": "BR",
    "country_id": 181,
    "country_code": "RO",
    "latitude": "45.11268000",
    "longitude": "27.49817000",
    "wikiDataId": null
  },
  {
    "id": 95822,
    "name": "Plopu",
    "state_id": 4736,
    "state_code": "BR",
    "country_id": 181,
    "country_code": "RO",
    "latitude": "45.14847000",
    "longitude": "27.51387000",
    "wikiDataId": null
  },
  {
    "id": 96041,
    "name": "Racoviţa",
    "state_id": 4736,
    "state_code": "BR",
    "country_id": 181,
    "country_code": "RO",
    "latitude": "45.30000000",
    "longitude": "27.45000000",
    "wikiDataId": null
  },
  {
    "id": 96168,
    "name": "Râmnicelu",
    "state_id": 4736,
    "state_code": "BR",
    "country_id": 181,
    "country_code": "RO",
    "latitude": "45.28333000",
    "longitude": "27.53333000",
    "wikiDataId": null
  },
  {
    "id": 96106,
    "name": "Romanu",
    "state_id": 4736,
    "state_code": "BR",
    "country_id": 181,
    "country_code": "RO",
    "latitude": "45.28333000",
    "longitude": "27.73333000",
    "wikiDataId": null
  },
  {
    "id": 96132,
    "name": "Roşiori",
    "state_id": 4736,
    "state_code": "BR",
    "country_id": 181,
    "country_code": "RO",
    "latitude": "44.80000000",
    "longitude": "27.38333000",
    "wikiDataId": null
  },
  {
    "id": 96234,
    "name": "Salcia Tudor",
    "state_id": 4736,
    "state_code": "BR",
    "country_id": 181,
    "country_code": "RO",
    "latitude": "45.36667000",
    "longitude": "27.51667000",
    "wikiDataId": null
  },
  {
    "id": 96279,
    "name": "Scorţaru Nou",
    "state_id": 4736,
    "state_code": "BR",
    "country_id": 181,
    "country_code": "RO",
    "latitude": "45.31667000",
    "longitude": "27.60000000",
    "wikiDataId": null
  },
  {
    "id": 96283,
    "name": "Scorțaru Vechi",
    "state_id": 4736,
    "state_code": "BR",
    "country_id": 181,
    "country_code": "RO",
    "latitude": "45.21886000",
    "longitude": "27.75489000",
    "wikiDataId": null
  },
  {
    "id": 96340,
    "name": "Siliştea",
    "state_id": 4736,
    "state_code": "BR",
    "country_id": 181,
    "country_code": "RO",
    "latitude": "45.30000000",
    "longitude": "27.85000000",
    "wikiDataId": null
  },
  {
    "id": 96417,
    "name": "Spiru Haret",
    "state_id": 4736,
    "state_code": "BR",
    "country_id": 181,
    "country_code": "RO",
    "latitude": "44.86715000",
    "longitude": "27.74463000",
    "wikiDataId": null
  },
  {
    "id": 96476,
    "name": "Stăncuţa",
    "state_id": 4736,
    "state_code": "BR",
    "country_id": 181,
    "country_code": "RO",
    "latitude": "44.90000000",
    "longitude": "27.83333000",
    "wikiDataId": null
  },
  {
    "id": 96507,
    "name": "Surdila-Găiseanca",
    "state_id": 4736,
    "state_code": "BR",
    "country_id": 181,
    "country_code": "RO",
    "latitude": "45.06667000",
    "longitude": "27.33333000",
    "wikiDataId": null
  },
  {
    "id": 96506,
    "name": "Surdila-Greci",
    "state_id": 4736,
    "state_code": "BR",
    "country_id": 181,
    "country_code": "RO",
    "latitude": "45.06667000",
    "longitude": "27.26667000",
    "wikiDataId": null
  },
  {
    "id": 97097,
    "name": "Şuţeşti",
    "state_id": 4736,
    "state_code": "BR",
    "country_id": 181,
    "country_code": "RO",
    "latitude": "45.21667000",
    "longitude": "27.43333000",
    "wikiDataId": null
  },
  {
    "id": 96615,
    "name": "Tătaru",
    "state_id": 4736,
    "state_code": "BR",
    "country_id": 181,
    "country_code": "RO",
    "latitude": "44.84482000",
    "longitude": "27.43376000",
    "wikiDataId": null
  },
  {
    "id": 106093,
    "name": "Tichileşti",
    "state_id": 4736,
    "state_code": "BR",
    "country_id": 181,
    "country_code": "RO",
    "latitude": "45.11667000",
    "longitude": "27.90000000",
    "wikiDataId": null
  },
  {
    "id": 106145,
    "name": "Traian",
    "state_id": 4736,
    "state_code": "BR",
    "country_id": 181,
    "country_code": "RO",
    "latitude": "45.18333000",
    "longitude": "27.73333000",
    "wikiDataId": null
  },
  {
    "id": 106164,
    "name": "Tudor Vladimirescu",
    "state_id": 4736,
    "state_code": "BR",
    "country_id": 181,
    "country_code": "RO",
    "latitude": "45.21667000",
    "longitude": "27.80000000",
    "wikiDataId": null
  },
  {
    "id": 106171,
    "name": "Tufeşti",
    "state_id": 4736,
    "state_code": "BR",
    "country_id": 181,
    "country_code": "RO",
    "latitude": "45.05000000",
    "longitude": "27.81667000",
    "wikiDataId": null
  },
  {
    "id": 96650,
    "name": "Ulmu",
    "state_id": 4736,
    "state_code": "BR",
    "country_id": 181,
    "country_code": "RO",
    "latitude": "44.95000000",
    "longitude": "27.31667000",
    "wikiDataId": null
  },
  {
    "id": 96669,
    "name": "Unirea",
    "state_id": 4736,
    "state_code": "BR",
    "country_id": 181,
    "country_code": "RO",
    "latitude": "45.11667000",
    "longitude": "27.81667000",
    "wikiDataId": null
  },
  {
    "id": 96680,
    "name": "Urleasca",
    "state_id": 4736,
    "state_code": "BR",
    "country_id": 181,
    "country_code": "RO",
    "latitude": "45.13697000",
    "longitude": "27.64736000",
    "wikiDataId": null
  },
  {
    "id": 96954,
    "name": "Vădeni",
    "state_id": 4736,
    "state_code": "BR",
    "country_id": 181,
    "country_code": "RO",
    "latitude": "45.36667000",
    "longitude": "27.93333000",
    "wikiDataId": null
  },
  {
    "id": 96719,
    "name": "Valea Cânepii",
    "state_id": 4736,
    "state_code": "BR",
    "country_id": 181,
    "country_code": "RO",
    "latitude": "45.08333000",
    "longitude": "27.81667000",
    "wikiDataId": null
  },
  {
    "id": 96806,
    "name": "Victoria",
    "state_id": 4736,
    "state_code": "BR",
    "country_id": 181,
    "country_code": "RO",
    "latitude": "44.81667000",
    "longitude": "27.61667000",
    "wikiDataId": null
  },
  {
    "id": 96846,
    "name": "Vişani",
    "state_id": 4736,
    "state_code": "BR",
    "country_id": 181,
    "country_code": "RO",
    "latitude": "45.15000000",
    "longitude": "27.28333000",
    "wikiDataId": null
  },
  {
    "id": 96844,
    "name": "Viziru",
    "state_id": 4736,
    "state_code": "BR",
    "country_id": 181,
    "country_code": "RO",
    "latitude": "45.01667000",
    "longitude": "27.70000000",
    "wikiDataId": null
  },
  {
    "id": 97021,
    "name": "Zăvoaia",
    "state_id": 4736,
    "state_code": "BR",
    "country_id": 181,
    "country_code": "RO",
    "latitude": "44.95000000",
    "longitude": "27.48333000",
    "wikiDataId": null
  }
]