[
  {
    "id": 102921,
    "name": "Al Hasaheisa",
    "state_id": 885,
    "state_code": "GZ",
    "country_id": 209,
    "country_code": "SD",
    "latitude": "14.75264000",
    "longitude": "33.29836000",
    "wikiDataId": null
  },
  {
    "id": 102922,
    "name": "Al Hilāliyya",
    "state_id": 885,
    "state_code": "GZ",
    "country_id": 209,
    "country_code": "SD",
    "latitude": "14.93980000",
    "longitude": "33.23400000",
    "wikiDataId": null
  },
  {
    "id": 102924,
    "name": "Al Kiremit al ‘Arakiyyīn",
    "state_id": 885,
    "state_code": "GZ",
    "country_id": 209,
    "country_code": "SD",
    "latitude": "14.34760000",
    "longitude": "32.94370000",
    "wikiDataId": null
  },
  {
    "id": 102926,
    "name": "Al Manāqil",
    "state_id": 885,
    "state_code": "GZ",
    "country_id": 209,
    "country_code": "SD",
    "latitude": "14.24590000",
    "longitude": "32.98910000",
    "wikiDataId": null
  },
  {
    "id": 102927,
    "name": "Al Masallamiyya",
    "state_id": 885,
    "state_code": "GZ",
    "country_id": 209,
    "country_code": "SD",
    "latitude": "14.57480000",
    "longitude": "33.33730000",
    "wikiDataId": null
  },
  {
    "id": 102980,
    "name": "Wad Medani",
    "state_id": 885,
    "state_code": "GZ",
    "country_id": 209,
    "country_code": "SD",
    "latitude": "14.40118000",
    "longitude": "33.51989000",
    "wikiDataId": null
  },
  {
    "id": 102981,
    "name": "Wad Rāwah",
    "state_id": 885,
    "state_code": "GZ",
    "country_id": 209,
    "country_code": "SD",
    "latitude": "15.16028000",
    "longitude": "33.13972000",
    "wikiDataId": null
  }
]