[
  {
    "id": 55171,
    "name": "Abda",
    "state_id": 1042,
    "state_code": "GS",
    "country_id": 99,
    "country_code": "HU",
    "latitude": "47.69464000",
    "longitude": "17.54489000",
    "wikiDataId": null
  },
  {
    "id": 56142,
    "name": "Ágfalva",
    "state_id": 1042,
    "state_code": "GS",
    "country_id": 99,
    "country_code": "HU",
    "latitude": "47.68991000",
    "longitude": "16.51658000",
    "wikiDataId": null
  },
  {
    "id": 56144,
    "name": "Ásványráró",
    "state_id": 1042,
    "state_code": "GS",
    "country_id": 99,
    "country_code": "HU",
    "latitude": "47.82733000",
    "longitude": "17.49418000",
    "wikiDataId": null
  },
  {
    "id": 55206,
    "name": "Bakonyszentlászló",
    "state_id": 1042,
    "state_code": "GS",
    "country_id": 99,
    "country_code": "HU",
    "latitude": "47.38901000",
    "longitude": "17.80321000",
    "wikiDataId": null
  },
  {
    "id": 55236,
    "name": "Beled",
    "state_id": 1042,
    "state_code": "GS",
    "country_id": 99,
    "country_code": "HU",
    "latitude": "47.46594000",
    "longitude": "17.09294000",
    "wikiDataId": null
  },
  {
    "id": 55312,
    "name": "Bőny",
    "state_id": 1042,
    "state_code": "GS",
    "country_id": 99,
    "country_code": "HU",
    "latitude": "47.65000000",
    "longitude": "17.86977000",
    "wikiDataId": null
  },
  {
    "id": 55313,
    "name": "Bősárkány",
    "state_id": 1042,
    "state_code": "GS",
    "country_id": 99,
    "country_code": "HU",
    "latitude": "47.68821000",
    "longitude": "17.25000000",
    "wikiDataId": null
  },
  {
    "id": 55340,
    "name": "Csorna",
    "state_id": 1042,
    "state_code": "GS",
    "country_id": 99,
    "country_code": "HU",
    "latitude": "47.61155000",
    "longitude": "17.25012000",
    "wikiDataId": null
  },
  {
    "id": 55341,
    "name": "Csornai Járás",
    "state_id": 1042,
    "state_code": "GS",
    "country_id": 99,
    "country_code": "HU",
    "latitude": "47.58403000",
    "longitude": "17.26041000",
    "wikiDataId": null
  },
  {
    "id": 55418,
    "name": "Farád",
    "state_id": 1042,
    "state_code": "GS",
    "country_id": 99,
    "country_code": "HU",
    "latitude": "47.60633000",
    "longitude": "17.20024000",
    "wikiDataId": null
  },
  {
    "id": 55427,
    "name": "Fertőd",
    "state_id": 1042,
    "state_code": "GS",
    "country_id": 99,
    "country_code": "HU",
    "latitude": "47.62173000",
    "longitude": "16.87088000",
    "wikiDataId": null
  },
  {
    "id": 55428,
    "name": "Fertőrákos",
    "state_id": 1042,
    "state_code": "GS",
    "country_id": 99,
    "country_code": "HU",
    "latitude": "47.72017000",
    "longitude": "16.65040000",
    "wikiDataId": null
  },
  {
    "id": 55429,
    "name": "Fertőszentmiklós",
    "state_id": 1042,
    "state_code": "GS",
    "country_id": 99,
    "country_code": "HU",
    "latitude": "47.58996000",
    "longitude": "16.87517000",
    "wikiDataId": null
  },
  {
    "id": 55466,
    "name": "Győr",
    "state_id": 1042,
    "state_code": "GS",
    "country_id": 99,
    "country_code": "HU",
    "latitude": "47.68333000",
    "longitude": "17.63512000",
    "wikiDataId": null
  },
  {
    "id": 55467,
    "name": "Győri Járás",
    "state_id": 1042,
    "state_code": "GS",
    "country_id": 99,
    "country_code": "HU",
    "latitude": "47.67273000",
    "longitude": "17.67936000",
    "wikiDataId": null
  },
  {
    "id": 55468,
    "name": "Győrszemere",
    "state_id": 1042,
    "state_code": "GS",
    "country_id": 99,
    "country_code": "HU",
    "latitude": "47.55256000",
    "longitude": "17.56356000",
    "wikiDataId": null
  },
  {
    "id": 55469,
    "name": "Győrújbarát",
    "state_id": 1042,
    "state_code": "GS",
    "country_id": 99,
    "country_code": "HU",
    "latitude": "47.60643000",
    "longitude": "17.64875000",
    "wikiDataId": null
  },
  {
    "id": 55495,
    "name": "Halászi",
    "state_id": 1042,
    "state_code": "GS",
    "country_id": 99,
    "country_code": "HU",
    "latitude": "47.88930000",
    "longitude": "17.32615000",
    "wikiDataId": null
  },
  {
    "id": 55539,
    "name": "Jánossomorja",
    "state_id": 1042,
    "state_code": "GS",
    "country_id": 99,
    "country_code": "HU",
    "latitude": "47.78621000",
    "longitude": "17.13603000",
    "wikiDataId": null
  },
  {
    "id": 55563,
    "name": "Kapuvár",
    "state_id": 1042,
    "state_code": "GS",
    "country_id": 99,
    "country_code": "HU",
    "latitude": "47.59224000",
    "longitude": "17.02886000",
    "wikiDataId": null
  },
  {
    "id": 55564,
    "name": "Kapuvári Járás",
    "state_id": 1042,
    "state_code": "GS",
    "country_id": 99,
    "country_code": "HU",
    "latitude": "47.56705000",
    "longitude": "17.04056000",
    "wikiDataId": null
  },
  {
    "id": 55592,
    "name": "Kimle",
    "state_id": 1042,
    "state_code": "GS",
    "country_id": 99,
    "country_code": "HU",
    "latitude": "47.81726000",
    "longitude": "17.36642000",
    "wikiDataId": null
  },
  {
    "id": 55645,
    "name": "Kóny",
    "state_id": 1042,
    "state_code": "GS",
    "country_id": 99,
    "country_code": "HU",
    "latitude": "47.63053000",
    "longitude": "17.35717000",
    "wikiDataId": null
  },
  {
    "id": 55668,
    "name": "Lébény",
    "state_id": 1042,
    "state_code": "GS",
    "country_id": 99,
    "country_code": "HU",
    "latitude": "47.73574000",
    "longitude": "17.39076000",
    "wikiDataId": null
  },
  {
    "id": 55702,
    "name": "Mihályi",
    "state_id": 1042,
    "state_code": "GS",
    "country_id": 99,
    "country_code": "HU",
    "latitude": "47.51384000",
    "longitude": "17.09507000",
    "wikiDataId": null
  },
  {
    "id": 55714,
    "name": "Mosonmagyaróvár",
    "state_id": 1042,
    "state_code": "GS",
    "country_id": 99,
    "country_code": "HU",
    "latitude": "47.86789000",
    "longitude": "17.26994000",
    "wikiDataId": null
  },
  {
    "id": 55715,
    "name": "Mosonmagyaróvári Járás",
    "state_id": 1042,
    "state_code": "GS",
    "country_id": 99,
    "country_code": "HU",
    "latitude": "47.85767000",
    "longitude": "17.28212000",
    "wikiDataId": null
  },
  {
    "id": 55716,
    "name": "Mosonszentmiklós",
    "state_id": 1042,
    "state_code": "GS",
    "country_id": 99,
    "country_code": "HU",
    "latitude": "47.72778000",
    "longitude": "17.42784000",
    "wikiDataId": null
  },
  {
    "id": 55742,
    "name": "Nagycenk",
    "state_id": 1042,
    "state_code": "GS",
    "country_id": 99,
    "country_code": "HU",
    "latitude": "47.60435000",
    "longitude": "16.69732000",
    "wikiDataId": null
  },
  {
    "id": 55793,
    "name": "Nyúl",
    "state_id": 1042,
    "state_code": "GS",
    "country_id": 99,
    "country_code": "HU",
    "latitude": "47.59047000",
    "longitude": "17.68904000",
    "wikiDataId": null
  },
  {
    "id": 56159,
    "name": "Öttevény",
    "state_id": 1042,
    "state_code": "GS",
    "country_id": 99,
    "country_code": "HU",
    "latitude": "47.71946000",
    "longitude": "17.48474000",
    "wikiDataId": null
  },
  {
    "id": 55808,
    "name": "Pannonhalma",
    "state_id": 1042,
    "state_code": "GS",
    "country_id": 99,
    "country_code": "HU",
    "latitude": "47.54946000",
    "longitude": "17.75535000",
    "wikiDataId": null
  },
  {
    "id": 55809,
    "name": "Pannonhalmi Járás",
    "state_id": 1042,
    "state_code": "GS",
    "country_id": 99,
    "country_code": "HU",
    "latitude": "47.45571000",
    "longitude": "17.81335000",
    "wikiDataId": null
  },
  {
    "id": 55854,
    "name": "Pér",
    "state_id": 1042,
    "state_code": "GS",
    "country_id": 99,
    "country_code": "HU",
    "latitude": "47.61153000",
    "longitude": "17.80632000",
    "wikiDataId": null
  },
  {
    "id": 55869,
    "name": "Rábapatona",
    "state_id": 1042,
    "state_code": "GS",
    "country_id": 99,
    "country_code": "HU",
    "latitude": "47.63224000",
    "longitude": "17.48004000",
    "wikiDataId": null
  },
  {
    "id": 55861,
    "name": "Rajka",
    "state_id": 1042,
    "state_code": "GS",
    "country_id": 99,
    "country_code": "HU",
    "latitude": "47.99643000",
    "longitude": "17.19821000",
    "wikiDataId": null
  },
  {
    "id": 55909,
    "name": "Sopron",
    "state_id": 1042,
    "state_code": "GS",
    "country_id": 99,
    "country_code": "HU",
    "latitude": "47.68501000",
    "longitude": "16.59049000",
    "wikiDataId": null
  },
  {
    "id": 55910,
    "name": "Soproni Járás",
    "state_id": 1042,
    "state_code": "GS",
    "country_id": 99,
    "country_code": "HU",
    "latitude": "47.60385000",
    "longitude": "16.75654000",
    "wikiDataId": null
  },
  {
    "id": 55920,
    "name": "Szany",
    "state_id": 1042,
    "state_code": "GS",
    "country_id": 99,
    "country_code": "HU",
    "latitude": "47.46423000",
    "longitude": "17.30402000",
    "wikiDataId": null
  },
  {
    "id": 56074,
    "name": "Tét",
    "state_id": 1042,
    "state_code": "GS",
    "country_id": 99,
    "country_code": "HU",
    "latitude": "47.51922000",
    "longitude": "17.50802000",
    "wikiDataId": null
  },
  {
    "id": 56075,
    "name": "Téti Járás",
    "state_id": 1042,
    "state_code": "GS",
    "country_id": 99,
    "country_code": "HU",
    "latitude": "47.51515000",
    "longitude": "17.51612000",
    "wikiDataId": null
  },
  {
    "id": 56080,
    "name": "Töltéstava",
    "state_id": 1042,
    "state_code": "GS",
    "country_id": 99,
    "country_code": "HU",
    "latitude": "47.62609000",
    "longitude": "17.73376000",
    "wikiDataId": null
  }
]