[
  {
    "id": 5089,
    "name": "A Coruña",
    "country_id": 207,
    "country_code": "ES",
    "state_code": "C",
    "type": "province",
    "latitude": "43.37097030",
    "longitude": "-8.39594250",
    "iso3166_2": "ES-C",
    "native": "A Coruña",
    "timezone": "Europe/Madrid"
  },
  {
    "id": 5109,
    "name": "Albacete",
    "country_id": 207,
    "country_code": "ES",
    "state_code": "AB",
    "type": "province",
    "latitude": "38.99509210",
    "longitude": "-1.85591540",
    "iso3166_2": "ES-AB",
    "native": "Albacete",
    "timezone": "Europe/Madrid"
  },
  {
    "id": 5108,
    "name": "Alicante",
    "country_id": 207,
    "country_code": "ES",
    "state_code": "A",
    "type": "province",
    "latitude": "38.34363650",
    "longitude": "-0.48817080",
    "iso3166_2": "ES-A",
    "native": "Alicante",
    "timezone": "Europe/Madrid"
  },
  {
    "id": 5095,
    "name": "Almeria",
    "country_id": 207,
    "country_code": "ES",
    "state_code": "AL",
    "type": "province",
    "latitude": "36.84141970",
    "longitude": "-2.46281350",
    "iso3166_2": "ES-AL",
    "native": "Almeria",
    "timezone": "Europe/Madrid"
  },
  {
    "id": 5325,
    "name": "Andalusia",
    "country_id": 207,
    "country_code": "ES",
    "state_code": "AN",
    "type": "autonomous community",
    "latitude": "37.33999640",
    "longitude": "-4.58116140",
    "iso3166_2": "ES-AN",
    "native": "Andalucía",
    "timezone": "Europe/Madrid"
  },
  {
    "id": 5093,
    "name": "Araba",
    "country_id": 207,
    "country_code": "ES",
    "state_code": "VI",
    "type": "province",
    "latitude": "42.84407220",
    "longitude": "-2.68208290",
    "iso3166_2": "ES-VI",
    "native": "Auto",
    "timezone": "Europe/Madrid"
  },
  {
    "id": 5326,
    "name": "Aragon",
    "country_id": 207,
    "country_code": "ES",
    "state_code": "AR",
    "type": "autonomous community",
    "latitude": "41.37872910",
    "longitude": "-0.76393730",
    "iso3166_2": "ES-AR",
    "native": "Aragón",
    "timezone": "Europe/Madrid"
  },
  {
    "id": 1160,
    "name": "Asturias",
    "country_id": 207,
    "country_code": "ES",
    "state_code": "O",
    "type": "province",
    "latitude": "43.31338680",
    "longitude": "-5.94192000",
    "iso3166_2": "ES-O",
    "native": "Asturias",
    "timezone": "Europe/Madrid"
  },
  {
    "id": 1189,
    "name": "Ávila",
    "country_id": 207,
    "country_code": "ES",
    "state_code": "AV",
    "type": "province",
    "latitude": "40.62327680",
    "longitude": "-4.83542020",
    "iso3166_2": "ES-AV",
    "native": "Ávila",
    "timezone": "Europe/Madrid"
  },
  {
    "id": 5092,
    "name": "Badajoz",
    "country_id": 207,
    "country_code": "ES",
    "state_code": "BA",
    "type": "province",
    "latitude": "38.87818700",
    "longitude": "-6.97011150",
    "iso3166_2": "ES-BA",
    "native": "Badajoz",
    "timezone": "Europe/Madrid"
  },
  {
    "id": 5335,
    "name": "Balearic Islands",
    "country_id": 207,
    "country_code": "ES",
    "state_code": "IB",
    "type": "autonomous community",
    "latitude": "39.61343200",
    "longitude": "2.88291850",
    "iso3166_2": "ES-IB",
    "native": "Islas Baleares",
    "timezone": "Europe/Madrid"
  },
  {
    "id": 5102,
    "name": "Barcelona",
    "country_id": 207,
    "country_code": "ES",
    "state_code": "B",
    "type": "province",
    "latitude": "41.38258020",
    "longitude": "2.17707300",
    "iso3166_2": "ES-B",
    "native": "Barcelona",
    "timezone": "Europe/Madrid"
  },
  {
    "id": 5332,
    "name": "Basque Country",
    "country_id": 207,
    "country_code": "ES",
    "state_code": "PV",
    "type": "autonomous community",
    "latitude": "42.99118160",
    "longitude": "-2.55430230",
    "iso3166_2": "ES-PV",
    "native": "País vasco",
    "timezone": "Europe/Madrid"
  },
  {
    "id": 5094,
    "name": "Bizkaia",
    "country_id": 207,
    "country_code": "ES",
    "state_code": "BI",
    "type": "province",
    "latitude": "43.23848200",
    "longitude": "-2.85163160",
    "iso3166_2": "ES-BI",
    "native": "Bizkaia",
    "timezone": "Europe/Madrid"
  },
  {
    "id": 1146,
    "name": "Burgos",
    "country_id": 207,
    "country_code": "ES",
    "state_code": "BU",
    "type": "province",
    "latitude": "42.32471420",
    "longitude": "-3.67653890",
    "iso3166_2": "ES-BU",
    "native": "Burgos",
    "timezone": "Europe/Madrid"
  },
  {
    "id": 1190,
    "name": "Caceres",
    "country_id": 207,
    "country_code": "ES",
    "state_code": "CC",
    "type": "province",
    "latitude": "39.47451750",
    "longitude": "-6.37167610",
    "iso3166_2": "ES-CC",
    "native": "Cáceres",
    "timezone": "Europe/Madrid"
  },
  {
    "id": 5096,
    "name": "Cádiz",
    "country_id": 207,
    "country_code": "ES",
    "state_code": "CA",
    "type": "province",
    "latitude": "36.52974380",
    "longitude": "-6.29289760",
    "iso3166_2": "ES-CA",
    "native": "Cádiz",
    "timezone": "Europe/Madrid"
  },
  {
    "id": 5222,
    "name": "Canary Islands",
    "country_id": 207,
    "country_code": "ES",
    "state_code": "CN",
    "type": "autonomous community",
    "latitude": "28.29357850",
    "longitude": "-16.62144710",
    "iso3166_2": "ES-CN",
    "native": "Canarias",
    "timezone": "Atlantic/Canary"
  },
  {
    "id": 1170,
    "name": "Cantabria",
    "country_id": 207,
    "country_code": "ES",
    "state_code": "S",
    "type": "province",
    "latitude": "43.15956640",
    "longitude": "-4.08783820",
    "iso3166_2": "ES-S",
    "native": "Furtivo",
    "timezone": "Europe/Madrid"
  },
  {
    "id": 5110,
    "name": "Castellón",
    "country_id": 207,
    "country_code": "ES",
    "state_code": "CS",
    "type": "province",
    "latitude": "40.25185680",
    "longitude": "-0.06150520",
    "iso3166_2": "ES-CS",
    "native": "Castellón",
    "timezone": "Europe/Madrid"
  },
  {
    "id": 5329,
    "name": "Castile and Leon",
    "country_id": 207,
    "country_code": "ES",
    "state_code": "CL",
    "type": "autonomous community",
    "latitude": "41.55005000",
    "longitude": "-5.13874010",
    "iso3166_2": "ES-CL",
    "native": "Castile and Leon",
    "timezone": "Europe/Madrid"
  },
  {
    "id": 5330,
    "name": "Castilla-La Mancha",
    "country_id": 207,
    "country_code": "ES",
    "state_code": "CM",
    "type": "autonomous community",
    "latitude": "39.41779020",
    "longitude": "-2.62323320",
    "iso3166_2": "ES-CM",
    "native": "Castilla-La Mancha",
    "timezone": "Europe/Madrid"
  },
  {
    "id": 5331,
    "name": "Catalonia",
    "country_id": 207,
    "country_code": "ES",
    "state_code": "CT",
    "type": "autonomous community",
    "latitude": "41.85230940",
    "longitude": "1.57450430",
    "iso3166_2": "ES-CT",
    "native": "Cataluña",
    "timezone": "Europe/Madrid"
  },
  {
    "id": 5223,
    "name": "Ceuta",
    "country_id": 207,
    "country_code": "ES",
    "state_code": "CE",
    "type": "autonomous city",
    "latitude": "35.88836100",
    "longitude": "-5.30413800",
    "iso3166_2": "ES-CE",
    "native": "Ceuta",
    "timezone": "Africa/Ceuta"
  },
  {
    "id": 5105,
    "name": "Ciudad Real",
    "country_id": 207,
    "country_code": "ES",
    "state_code": "CR",
    "type": "province",
    "latitude": "38.98542010",
    "longitude": "-3.92851380",
    "iso3166_2": "ES-CR",
    "native": "Ciudad Real",
    "timezone": "Europe/Madrid"
  },
  {
    "id": 5337,
    "name": "Community of Madrid",
    "country_id": 207,
    "country_code": "ES",
    "state_code": "MD",
    "type": "autonomous community",
    "latitude": "40.52483190",
    "longitude": "-3.77156280",
    "iso3166_2": "ES-MD",
    "native": "Comunidad de Madrid",
    "timezone": "Europe/Madrid"
  },
  {
    "id": 5097,
    "name": "Córdoba",
    "country_id": 207,
    "country_code": "ES",
    "state_code": "CO",
    "type": "province",
    "latitude": "37.95671160",
    "longitude": "-4.84772410",
    "iso3166_2": "ES-CO",
    "native": "Córdoba",
    "timezone": "Europe/Madrid"
  },
  {
    "id": 5106,
    "name": "Cuenca",
    "country_id": 207,
    "country_code": "ES",
    "state_code": "CU",
    "type": "province",
    "latitude": "40.06610310",
    "longitude": "-2.13135280",
    "iso3166_2": "ES-CU",
    "native": "Cuenca",
    "timezone": "Europe/Madrid"
  },
  {
    "id": 5333,
    "name": "Estremadura",
    "country_id": 207,
    "country_code": "ES",
    "state_code": "EX",
    "type": "autonomous community",
    "latitude": "39.17484260",
    "longitude": "-6.15298910",
    "iso3166_2": "ES-EX",
    "native": "Extremo",
    "timezone": "Europe/Madrid"
  },
  {
    "id": 5334,
    "name": "Galicia",
    "country_id": 207,
    "country_code": "ES",
    "state_code": "GA",
    "type": "autonomous community",
    "latitude": "42.61946000",
    "longitude": "-7.86311200",
    "iso3166_2": "ES-GA",
    "native": "Galicia",
    "timezone": "Europe/Madrid"
  },
  {
    "id": 1191,
    "name": "Gipuzkoa",
    "country_id": 207,
    "country_code": "ES",
    "state_code": "SS",
    "type": "province",
    "latitude": "43.14452780",
    "longitude": "-2.20379550",
    "iso3166_2": "ES-SS",
    "native": "Gipuzkoa",
    "timezone": "Europe/Madrid"
  },
  {
    "id": 5103,
    "name": "Girona",
    "country_id": 207,
    "country_code": "ES",
    "state_code": "GI",
    "type": "province",
    "latitude": "41.97930060",
    "longitude": "2.81994390",
    "iso3166_2": "ES-GI",
    "native": "Girona",
    "timezone": "Europe/Madrid"
  },
  {
    "id": 5098,
    "name": "Granada",
    "country_id": 207,
    "country_code": "ES",
    "state_code": "GR",
    "type": "province",
    "latitude": "37.17349950",
    "longitude": "-3.59953370",
    "iso3166_2": "ES-GR",
    "native": "Granada",
    "timezone": "Europe/Madrid"
  },
  {
    "id": 5107,
    "name": "Guadalajara",
    "country_id": 207,
    "country_code": "ES",
    "state_code": "GU",
    "type": "province",
    "latitude": "40.63269790",
    "longitude": "-3.16460670",
    "iso3166_2": "ES-GU",
    "native": "Guadalajara",
    "timezone": "Europe/Madrid"
  },
  {
    "id": 5099,
    "name": "Huelva",
    "country_id": 207,
    "country_code": "ES",
    "state_code": "H",
    "type": "province",
    "latitude": "37.25758740",
    "longitude": "-6.94849450",
    "iso3166_2": "ES-H",
    "native": "Huelva",
    "timezone": "Europe/Madrid"
  },
  {
    "id": 1177,
    "name": "Huesca",
    "country_id": 207,
    "country_code": "ES",
    "state_code": "HU",
    "type": "province",
    "latitude": "42.13637860",
    "longitude": "-0.43658370",
    "iso3166_2": "ES-HU",
    "native": "Huesca",
    "timezone": "Europe/Madrid"
  },
  {
    "id": 1174,
    "name": "Islas Baleares",
    "country_id": 207,
    "country_code": "ES",
    "state_code": "PM",
    "type": "province",
    "latitude": "39.61343200",
    "longitude": "2.88291850",
    "iso3166_2": "ES-PM",
    "native": "Islas Baleares",
    "timezone": "Europe/Madrid"
  },
  {
    "id": 5100,
    "name": "Jaén",
    "country_id": 207,
    "country_code": "ES",
    "state_code": "J",
    "type": "province",
    "latitude": "37.77288580",
    "longitude": "-3.78832890",
    "iso3166_2": "ES-J",
    "native": "Jaén",
    "timezone": "Europe/Madrid"
  },
  {
    "id": 1171,
    "name": "La Rioja",
    "country_id": 207,
    "country_code": "ES",
    "state_code": "LO",
    "type": "province",
    "latitude": "42.28146420",
    "longitude": "-2.48280500",
    "iso3166_2": "ES-LO",
    "native": "La Rioja",
    "timezone": "Europe/Madrid"
  },
  {
    "id": 1185,
    "name": "Las Palmas",
    "country_id": 207,
    "country_code": "ES",
    "state_code": "GC",
    "type": "province",
    "latitude": "27.95800040",
    "longitude": "-15.60623050",
    "iso3166_2": "ES-GC",
    "native": "Las Palmas",
    "timezone": "Atlantic/Canary"
  },
  {
    "id": 1200,
    "name": "León",
    "country_id": 207,
    "country_code": "ES",
    "state_code": "LE",
    "type": "province",
    "latitude": "42.59870410",
    "longitude": "-5.56708390",
    "iso3166_2": "ES-LE",
    "native": "León",
    "timezone": "Europe/Madrid"
  },
  {
    "id": 5104,
    "name": "Lleida",
    "country_id": 207,
    "country_code": "ES",
    "state_code": "L",
    "type": "province",
    "latitude": "41.61476050",
    "longitude": "0.62678420",
    "iso3166_2": "ES-L",
    "native": "Lleida",
    "timezone": "Europe/Madrid"
  },
  {
    "id": 5090,
    "name": "Lugo",
    "country_id": 207,
    "country_code": "ES",
    "state_code": "LU",
    "type": "province",
    "latitude": "43.01184370",
    "longitude": "-7.55657490",
    "iso3166_2": "ES-LU",
    "native": "Lugo",
    "timezone": "Europe/Madrid"
  },
  {
    "id": 1158,
    "name": "Madrid",
    "country_id": 207,
    "country_code": "ES",
    "state_code": "M",
    "type": "province",
    "latitude": "40.41675150",
    "longitude": "-3.70383220",
    "iso3166_2": "ES-M",
    "native": "Madrid",
    "timezone": "Europe/Madrid"
  },
  {
    "id": 5101,
    "name": "Málaga",
    "country_id": 207,
    "country_code": "ES",
    "state_code": "MA",
    "type": "province",
    "latitude": "36.72130280",
    "longitude": "-4.42163660",
    "iso3166_2": "ES-MA",
    "native": "Málaga",
    "timezone": "Europe/Madrid"
  },
  {
    "id": 5224,
    "name": "Melilla",
    "country_id": 207,
    "country_code": "ES",
    "state_code": "ML",
    "type": "autonomous city",
    "latitude": "35.29370000",
    "longitude": "-2.93830000",
    "iso3166_2": "ES-ML",
    "native": "Melilla",
    "timezone": "Africa/Ceuta"
  },
  {
    "id": 1176,
    "name": "Murcia",
    "country_id": 207,
    "country_code": "ES",
    "state_code": "MU",
    "type": "province",
    "latitude": "37.99237950",
    "longitude": "-1.13054310",
    "iso3166_2": "ES-MU",
    "native": "Murcia",
    "timezone": "Europe/Madrid"
  },
  {
    "id": 1204,
    "name": "Navarra",
    "country_id": 207,
    "country_code": "ES",
    "state_code": "NA",
    "type": "province",
    "latitude": "42.61254880",
    "longitude": "-1.83078770",
    "iso3166_2": "ES-NA",
    "native": "Navarra",
    "timezone": "Europe/Madrid"
  },
  {
    "id": 5339,
    "name": "Navarre",
    "country_id": 207,
    "country_code": "ES",
    "state_code": "NC",
    "type": "autonomous community",
    "latitude": "42.61254880",
    "longitude": "-1.83078770",
    "iso3166_2": "ES-NC",
    "native": "Navarra",
    "timezone": "Europe/Madrid"
  },
  {
    "id": 5091,
    "name": "Ourense",
    "country_id": 207,
    "country_code": "ES",
    "state_code": "OR",
    "type": "province",
    "latitude": "42.34389320",
    "longitude": "-7.85717920",
    "iso3166_2": "ES-OR",
    "native": "Nuestro",
    "timezone": "Europe/Madrid"
  },
  {
    "id": 1157,
    "name": "Palencia",
    "country_id": 207,
    "country_code": "ES",
    "state_code": "P",
    "type": "province",
    "latitude": "42.00968320",
    "longitude": "-4.52879490",
    "iso3166_2": "ES-P",
    "native": "Palencia",
    "timezone": "Europe/Madrid"
  },
  {
    "id": 1167,
    "name": "Pontevedra",
    "country_id": 207,
    "country_code": "ES",
    "state_code": "PO",
    "type": "province",
    "latitude": "42.43188760",
    "longitude": "-8.64315920",
    "iso3166_2": "ES-PO",
    "native": "Pontevedra",
    "timezone": "Europe/Madrid"
  },
  {
    "id": 5338,
    "name": "Region of Murcia",
    "country_id": 207,
    "country_code": "ES",
    "state_code": "MC",
    "type": "autonomous community",
    "latitude": "38.06401230",
    "longitude": "-1.67193770",
    "iso3166_2": "ES-MC",
    "native": "Región de Murcia",
    "timezone": "Europe/Madrid"
  },
  {
    "id": 1147,
    "name": "Salamanca",
    "country_id": 207,
    "country_code": "ES",
    "state_code": "SA",
    "type": "province",
    "latitude": "40.76655820",
    "longitude": "-6.02176500",
    "iso3166_2": "ES-SA",
    "native": "Salamanca",
    "timezone": "Europe/Madrid"
  },
  {
    "id": 5112,
    "name": "Santa Cruz de Tenerife",
    "country_id": 207,
    "country_code": "ES",
    "state_code": "TF",
    "type": "province",
    "latitude": "28.46717800",
    "longitude": "-16.25078430",
    "iso3166_2": "ES-TF",
    "native": "Santa Cruz de Tenerife",
    "timezone": "Atlantic/Canary"
  },
  {
    "id": 1192,
    "name": "Segovia",
    "country_id": 207,
    "country_code": "ES",
    "state_code": "SG",
    "type": "province",
    "latitude": "40.94292960",
    "longitude": "-4.10889420",
    "iso3166_2": "ES-SG",
    "native": "Segovia",
    "timezone": "Europe/Madrid"
  },
  {
    "id": 1193,
    "name": "Sevilla",
    "country_id": 207,
    "country_code": "ES",
    "state_code": "SE",
    "type": "province",
    "latitude": "37.38863030",
    "longitude": "-5.99534030",
    "iso3166_2": "ES-SE",
    "native": "Sevilla",
    "timezone": "Europe/Madrid"
  },
  {
    "id": 1208,
    "name": "Soria",
    "country_id": 207,
    "country_code": "ES",
    "state_code": "SO",
    "type": "province",
    "latitude": "41.76338420",
    "longitude": "-2.46420410",
    "iso3166_2": "ES-SO",
    "native": "Soria",
    "timezone": "Europe/Madrid"
  },
  {
    "id": 1203,
    "name": "Tarragona",
    "country_id": 207,
    "country_code": "ES",
    "state_code": "T",
    "type": "province",
    "latitude": "41.11723640",
    "longitude": "1.25460570",
    "iso3166_2": "ES-T",
    "native": "Tarragona",
    "timezone": "Europe/Madrid"
  },
  {
    "id": 5111,
    "name": "Teruel",
    "country_id": 207,
    "country_code": "ES",
    "state_code": "TE",
    "type": "province",
    "latitude": "40.34504100",
    "longitude": "-1.11847440",
    "iso3166_2": "ES-TE",
    "native": "Teruel",
    "timezone": "Europe/Madrid"
  },
  {
    "id": 1205,
    "name": "Toledo",
    "country_id": 207,
    "country_code": "ES",
    "state_code": "TO",
    "type": "province",
    "latitude": "39.85606790",
    "longitude": "-4.02395680",
    "iso3166_2": "ES-TO",
    "native": "Toledo",
    "timezone": "Europe/Madrid"
  },
  {
    "id": 1175,
    "name": "Valencia",
    "country_id": 207,
    "country_code": "ES",
    "state_code": "V",
    "type": "province",
    "latitude": "39.33420580",
    "longitude": "-0.79734740",
    "iso3166_2": "ES-V",
    "native": "Valencia",
    "timezone": "Europe/Madrid"
  },
  {
    "id": 5340,
    "name": "Valencian Community",
    "country_id": 207,
    "country_code": "ES",
    "state_code": "VC",
    "type": "autonomous community",
    "latitude": "39.68195910",
    "longitude": "-0.76544060",
    "iso3166_2": "ES-VC",
    "native": "Comunidad valenciana",
    "timezone": "Europe/Madrid"
  },
  {
    "id": 1183,
    "name": "Valladolid",
    "country_id": 207,
    "country_code": "ES",
    "state_code": "VA",
    "type": "province",
    "latitude": "41.65173750",
    "longitude": "-4.72449500",
    "iso3166_2": "ES-VA",
    "native": "Valladolid",
    "timezone": "Europe/Madrid"
  },
  {
    "id": 1161,
    "name": "Zamora",
    "country_id": 207,
    "country_code": "ES",
    "state_code": "ZA",
    "type": "province",
    "latitude": "41.68576930",
    "longitude": "-5.94231500",
    "iso3166_2": "ES-ZA",
    "native": "Zamora",
    "timezone": "Europe/Madrid"
  },
  {
    "id": 5113,
    "name": "Zaragoza",
    "country_id": 207,
    "country_code": "ES",
    "state_code": "Z",
    "type": "province",
    "latitude": "41.65213420",
    "longitude": "-0.88094280",
    "iso3166_2": "ES-Z",
    "native": "Zaragoza",
    "timezone": "Europe/Madrid"
  }
]