[
  {
    "id": 63224,
    "name": "Aizu-wakamatsu Shi",
    "state_id": 847,
    "state_code": "07",
    "country_id": 109,
    "country_code": "JP",
    "latitude": "37.45071000",
    "longitude": "139.96814000",
    "wikiDataId": null
  },
  {
    "id": 63323,
    "name": "Date-shi",
    "state_id": 847,
    "state_code": "07",
    "country_id": 109,
    "country_code": "JP",
    "latitude": "37.81667000",
    "longitude": "140.51667000",
    "wikiDataId": null
  },
  {
    "id": 63370,
    "name": "Fukushima",
    "state_id": 847,
    "state_code": "07",
    "country_id": 109,
    "country_code": "JP",
    "latitude": "37.75000000",
    "longitude": "140.46667000",
    "wikiDataId": null
  },
  {
    "id": 63371,
    "name": "Fukushima Shi",
    "state_id": 847,
    "state_code": "07",
    "country_id": 109,
    "country_code": "JP",
    "latitude": "37.78643000",
    "longitude": "140.38849000",
    "wikiDataId": null
  },
  {
    "id": 63377,
    "name": "Funehikimachi-funehiki",
    "state_id": 847,
    "state_code": "07",
    "country_id": 109,
    "country_code": "JP",
    "latitude": "37.44722000",
    "longitude": "140.57710000",
    "wikiDataId": null
  },
  {
    "id": 63513,
    "name": "Hobaramachi",
    "state_id": 847,
    "state_code": "07",
    "country_id": 109,
    "country_code": "JP",
    "latitude": "37.81667000",
    "longitude": "140.55000000",
    "wikiDataId": null
  },
  {
    "id": 63572,
    "name": "Inawashiro",
    "state_id": 847,
    "state_code": "07",
    "country_id": 109,
    "country_code": "JP",
    "latitude": "37.56667000",
    "longitude": "140.11667000",
    "wikiDataId": null
  },
  {
    "id": 63597,
    "name": "Ishikawa",
    "state_id": 847,
    "state_code": "07",
    "country_id": 109,
    "country_code": "JP",
    "latitude": "37.15000000",
    "longitude": "140.45000000",
    "wikiDataId": null
  },
  {
    "id": 63621,
    "name": "Iwaki",
    "state_id": 847,
    "state_code": "07",
    "country_id": 109,
    "country_code": "JP",
    "latitude": "37.05000000",
    "longitude": "140.88333000",
    "wikiDataId": null
  },
  {
    "id": 63622,
    "name": "Iwaki-shi",
    "state_id": 847,
    "state_code": "07",
    "country_id": 109,
    "country_code": "JP",
    "latitude": "37.08333000",
    "longitude": "140.83333000",
    "wikiDataId": null
  },
  {
    "id": 63806,
    "name": "Kitakata",
    "state_id": 847,
    "state_code": "07",
    "country_id": 109,
    "country_code": "JP",
    "latitude": "37.65000000",
    "longitude": "139.86667000",
    "wikiDataId": null
  },
  {
    "id": 63807,
    "name": "Kitakata-shi",
    "state_id": 847,
    "state_code": "07",
    "country_id": 109,
    "country_code": "JP",
    "latitude": "37.68333000",
    "longitude": "139.90000000",
    "wikiDataId": null
  },
  {
    "id": 63899,
    "name": "Kōriyama",
    "state_id": 847,
    "state_code": "07",
    "country_id": 109,
    "country_code": "JP",
    "latitude": "37.40000000",
    "longitude": "140.38333000",
    "wikiDataId": null
  },
  {
    "id": 63900,
    "name": "Kōriyama Shi",
    "state_id": 847,
    "state_code": "07",
    "country_id": 109,
    "country_code": "JP",
    "latitude": "37.41277000",
    "longitude": "140.29507000",
    "wikiDataId": null
  },
  {
    "id": 63950,
    "name": "Miharu",
    "state_id": 847,
    "state_code": "07",
    "country_id": 109,
    "country_code": "JP",
    "latitude": "37.43333000",
    "longitude": "140.48333000",
    "wikiDataId": null
  },
  {
    "id": 63962,
    "name": "Minami-Sōma",
    "state_id": 847,
    "state_code": "07",
    "country_id": 109,
    "country_code": "JP",
    "latitude": "37.62908000",
    "longitude": "140.97868000",
    "wikiDataId": null
  },
  {
    "id": 63971,
    "name": "Minamisōma Shi",
    "state_id": 847,
    "state_code": "07",
    "country_id": 109,
    "country_code": "JP",
    "latitude": "37.63108000",
    "longitude": "140.92852000",
    "wikiDataId": null
  },
  {
    "id": 64039,
    "name": "Motomiya",
    "state_id": 847,
    "state_code": "07",
    "country_id": 109,
    "country_code": "JP",
    "latitude": "37.51391000",
    "longitude": "140.40063000",
    "wikiDataId": null
  },
  {
    "id": 64040,
    "name": "Motomiya-shi",
    "state_id": 847,
    "state_code": "07",
    "country_id": 109,
    "country_code": "JP",
    "latitude": "37.51218000",
    "longitude": "140.39841000",
    "wikiDataId": null
  },
  {
    "id": 64097,
    "name": "Namie",
    "state_id": 847,
    "state_code": "07",
    "country_id": 109,
    "country_code": "JP",
    "latitude": "37.48333000",
    "longitude": "141.00000000",
    "wikiDataId": null
  },
  {
    "id": 64127,
    "name": "Nihommatsu",
    "state_id": 847,
    "state_code": "07",
    "country_id": 109,
    "country_code": "JP",
    "latitude": "37.58333000",
    "longitude": "140.43333000",
    "wikiDataId": null
  },
  {
    "id": 64128,
    "name": "Nihonmatsu Shi",
    "state_id": 847,
    "state_code": "07",
    "country_id": 109,
    "country_code": "JP",
    "latitude": "37.58402000",
    "longitude": "140.49543000",
    "wikiDataId": null
  },
  {
    "id": 64353,
    "name": "Shirakawa Shi",
    "state_id": 847,
    "state_code": "07",
    "country_id": 109,
    "country_code": "JP",
    "latitude": "37.12225000",
    "longitude": "140.24963000",
    "wikiDataId": null
  },
  {
    "id": 64402,
    "name": "Sōma",
    "state_id": 847,
    "state_code": "07",
    "country_id": 109,
    "country_code": "JP",
    "latitude": "37.79283000",
    "longitude": "140.92941000",
    "wikiDataId": null
  },
  {
    "id": 64403,
    "name": "Sōma Shi",
    "state_id": 847,
    "state_code": "07",
    "country_id": 109,
    "country_code": "JP",
    "latitude": "37.78193000",
    "longitude": "140.87321000",
    "wikiDataId": null
  },
  {
    "id": 64381,
    "name": "Sukagawa",
    "state_id": 847,
    "state_code": "07",
    "country_id": 109,
    "country_code": "JP",
    "latitude": "37.28333000",
    "longitude": "140.38333000",
    "wikiDataId": null
  },
  {
    "id": 64382,
    "name": "Sukagawa Shi",
    "state_id": 847,
    "state_code": "07",
    "country_id": 109,
    "country_code": "JP",
    "latitude": "37.29342000",
    "longitude": "140.31691000",
    "wikiDataId": null
  },
  {
    "id": 64461,
    "name": "Tamura",
    "state_id": 847,
    "state_code": "07",
    "country_id": 109,
    "country_code": "JP",
    "latitude": "37.43055000",
    "longitude": "140.60335000",
    "wikiDataId": null
  },
  {
    "id": 64462,
    "name": "Tamura-shi",
    "state_id": 847,
    "state_code": "07",
    "country_id": 109,
    "country_code": "JP",
    "latitude": "37.43793000",
    "longitude": "140.57384000",
    "wikiDataId": null
  },
  {
    "id": 64652,
    "name": "Yanagawamachi-saiwaichō",
    "state_id": 847,
    "state_code": "07",
    "country_id": 109,
    "country_code": "JP",
    "latitude": "37.85000000",
    "longitude": "140.60000000",
    "wikiDataId": null
  }
]