[
  {
    "id": 97148,
    "name": "Arilje",
    "state_id": 3729,
    "state_code": "16",
    "country_id": 196,
    "country_code": "RS",
    "latitude": "43.75306000",
    "longitude": "20.09556000",
    "wikiDataId": null
  },
  {
    "id": 97150,
    "name": "Bajina Bašta",
    "state_id": 3729,
    "state_code": "16",
    "country_id": 196,
    "country_code": "RS",
    "latitude": "43.97083000",
    "longitude": "19.56750000",
    "wikiDataId": null
  },
  {
    "id": 97456,
    "name": "Čajetina",
    "state_id": 3729,
    "state_code": "16",
    "country_id": 196,
    "country_code": "RS",
    "latitude": "43.74977000",
    "longitude": "19.71273000",
    "wikiDataId": null
  },
  {
    "id": 155097,
    "name": "Kosjerić",
    "state_id": 3729,
    "state_code": "16",
    "country_id": 196,
    "country_code": "RS",
    "latitude": "43.99992150",
    "longitude": "19.89156760",
    "wikiDataId": null
  },
  {
    "id": 155098,
    "name": "Nova Varoš",
    "state_id": 3729,
    "state_code": "16",
    "country_id": 196,
    "country_code": "RS",
    "latitude": "43.46568110",
    "longitude": "19.76736470",
    "wikiDataId": null
  },
  {
    "id": 97324,
    "name": "Osječenik",
    "state_id": 3729,
    "state_code": "16",
    "country_id": 196,
    "country_code": "RS",
    "latitude": "43.14528000",
    "longitude": "19.85889000",
    "wikiDataId": null
  },
  {
    "id": 155099,
    "name": "Požega",
    "state_id": 3729,
    "state_code": "16",
    "country_id": 196,
    "country_code": "RS",
    "latitude": "43.84033580",
    "longitude": "19.99691900",
    "wikiDataId": null
  },
  {
    "id": 97344,
    "name": "Priboj",
    "state_id": 3729,
    "state_code": "16",
    "country_id": 196,
    "country_code": "RS",
    "latitude": "43.58306000",
    "longitude": "19.52519000",
    "wikiDataId": null
  },
  {
    "id": 97346,
    "name": "Prijepolje",
    "state_id": 3729,
    "state_code": "16",
    "country_id": 196,
    "country_code": "RS",
    "latitude": "43.38996000",
    "longitude": "19.64870000",
    "wikiDataId": null
  },
  {
    "id": 97381,
    "name": "Sjenica",
    "state_id": 3729,
    "state_code": "16",
    "country_id": 196,
    "country_code": "RS",
    "latitude": "43.27306000",
    "longitude": "19.99944000",
    "wikiDataId": null
  },
  {
    "id": 97424,
    "name": "Užice",
    "state_id": 3729,
    "state_code": "16",
    "country_id": 196,
    "country_code": "RS",
    "latitude": "43.85861000",
    "longitude": "19.84878000",
    "wikiDataId": null
  }
]