[
  {
    "id": 48300,
    "name": "Askam in Furness",
    "state_id": 2451,
    "state_code": "BPL",
    "country_id": 232,
    "country_code": "GB",
    "latitude": "54.18718000",
    "longitude": "-3.20467000",
    "wikiDataId": null
  },
  {
    "id": 48375,
    "name": "Banks",
    "state_id": 2451,
    "state_code": "BPL",
    "country_id": 232,
    "country_code": "GB",
    "latitude": "53.68333000",
    "longitude": "-2.91667000",
    "wikiDataId": null
  },
  {
    "id": 48408,
    "name": "Barrow in Furness",
    "state_id": 2451,
    "state_code": "BPL",
    "country_id": 232,
    "country_code": "GB",
    "latitude": "54.11094000",
    "longitude": "-3.22758000",
    "wikiDataId": null
  },
  {
    "id": 48548,
    "name": "Blackpool",
    "state_id": 2451,
    "state_code": "BPL",
    "country_id": 232,
    "country_code": "GB",
    "latitude": "53.81667000",
    "longitude": "-3.05000000",
    "wikiDataId": null
  },
  {
    "id": 49034,
    "name": "Cleveleys",
    "state_id": 2451,
    "state_code": "BPL",
    "country_id": 232,
    "country_code": "GB",
    "latitude": "53.87750000",
    "longitude": "-3.03987000",
    "wikiDataId": null
  },
  {
    "id": 49228,
    "name": "Dalton in Furness",
    "state_id": 2451,
    "state_code": "BPL",
    "country_id": 232,
    "country_code": "GB",
    "latitude": "54.15796000",
    "longitude": "-3.17977000",
    "wikiDataId": null
  },
  {
    "id": 49464,
    "name": "Elswick",
    "state_id": 2451,
    "state_code": "BPL",
    "country_id": 232,
    "country_code": "GB",
    "latitude": "53.83836000",
    "longitude": "-2.88147000",
    "wikiDataId": null
  },
  {
    "id": 49570,
    "name": "Fleetwood",
    "state_id": 2451,
    "state_code": "BPL",
    "country_id": 232,
    "country_code": "GB",
    "latitude": "53.92527000",
    "longitude": "-3.01085000",
    "wikiDataId": null
  },
  {
    "id": 49577,
    "name": "Flookburgh",
    "state_id": 2451,
    "state_code": "BPL",
    "country_id": 232,
    "country_code": "GB",
    "latitude": "54.17415000",
    "longitude": "-2.97214000",
    "wikiDataId": null
  },
  {
    "id": 49604,
    "name": "Freckleton",
    "state_id": 2451,
    "state_code": "BPL",
    "country_id": 232,
    "country_code": "GB",
    "latitude": "53.75433000",
    "longitude": "-2.86489000",
    "wikiDataId": null
  },
  {
    "id": 49618,
    "name": "Fylde",
    "state_id": 2451,
    "state_code": "BPL",
    "country_id": 232,
    "country_code": "GB",
    "latitude": "53.83333000",
    "longitude": "-2.91667000",
    "wikiDataId": null
  },
  {
    "id": 49697,
    "name": "Grange-over-Sands",
    "state_id": 2451,
    "state_code": "BPL",
    "country_id": 232,
    "country_code": "GB",
    "latitude": "54.18508000",
    "longitude": "-2.92488000",
    "wikiDataId": null
  },
  {
    "id": 49716,
    "name": "Great Eccleston",
    "state_id": 2451,
    "state_code": "BPL",
    "country_id": 232,
    "country_code": "GB",
    "latitude": "53.85315000",
    "longitude": "-2.87026000",
    "wikiDataId": null
  },
  {
    "id": 49728,
    "name": "Great Marton",
    "state_id": 2451,
    "state_code": "BPL",
    "country_id": 232,
    "country_code": "GB",
    "latitude": "53.81185000",
    "longitude": "-3.02261000",
    "wikiDataId": null
  },
  {
    "id": 49849,
    "name": "Haverigg",
    "state_id": 2451,
    "state_code": "BPL",
    "country_id": 232,
    "country_code": "GB",
    "latitude": "54.19973000",
    "longitude": "-3.29263000",
    "wikiDataId": null
  },
  {
    "id": 49919,
    "name": "Heysham",
    "state_id": 2451,
    "state_code": "BPL",
    "country_id": 232,
    "country_code": "GB",
    "latitude": "54.04367000",
    "longitude": "-2.89322000",
    "wikiDataId": null
  },
  {
    "id": 50205,
    "name": "Kirkham",
    "state_id": 2451,
    "state_code": "BPL",
    "country_id": 232,
    "country_code": "GB",
    "latitude": "53.78244000",
    "longitude": "-2.87189000",
    "wikiDataId": null
  },
  {
    "id": 50456,
    "name": "Lytham St Annes",
    "state_id": 2451,
    "state_code": "BPL",
    "country_id": 232,
    "country_code": "GB",
    "latitude": "53.74260000",
    "longitude": "-2.99700000",
    "wikiDataId": null
  },
  {
    "id": 50586,
    "name": "Millom",
    "state_id": 2451,
    "state_code": "BPL",
    "country_id": 232,
    "country_code": "GB",
    "latitude": "54.21072000",
    "longitude": "-3.27200000",
    "wikiDataId": null
  },
  {
    "id": 50978,
    "name": "Poulton-le-Fylde",
    "state_id": 2451,
    "state_code": "BPL",
    "country_id": 232,
    "country_code": "GB",
    "latitude": "53.83333000",
    "longitude": "-2.98333000",
    "wikiDataId": null
  },
  {
    "id": 50981,
    "name": "Preesall",
    "state_id": 2451,
    "state_code": "BPL",
    "country_id": 232,
    "country_code": "GB",
    "latitude": "53.91820000",
    "longitude": "-2.96633000",
    "wikiDataId": null
  },
  {
    "id": 51533,
    "name": "Swarthmoor",
    "state_id": 2451,
    "state_code": "BPL",
    "country_id": 232,
    "country_code": "GB",
    "latitude": "54.18466000",
    "longitude": "-3.11707000",
    "wikiDataId": null
  },
  {
    "id": 51606,
    "name": "Thornton-Cleveleys",
    "state_id": 2451,
    "state_code": "BPL",
    "country_id": 232,
    "country_code": "GB",
    "latitude": "53.87389000",
    "longitude": "-3.02244000",
    "wikiDataId": null
  },
  {
    "id": 51695,
    "name": "Ulverston",
    "state_id": 2451,
    "state_code": "BPL",
    "country_id": 232,
    "country_code": "GB",
    "latitude": "54.19594000",
    "longitude": "-3.09626000",
    "wikiDataId": null
  },
  {
    "id": 51997,
    "name": "Wrea Green",
    "state_id": 2451,
    "state_code": "BPL",
    "country_id": 232,
    "country_code": "GB",
    "latitude": "53.77651000",
    "longitude": "-2.91573000",
    "wikiDataId": null
  }
]