[
  {
    "id": 107085,
    "name": "Akkuş",
    "state_id": 2174,
    "state_code": "52",
    "country_id": 225,
    "country_code": "TR",
    "latitude": "40.81000000",
    "longitude": "36.96000000",
    "wikiDataId": null
  },
  {
    "id": 107144,
    "name": "Altınordu",
    "state_id": 2174,
    "state_code": "52",
    "country_id": 225,
    "country_code": "TR",
    "latitude": "40.94879000",
    "longitude": "37.79572000",
    "wikiDataId": null
  },
  {
    "id": 107219,
    "name": "Aybastı",
    "state_id": 2174,
    "state_code": "52",
    "country_id": 225,
    "country_code": "TR",
    "latitude": "40.69690000",
    "longitude": "37.40794000",
    "wikiDataId": null
  },
  {
    "id": 108765,
    "name": "Çamaş",
    "state_id": 2174,
    "state_code": "52",
    "country_id": 225,
    "country_code": "TR",
    "latitude": "40.90200000",
    "longitude": "37.52786000",
    "wikiDataId": null
  },
  {
    "id": 108790,
    "name": "Çatalpınar",
    "state_id": 2174,
    "state_code": "52",
    "country_id": 225,
    "country_code": "TR",
    "latitude": "40.88678000",
    "longitude": "37.44329000",
    "wikiDataId": null
  },
  {
    "id": 108797,
    "name": "Çaybaşı",
    "state_id": 2174,
    "state_code": "52",
    "country_id": 225,
    "country_code": "TR",
    "latitude": "41.02532000",
    "longitude": "37.10867000",
    "wikiDataId": null
  },
  {
    "id": 107633,
    "name": "Fatsa",
    "state_id": 2174,
    "state_code": "52",
    "country_id": 225,
    "country_code": "TR",
    "latitude": "41.02778000",
    "longitude": "37.50139000",
    "wikiDataId": null
  },
  {
    "id": 107697,
    "name": "Gölköy",
    "state_id": 2174,
    "state_code": "52",
    "country_id": 225,
    "country_code": "TR",
    "latitude": "40.68726000",
    "longitude": "37.61660000",
    "wikiDataId": null
  },
  {
    "id": 107733,
    "name": "Gülyalı",
    "state_id": 2174,
    "state_code": "52",
    "country_id": 225,
    "country_code": "TR",
    "latitude": "40.96682000",
    "longitude": "38.05679000",
    "wikiDataId": null
  },
  {
    "id": 107749,
    "name": "Gürgentepe",
    "state_id": 2174,
    "state_code": "52",
    "country_id": 225,
    "country_code": "TR",
    "latitude": "40.78567000",
    "longitude": "37.58969000",
    "wikiDataId": null
  },
  {
    "id": 108887,
    "name": "İkizce",
    "state_id": 2174,
    "state_code": "52",
    "country_id": 225,
    "country_code": "TR",
    "latitude": "41.05833000",
    "longitude": "37.08028000",
    "wikiDataId": null
  },
  {
    "id": 107855,
    "name": "Kabadüz",
    "state_id": 2174,
    "state_code": "52",
    "country_id": 225,
    "country_code": "TR",
    "latitude": "40.86096000",
    "longitude": "37.88470000",
    "wikiDataId": null
  },
  {
    "id": 107858,
    "name": "Kabataş",
    "state_id": 2174,
    "state_code": "52",
    "country_id": 225,
    "country_code": "TR",
    "latitude": "40.75000000",
    "longitude": "37.45000000",
    "wikiDataId": null
  },
  {
    "id": 108018,
    "name": "Korgan",
    "state_id": 2174,
    "state_code": "52",
    "country_id": 225,
    "country_code": "TR",
    "latitude": "40.82472000",
    "longitude": "37.34667000",
    "wikiDataId": null
  },
  {
    "id": 108052,
    "name": "Kumru",
    "state_id": 2174,
    "state_code": "52",
    "country_id": 225,
    "country_code": "TR",
    "latitude": "40.87444000",
    "longitude": "37.26389000",
    "wikiDataId": null
  },
  {
    "id": 108201,
    "name": "Mesudiye",
    "state_id": 2174,
    "state_code": "52",
    "country_id": 225,
    "country_code": "TR",
    "latitude": "40.45446000",
    "longitude": "37.77353000",
    "wikiDataId": null
  },
  {
    "id": 108341,
    "name": "Perşembe",
    "state_id": 2174,
    "state_code": "52",
    "country_id": 225,
    "country_code": "TR",
    "latitude": "41.06556000",
    "longitude": "37.77139000",
    "wikiDataId": null
  },
  {
    "id": 108622,
    "name": "Ulubey",
    "state_id": 2174,
    "state_code": "52",
    "country_id": 225,
    "country_code": "TR",
    "latitude": "40.86863000",
    "longitude": "37.75405000",
    "wikiDataId": null
  },
  {
    "id": 108872,
    "name": "Ünye",
    "state_id": 2174,
    "state_code": "52",
    "country_id": 225,
    "country_code": "TR",
    "latitude": "41.13921000",
    "longitude": "37.27246000",
    "wikiDataId": null
  }
]