[
  {
    "id": 77183,
    "name": "El Cuá",
    "state_id": 955,
    "state_code": "JI",
    "country_id": 159,
    "country_code": "NI",
    "latitude": "13.41667000",
    "longitude": "-85.75000000",
    "wikiDataId": null
  },
  {
    "id": 77194,
    "name": "Jinotega",
    "state_id": 955,
    "state_code": "JI",
    "country_id": 159,
    "country_code": "NI",
    "latitude": "13.09103000",
    "longitude": "-86.00234000",
    "wikiDataId": null
  },
  {
    "id": 77201,
    "name": "La Concordia",
    "state_id": 955,
    "state_code": "JI",
    "country_id": 159,
    "country_code": "NI",
    "latitude": "13.19528000",
    "longitude": "-86.16659000",
    "wikiDataId": null
  },
  {
    "id": 77210,
    "name": "Las Praderas",
    "state_id": 955,
    "state_code": "JI",
    "country_id": 159,
    "country_code": "NI",
    "latitude": "13.17000000",
    "longitude": "-85.85000000",
    "wikiDataId": null
  },
  {
    "id": 77199,
    "name": "LLano de La Cruz",
    "state_id": 955,
    "state_code": "JI",
    "country_id": 159,
    "country_code": "NI",
    "latitude": "13.12449000",
    "longitude": "-86.00833000",
    "wikiDataId": null
  },
  {
    "id": 77258,
    "name": "San José de Bocay",
    "state_id": 955,
    "state_code": "JI",
    "country_id": 159,
    "country_code": "NI",
    "latitude": "13.54204000",
    "longitude": "-85.53942000",
    "wikiDataId": null
  },
  {
    "id": 77269,
    "name": "San Rafael del Norte",
    "state_id": 955,
    "state_code": "JI",
    "country_id": 159,
    "country_code": "NI",
    "latitude": "13.21248000",
    "longitude": "-86.11089000",
    "wikiDataId": null
  },
  {
    "id": 77272,
    "name": "San Sebastián de Yalí",
    "state_id": 955,
    "state_code": "JI",
    "country_id": 159,
    "country_code": "NI",
    "latitude": "13.30540000",
    "longitude": "-86.18641000",
    "wikiDataId": null
  }
]