[
  {
    "id": 53367,
    "name": "Ádendro",
    "state_id": 2125,
    "state_code": "B",
    "country_id": 85,
    "country_code": "GR",
    "latitude": "40.67131000",
    "longitude": "22.60466000",
    "wikiDataId": null
  },
  {
    "id": 53368,
    "name": "Áfytos",
    "state_id": 2125,
    "state_code": "B",
    "country_id": 85,
    "country_code": "GR",
    "latitude": "40.09915000",
    "longitude": "23.43670000",
    "wikiDataId": null
  },
  {
    "id": 52422,
    "name": "Agía Paraskeví",
    "state_id": 2125,
    "state_code": "B",
    "country_id": 85,
    "country_code": "GR",
    "latitude": "40.48150000",
    "longitude": "23.04863000",
    "wikiDataId": null
  },
  {
    "id": 52425,
    "name": "Agía Triáda",
    "state_id": 2125,
    "state_code": "B",
    "country_id": 85,
    "country_code": "GR",
    "latitude": "40.50003000",
    "longitude": "22.87351000",
    "wikiDataId": null
  },
  {
    "id": 53369,
    "name": "Ágio Pnévma",
    "state_id": 2125,
    "state_code": "B",
    "country_id": 85,
    "country_code": "GR",
    "latitude": "41.10142000",
    "longitude": "23.67992000",
    "wikiDataId": null
  },
  {
    "id": 53374,
    "name": "Ágios Athanásios",
    "state_id": 2125,
    "state_code": "B",
    "country_id": 85,
    "country_code": "GR",
    "latitude": "40.71598000",
    "longitude": "22.72841000",
    "wikiDataId": null
  },
  {
    "id": 53377,
    "name": "Ágios Geórgios",
    "state_id": 2125,
    "state_code": "B",
    "country_id": 85,
    "country_code": "GR",
    "latitude": "40.60215000",
    "longitude": "22.19430000",
    "wikiDataId": null
  },
  {
    "id": 53378,
    "name": "Ágios Loukás",
    "state_id": 2125,
    "state_code": "B",
    "country_id": 85,
    "country_code": "GR",
    "latitude": "40.71799000",
    "longitude": "22.29545000",
    "wikiDataId": null
  },
  {
    "id": 53381,
    "name": "Ágios Nikólaos",
    "state_id": 2125,
    "state_code": "B",
    "country_id": 85,
    "country_code": "GR",
    "latitude": "40.24926000",
    "longitude": "23.69616000",
    "wikiDataId": null
  },
  {
    "id": 53382,
    "name": "Ágios Pávlos",
    "state_id": 2125,
    "state_code": "B",
    "country_id": 85,
    "country_code": "GR",
    "latitude": "40.64075000",
    "longitude": "22.96039000",
    "wikiDataId": null
  },
  {
    "id": 53383,
    "name": "Ágios Pétros",
    "state_id": 2125,
    "state_code": "B",
    "country_id": 85,
    "country_code": "GR",
    "latitude": "40.86725000",
    "longitude": "22.58298000",
    "wikiDataId": null
  },
  {
    "id": 53384,
    "name": "Ágios Spyrídon",
    "state_id": 2125,
    "state_code": "B",
    "country_id": 85,
    "country_code": "GR",
    "latitude": "40.20778000",
    "longitude": "22.44311000",
    "wikiDataId": null
  },
  {
    "id": 53386,
    "name": "Ágios Vasíleios",
    "state_id": 2125,
    "state_code": "B",
    "country_id": 85,
    "country_code": "GR",
    "latitude": "40.66424000",
    "longitude": "23.11373000",
    "wikiDataId": null
  },
  {
    "id": 154232,
    "name": "Agiou Pavlou",
    "state_id": 2125,
    "state_code": "B",
    "country_id": 85,
    "country_code": "GR",
    "latitude": "40.16041700",
    "longitude": "24.28829860",
    "wikiDataId": null
  },
  {
    "id": 52411,
    "name": "Agkathiá",
    "state_id": 2125,
    "state_code": "B",
    "country_id": 85,
    "country_code": "GR",
    "latitude": "40.55535000",
    "longitude": "22.47083000",
    "wikiDataId": null
  },
  {
    "id": 52431,
    "name": "Aigínio",
    "state_id": 2125,
    "state_code": "B",
    "country_id": 85,
    "country_code": "GR",
    "latitude": "40.50139000",
    "longitude": "22.54000000",
    "wikiDataId": null
  },
  {
    "id": 52436,
    "name": "Akrolímni",
    "state_id": 2125,
    "state_code": "B",
    "country_id": 85,
    "country_code": "GR",
    "latitude": "40.68020000",
    "longitude": "22.26450000",
    "wikiDataId": null
  },
  {
    "id": 52441,
    "name": "Alexándreia",
    "state_id": 2125,
    "state_code": "B",
    "country_id": 85,
    "country_code": "GR",
    "latitude": "40.62667000",
    "longitude": "22.44417000",
    "wikiDataId": null
  },
  {
    "id": 52443,
    "name": "Alistráti",
    "state_id": 2125,
    "state_code": "B",
    "country_id": 85,
    "country_code": "GR",
    "latitude": "41.06443000",
    "longitude": "23.95751000",
    "wikiDataId": null
  },
  {
    "id": 52453,
    "name": "Ampeleíes",
    "state_id": 2125,
    "state_code": "B",
    "country_id": 85,
    "country_code": "GR",
    "latitude": "40.83417000",
    "longitude": "22.38767000",
    "wikiDataId": null
  },
  {
    "id": 52455,
    "name": "Ampelókipoi",
    "state_id": 2125,
    "state_code": "B",
    "country_id": 85,
    "country_code": "GR",
    "latitude": "40.65304000",
    "longitude": "22.92624000",
    "wikiDataId": null
  },
  {
    "id": 52461,
    "name": "Anatolikó",
    "state_id": 2125,
    "state_code": "B",
    "country_id": 85,
    "country_code": "GR",
    "latitude": "40.66152000",
    "longitude": "22.71190000",
    "wikiDataId": null
  },
  {
    "id": 52465,
    "name": "Angelochóri",
    "state_id": 2125,
    "state_code": "B",
    "country_id": 85,
    "country_code": "GR",
    "latitude": "40.67862000",
    "longitude": "22.19933000",
    "wikiDataId": null
  },
  {
    "id": 53397,
    "name": "Ápsalos",
    "state_id": 2125,
    "state_code": "B",
    "country_id": 85,
    "country_code": "GR",
    "latitude": "40.89240000",
    "longitude": "22.05709000",
    "wikiDataId": null
  },
  {
    "id": 52481,
    "name": "Aravissós",
    "state_id": 2125,
    "state_code": "B",
    "country_id": 85,
    "country_code": "GR",
    "latitude": "40.84352000",
    "longitude": "22.30178000",
    "wikiDataId": null
  },
  {
    "id": 52492,
    "name": "Aridaía",
    "state_id": 2125,
    "state_code": "B",
    "country_id": 85,
    "country_code": "GR",
    "latitude": "40.97306000",
    "longitude": "22.05639000",
    "wikiDataId": null
  },
  {
    "id": 52496,
    "name": "Arnaía",
    "state_id": 2125,
    "state_code": "B",
    "country_id": 85,
    "country_code": "GR",
    "latitude": "40.48652000",
    "longitude": "23.59537000",
    "wikiDataId": null
  },
  {
    "id": 53402,
    "name": "Árnissa",
    "state_id": 2125,
    "state_code": "B",
    "country_id": 85,
    "country_code": "GR",
    "latitude": "40.79555000",
    "longitude": "21.83577000",
    "wikiDataId": null
  },
  {
    "id": 52498,
    "name": "Arsénio",
    "state_id": 2125,
    "state_code": "B",
    "country_id": 85,
    "country_code": "GR",
    "latitude": "40.71412000",
    "longitude": "22.15923000",
    "wikiDataId": null
  },
  {
    "id": 52503,
    "name": "Askós",
    "state_id": 2125,
    "state_code": "B",
    "country_id": 85,
    "country_code": "GR",
    "latitude": "40.75105000",
    "longitude": "23.38721000",
    "wikiDataId": null
  },
  {
    "id": 52506,
    "name": "Asproválta",
    "state_id": 2125,
    "state_code": "B",
    "country_id": 85,
    "country_code": "GR",
    "latitude": "40.73049000",
    "longitude": "23.71180000",
    "wikiDataId": null
  },
  {
    "id": 53404,
    "name": "Ássiros",
    "state_id": 2125,
    "state_code": "B",
    "country_id": 85,
    "country_code": "GR",
    "latitude": "40.82143000",
    "longitude": "23.03008000",
    "wikiDataId": null
  },
  {
    "id": 52511,
    "name": "Asvestochóri",
    "state_id": 2125,
    "state_code": "B",
    "country_id": 85,
    "country_code": "GR",
    "latitude": "40.64125000",
    "longitude": "23.02528000",
    "wikiDataId": null
  },
  {
    "id": 53407,
    "name": "Áthyra",
    "state_id": 2125,
    "state_code": "B",
    "country_id": 85,
    "country_code": "GR",
    "latitude": "40.82615000",
    "longitude": "22.59279000",
    "wikiDataId": null
  },
  {
    "id": 52519,
    "name": "Axioúpoli",
    "state_id": 2125,
    "state_code": "B",
    "country_id": 85,
    "country_code": "GR",
    "latitude": "40.98582000",
    "longitude": "22.54165000",
    "wikiDataId": null
  },
  {
    "id": 52520,
    "name": "Axós",
    "state_id": 2125,
    "state_code": "B",
    "country_id": 85,
    "country_code": "GR",
    "latitude": "40.80223000",
    "longitude": "22.36158000",
    "wikiDataId": null
  },
  {
    "id": 52529,
    "name": "Chalástra",
    "state_id": 2125,
    "state_code": "B",
    "country_id": 85,
    "country_code": "GR",
    "latitude": "40.62643000",
    "longitude": "22.73291000",
    "wikiDataId": null
  },
  {
    "id": 52526,
    "name": "Chalkidóna",
    "state_id": 2125,
    "state_code": "B",
    "country_id": 85,
    "country_code": "GR",
    "latitude": "40.73184000",
    "longitude": "22.59992000",
    "wikiDataId": null
  },
  {
    "id": 52531,
    "name": "Charopó",
    "state_id": 2125,
    "state_code": "B",
    "country_id": 85,
    "country_code": "GR",
    "latitude": "41.26031000",
    "longitude": "23.37279000",
    "wikiDataId": null
  },
  {
    "id": 52536,
    "name": "Chortiátis",
    "state_id": 2125,
    "state_code": "B",
    "country_id": 85,
    "country_code": "GR",
    "latitude": "40.60954000",
    "longitude": "23.10014000",
    "wikiDataId": null
  },
  {
    "id": 52540,
    "name": "Chrysó",
    "state_id": 2125,
    "state_code": "B",
    "country_id": 85,
    "country_code": "GR",
    "latitude": "41.05806000",
    "longitude": "23.65108000",
    "wikiDataId": null
  },
  {
    "id": 52537,
    "name": "Chrysochórafa",
    "state_id": 2125,
    "state_code": "B",
    "country_id": 85,
    "country_code": "GR",
    "latitude": "41.18097000",
    "longitude": "23.23551000",
    "wikiDataId": null
  },
  {
    "id": 52553,
    "name": "Diavatá",
    "state_id": 2125,
    "state_code": "B",
    "country_id": 85,
    "country_code": "GR",
    "latitude": "40.68744000",
    "longitude": "22.85799000",
    "wikiDataId": null
  },
  {
    "id": 52554,
    "name": "Diavatós",
    "state_id": 2125,
    "state_code": "B",
    "country_id": 85,
    "country_code": "GR",
    "latitude": "40.54606000",
    "longitude": "22.26686000",
    "wikiDataId": null
  },
  {
    "id": 52569,
    "name": "Díon",
    "state_id": 2125,
    "state_code": "B",
    "country_id": 85,
    "country_code": "GR",
    "latitude": "40.17169000",
    "longitude": "22.48463000",
    "wikiDataId": null
  },
  {
    "id": 154233,
    "name": "Dionysiou",
    "state_id": 2125,
    "state_code": "B",
    "country_id": 85,
    "country_code": "GR",
    "latitude": "40.16828550",
    "longitude": "24.27188390",
    "wikiDataId": null
  },
  {
    "id": 154239,
    "name": "Docheiariou",
    "state_id": 2125,
    "state_code": "B",
    "country_id": 85,
    "country_code": "GR",
    "latitude": "40.26791350",
    "longitude": "24.16414720",
    "wikiDataId": null
  },
  {
    "id": 52562,
    "name": "Dravískos",
    "state_id": 2125,
    "state_code": "B",
    "country_id": 85,
    "country_code": "GR",
    "latitude": "40.92393000",
    "longitude": "23.87119000",
    "wikiDataId": null
  },
  {
    "id": 52564,
    "name": "Drymós",
    "state_id": 2125,
    "state_code": "B",
    "country_id": 85,
    "country_code": "GR",
    "latitude": "40.78099000",
    "longitude": "22.95889000",
    "wikiDataId": null
  },
  {
    "id": 53416,
    "name": "Édessa",
    "state_id": 2125,
    "state_code": "B",
    "country_id": 85,
    "country_code": "GR",
    "latitude": "40.80260000",
    "longitude": "22.04751000",
    "wikiDataId": null
  },
  {
    "id": 52572,
    "name": "Efkarpía",
    "state_id": 2125,
    "state_code": "B",
    "country_id": 85,
    "country_code": "GR",
    "latitude": "40.68797000",
    "longitude": "22.95348000",
    "wikiDataId": null
  },
  {
    "id": 52573,
    "name": "Eirinoúpoli",
    "state_id": 2125,
    "state_code": "B",
    "country_id": 85,
    "country_code": "GR",
    "latitude": "40.67806000",
    "longitude": "22.19278000",
    "wikiDataId": null
  },
  {
    "id": 52586,
    "name": "Epanomí",
    "state_id": 2125,
    "state_code": "B",
    "country_id": 85,
    "country_code": "GR",
    "latitude": "40.42614000",
    "longitude": "22.92782000",
    "wikiDataId": null
  },
  {
    "id": 52587,
    "name": "Episkopí",
    "state_id": 2125,
    "state_code": "B",
    "country_id": 85,
    "country_code": "GR",
    "latitude": "40.68748000",
    "longitude": "22.13640000",
    "wikiDataId": null
  },
  {
    "id": 154243,
    "name": "Esphigmenou",
    "state_id": 2125,
    "state_code": "B",
    "country_id": 85,
    "country_code": "GR",
    "latitude": "40.35261240",
    "longitude": "24.13553380",
    "wikiDataId": null
  },
  {
    "id": 53419,
    "name": "Évosmos",
    "state_id": 2125,
    "state_code": "B",
    "country_id": 85,
    "country_code": "GR",
    "latitude": "40.67056000",
    "longitude": "22.90833000",
    "wikiDataId": null
  },
  {
    "id": 52594,
    "name": "Evropós",
    "state_id": 2125,
    "state_code": "B",
    "country_id": 85,
    "country_code": "GR",
    "latitude": "40.89703000",
    "longitude": "22.55277000",
    "wikiDataId": null
  },
  {
    "id": 52597,
    "name": "Exaplátanos",
    "state_id": 2125,
    "state_code": "B",
    "country_id": 85,
    "country_code": "GR",
    "latitude": "40.97643000",
    "longitude": "22.12958000",
    "wikiDataId": null
  },
  {
    "id": 52618,
    "name": "Fíliro",
    "state_id": 2125,
    "state_code": "B",
    "country_id": 85,
    "country_code": "GR",
    "latitude": "40.69151000",
    "longitude": "23.00460000",
    "wikiDataId": null
  },
  {
    "id": 52621,
    "name": "Galatádes",
    "state_id": 2125,
    "state_code": "B",
    "country_id": 85,
    "country_code": "GR",
    "latitude": "40.75590000",
    "longitude": "22.28062000",
    "wikiDataId": null
  },
  {
    "id": 52626,
    "name": "Galátista",
    "state_id": 2125,
    "state_code": "B",
    "country_id": 85,
    "country_code": "GR",
    "latitude": "40.46820000",
    "longitude": "23.28015000",
    "wikiDataId": null
  },
  {
    "id": 52649,
    "name": "Gázoros",
    "state_id": 2125,
    "state_code": "B",
    "country_id": 85,
    "country_code": "GR",
    "latitude": "41.02557000",
    "longitude": "23.77574000",
    "wikiDataId": null
  },
  {
    "id": 52651,
    "name": "Géfyra",
    "state_id": 2125,
    "state_code": "B",
    "country_id": 85,
    "country_code": "GR",
    "latitude": "40.73253000",
    "longitude": "22.69359000",
    "wikiDataId": null
  },
  {
    "id": 52634,
    "name": "Gerakaroú",
    "state_id": 2125,
    "state_code": "B",
    "country_id": 85,
    "country_code": "GR",
    "latitude": "40.62666000",
    "longitude": "23.21566000",
    "wikiDataId": null
  },
  {
    "id": 52637,
    "name": "Giannitsá",
    "state_id": 2125,
    "state_code": "B",
    "country_id": 85,
    "country_code": "GR",
    "latitude": "40.79194000",
    "longitude": "22.40750000",
    "wikiDataId": null
  },
  {
    "id": 52639,
    "name": "Gouménissa",
    "state_id": 2125,
    "state_code": "B",
    "country_id": 85,
    "country_code": "GR",
    "latitude": "40.94604000",
    "longitude": "22.44974000",
    "wikiDataId": null
  },
  {
    "id": 154242,
    "name": "Hilandar",
    "state_id": 2125,
    "state_code": "B",
    "country_id": 85,
    "country_code": "GR",
    "latitude": "40.34001080",
    "longitude": "24.11809660",
    "wikiDataId": null
  },
  {
    "id": 52658,
    "name": "Ierissós",
    "state_id": 2125,
    "state_code": "B",
    "country_id": 85,
    "country_code": "GR",
    "latitude": "40.39748000",
    "longitude": "23.87505000",
    "wikiDataId": null
  },
  {
    "id": 52664,
    "name": "Irákleia",
    "state_id": 2125,
    "state_code": "B",
    "country_id": 85,
    "country_code": "GR",
    "latitude": "41.18217000",
    "longitude": "23.28243000",
    "wikiDataId": null
  },
  {
    "id": 154248,
    "name": "Iviron",
    "state_id": 2125,
    "state_code": "B",
    "country_id": 85,
    "country_code": "GR",
    "latitude": "40.24607320",
    "longitude": "24.28230180",
    "wikiDataId": null
  },
  {
    "id": 52687,
    "name": "Kalá Déndra",
    "state_id": 2125,
    "state_code": "B",
    "country_id": 85,
    "country_code": "GR",
    "latitude": "41.09941000",
    "longitude": "23.42396000",
    "wikiDataId": null
  },
  {
    "id": 52675,
    "name": "Kalamariá",
    "state_id": 2125,
    "state_code": "B",
    "country_id": 85,
    "country_code": "GR",
    "latitude": "40.58250000",
    "longitude": "22.95028000",
    "wikiDataId": null
  },
  {
    "id": 52689,
    "name": "Kalí",
    "state_id": 2125,
    "state_code": "B",
    "country_id": 85,
    "country_code": "GR",
    "latitude": "40.81931000",
    "longitude": "22.17761000",
    "wikiDataId": null
  },
  {
    "id": 52682,
    "name": "Kallithéa",
    "state_id": 2125,
    "state_code": "B",
    "country_id": 85,
    "country_code": "GR",
    "latitude": "40.07374000",
    "longitude": "23.44637000",
    "wikiDataId": null
  },
  {
    "id": 52685,
    "name": "Kalochóri",
    "state_id": 2125,
    "state_code": "B",
    "country_id": 85,
    "country_code": "GR",
    "latitude": "40.64189000",
    "longitude": "22.85734000",
    "wikiDataId": null
  },
  {
    "id": 52693,
    "name": "Kalýves Polygýrou",
    "state_id": 2125,
    "state_code": "B",
    "country_id": 85,
    "country_code": "GR",
    "latitude": "40.28659000",
    "longitude": "23.39033000",
    "wikiDataId": null
  },
  {
    "id": 52694,
    "name": "Kalývia",
    "state_id": 2125,
    "state_code": "B",
    "country_id": 85,
    "country_code": "GR",
    "latitude": "40.75508000",
    "longitude": "22.21753000",
    "wikiDataId": null
  },
  {
    "id": 52698,
    "name": "Kampánis",
    "state_id": 2125,
    "state_code": "B",
    "country_id": 85,
    "country_code": "GR",
    "latitude": "40.88951000",
    "longitude": "22.91682000",
    "wikiDataId": null
  },
  {
    "id": 154250,
    "name": "Karakallou",
    "state_id": 2125,
    "state_code": "B",
    "country_id": 85,
    "country_code": "GR",
    "latitude": "40.22341180",
    "longitude": "24.30626500",
    "wikiDataId": null
  },
  {
    "id": 52711,
    "name": "Kardiá",
    "state_id": 2125,
    "state_code": "B",
    "country_id": 85,
    "country_code": "GR",
    "latitude": "40.46909000",
    "longitude": "22.99378000",
    "wikiDataId": null
  },
  {
    "id": 52721,
    "name": "Karítsa",
    "state_id": 2125,
    "state_code": "B",
    "country_id": 85,
    "country_code": "GR",
    "latitude": "40.18745000",
    "longitude": "22.48171000",
    "wikiDataId": null
  },
  {
    "id": 52719,
    "name": "Karyótissa",
    "state_id": 2125,
    "state_code": "B",
    "country_id": 85,
    "country_code": "GR",
    "latitude": "40.76915000",
    "longitude": "22.31331000",
    "wikiDataId": null
  },
  {
    "id": 52722,
    "name": "Kassándreia",
    "state_id": 2125,
    "state_code": "B",
    "country_id": 85,
    "country_code": "GR",
    "latitude": "40.04835000",
    "longitude": "23.41362000",
    "wikiDataId": null
  },
  {
    "id": 52730,
    "name": "Kateríni",
    "state_id": 2125,
    "state_code": "B",
    "country_id": 85,
    "country_code": "GR",
    "latitude": "40.26956000",
    "longitude": "22.50608000",
    "wikiDataId": null
  },
  {
    "id": 52810,
    "name": "Káto Kamíla",
    "state_id": 2125,
    "state_code": "B",
    "country_id": 85,
    "country_code": "GR",
    "latitude": "41.02119000",
    "longitude": "23.48336000",
    "wikiDataId": null
  },
  {
    "id": 52812,
    "name": "Káto Lipochóri",
    "state_id": 2125,
    "state_code": "B",
    "country_id": 85,
    "country_code": "GR",
    "latitude": "40.75754000",
    "longitude": "22.17962000",
    "wikiDataId": null
  },
  {
    "id": 52814,
    "name": "Káto Miliá",
    "state_id": 2125,
    "state_code": "B",
    "country_id": 85,
    "country_code": "GR",
    "latitude": "40.25403000",
    "longitude": "22.34342000",
    "wikiDataId": null
  },
  {
    "id": 52816,
    "name": "Káto Scholári",
    "state_id": 2125,
    "state_code": "B",
    "country_id": 85,
    "country_code": "GR",
    "latitude": "40.42906000",
    "longitude": "23.02978000",
    "wikiDataId": null
  },
  {
    "id": 52734,
    "name": "Kavallári",
    "state_id": 2125,
    "state_code": "B",
    "country_id": 85,
    "country_code": "GR",
    "latitude": "40.71539000",
    "longitude": "23.04588000",
    "wikiDataId": null
  },
  {
    "id": 52747,
    "name": "Kilkís",
    "state_id": 2125,
    "state_code": "B",
    "country_id": 85,
    "country_code": "GR",
    "latitude": "40.99302000",
    "longitude": "22.87433000",
    "wikiDataId": null
  },
  {
    "id": 52823,
    "name": "Kítros",
    "state_id": 2125,
    "state_code": "B",
    "country_id": 85,
    "country_code": "GR",
    "latitude": "40.37399000",
    "longitude": "22.57862000",
    "wikiDataId": null
  },
  {
    "id": 52752,
    "name": "Kleidí",
    "state_id": 2125,
    "state_code": "B",
    "country_id": 85,
    "country_code": "GR",
    "latitude": "40.56632000",
    "longitude": "22.59033000",
    "wikiDataId": null
  },
  {
    "id": 52782,
    "name": "Koímisi",
    "state_id": 2125,
    "state_code": "B",
    "country_id": 85,
    "country_code": "GR",
    "latitude": "41.21282000",
    "longitude": "23.30035000",
    "wikiDataId": null
  },
  {
    "id": 52758,
    "name": "Kolchikón",
    "state_id": 2125,
    "state_code": "B",
    "country_id": 85,
    "country_code": "GR",
    "latitude": "40.75662000",
    "longitude": "23.13377000",
    "wikiDataId": null
  },
  {
    "id": 52759,
    "name": "Kolindrós",
    "state_id": 2125,
    "state_code": "B",
    "country_id": 85,
    "country_code": "GR",
    "latitude": "40.47888000",
    "longitude": "22.48319000",
    "wikiDataId": null
  },
  {
    "id": 154240,
    "name": "Konstamonitou",
    "state_id": 2125,
    "state_code": "B",
    "country_id": 85,
    "country_code": "GR",
    "latitude": "40.28867390",
    "longitude": "24.17232280",
    "wikiDataId": null
  },
  {
    "id": 52764,
    "name": "Kontariótissa",
    "state_id": 2125,
    "state_code": "B",
    "country_id": 85,
    "country_code": "GR",
    "latitude": "40.22754000",
    "longitude": "22.46100000",
    "wikiDataId": null
  },
  {
    "id": 52767,
    "name": "Kopanós",
    "state_id": 2125,
    "state_code": "B",
    "country_id": 85,
    "country_code": "GR",
    "latitude": "40.63382000",
    "longitude": "22.12893000",
    "wikiDataId": null
  },
  {
    "id": 52768,
    "name": "Korinós",
    "state_id": 2125,
    "state_code": "B",
    "country_id": 85,
    "country_code": "GR",
    "latitude": "40.31659000",
    "longitude": "22.58817000",
    "wikiDataId": null
  },
  {
    "id": 52771,
    "name": "Koryfí",
    "state_id": 2125,
    "state_code": "B",
    "country_id": 85,
    "country_code": "GR",
    "latitude": "40.60286000",
    "longitude": "22.50681000",
    "wikiDataId": null
  },
  {
    "id": 52775,
    "name": "Koufália",
    "state_id": 2125,
    "state_code": "B",
    "country_id": 85,
    "country_code": "GR",
    "latitude": "40.77778000",
    "longitude": "22.57194000",
    "wikiDataId": null
  },
  {
    "id": 52776,
    "name": "Kouloúra",
    "state_id": 2125,
    "state_code": "B",
    "country_id": 85,
    "country_code": "GR",
    "latitude": "40.54652000",
    "longitude": "22.31795000",
    "wikiDataId": null
  },
  {
    "id": 154247,
    "name": "Koutloumousiou",
    "state_id": 2125,
    "state_code": "B",
    "country_id": 85,
    "country_code": "GR",
    "latitude": "40.25316340",
    "longitude": "24.24520060",
    "wikiDataId": null
  },
  {
    "id": 52786,
    "name": "Krithiá",
    "state_id": 2125,
    "state_code": "B",
    "country_id": 85,
    "country_code": "GR",
    "latitude": "40.84184000",
    "longitude": "22.98292000",
    "wikiDataId": null
  },
  {
    "id": 52794,
    "name": "Krýa Vrýsi",
    "state_id": 2125,
    "state_code": "B",
    "country_id": 85,
    "country_code": "GR",
    "latitude": "40.68738000",
    "longitude": "22.30516000",
    "wikiDataId": null
  },
  {
    "id": 52828,
    "name": "Kýmina",
    "state_id": 2125,
    "state_code": "B",
    "country_id": 85,
    "country_code": "GR",
    "latitude": "40.61354000",
    "longitude": "22.69278000",
    "wikiDataId": null
  },
  {
    "id": 52832,
    "name": "Lagkadás",
    "state_id": 2125,
    "state_code": "B",
    "country_id": 85,
    "country_code": "GR",
    "latitude": "40.75000000",
    "longitude": "23.06667000",
    "wikiDataId": null
  },
  {
    "id": 52833,
    "name": "Lagyná",
    "state_id": 2125,
    "state_code": "B",
    "country_id": 85,
    "country_code": "GR",
    "latitude": "40.72351000",
    "longitude": "23.00420000",
    "wikiDataId": null
  },
  {
    "id": 52872,
    "name": "Lákkoma",
    "state_id": 2125,
    "state_code": "B",
    "country_id": 85,
    "country_code": "GR",
    "latitude": "40.39139000",
    "longitude": "23.05578000",
    "wikiDataId": null
  },
  {
    "id": 52843,
    "name": "Lefkónas",
    "state_id": 2125,
    "state_code": "B",
    "country_id": 85,
    "country_code": "GR",
    "latitude": "41.10029000",
    "longitude": "23.49658000",
    "wikiDataId": null
  },
  {
    "id": 52847,
    "name": "Leptokaryá",
    "state_id": 2125,
    "state_code": "B",
    "country_id": 85,
    "country_code": "GR",
    "latitude": "40.06032000",
    "longitude": "22.56120000",
    "wikiDataId": null
  },
  {
    "id": 52850,
    "name": "Lianovérgi",
    "state_id": 2125,
    "state_code": "B",
    "country_id": 85,
    "country_code": "GR",
    "latitude": "40.63526000",
    "longitude": "22.50820000",
    "wikiDataId": null
  },
  {
    "id": 52858,
    "name": "Lití",
    "state_id": 2125,
    "state_code": "B",
    "country_id": 85,
    "country_code": "GR",
    "latitude": "40.74533000",
    "longitude": "22.97982000",
    "wikiDataId": null
  },
  {
    "id": 52859,
    "name": "Litóchoro",
    "state_id": 2125,
    "state_code": "B",
    "country_id": 85,
    "country_code": "GR",
    "latitude": "40.10056000",
    "longitude": "22.49778000",
    "wikiDataId": null
  },
  {
    "id": 52881,
    "name": "Lófos",
    "state_id": 2125,
    "state_code": "B",
    "country_id": 85,
    "country_code": "GR",
    "latitude": "40.24395000",
    "longitude": "22.38033000",
    "wikiDataId": null
  },
  {
    "id": 52868,
    "name": "Loutráki",
    "state_id": 2125,
    "state_code": "B",
    "country_id": 85,
    "country_code": "GR",
    "latitude": "40.97116000",
    "longitude": "21.94659000",
    "wikiDataId": null
  },
  {
    "id": 52869,
    "name": "Loutrós",
    "state_id": 2125,
    "state_code": "B",
    "country_id": 85,
    "country_code": "GR",
    "latitude": "40.58873000",
    "longitude": "22.39976000",
    "wikiDataId": null
  },
  {
    "id": 52888,
    "name": "Makrochóri",
    "state_id": 2125,
    "state_code": "B",
    "country_id": 85,
    "country_code": "GR",
    "latitude": "40.55125000",
    "longitude": "22.24955000",
    "wikiDataId": null
  },
  {
    "id": 52891,
    "name": "Makrýgialos",
    "state_id": 2125,
    "state_code": "B",
    "country_id": 85,
    "country_code": "GR",
    "latitude": "40.41551000",
    "longitude": "22.60392000",
    "wikiDataId": null
  },
  {
    "id": 52954,
    "name": "Mándalo",
    "state_id": 2125,
    "state_code": "B",
    "country_id": 85,
    "country_code": "GR",
    "latitude": "40.85677000",
    "longitude": "22.21264000",
    "wikiDataId": null
  },
  {
    "id": 52904,
    "name": "Marína",
    "state_id": 2125,
    "state_code": "B",
    "country_id": 85,
    "country_code": "GR",
    "latitude": "40.69200000",
    "longitude": "22.10099000",
    "wikiDataId": null
  },
  {
    "id": 52908,
    "name": "Mavrothálassa",
    "state_id": 2125,
    "state_code": "B",
    "country_id": 85,
    "country_code": "GR",
    "latitude": "40.89427000",
    "longitude": "23.75048000",
    "wikiDataId": null
  },
  {
    "id": 52909,
    "name": "Mavrovoúni",
    "state_id": 2125,
    "state_code": "B",
    "country_id": 85,
    "country_code": "GR",
    "latitude": "40.78243000",
    "longitude": "22.15629000",
    "wikiDataId": null
  },
  {
    "id": 52915,
    "name": "Megáli Panagía",
    "state_id": 2125,
    "state_code": "B",
    "country_id": 85,
    "country_code": "GR",
    "latitude": "40.44505000",
    "longitude": "23.67999000",
    "wikiDataId": null
  },
  {
    "id": 154251,
    "name": "Megisti Lavra",
    "state_id": 2125,
    "state_code": "B",
    "country_id": 85,
    "country_code": "GR",
    "latitude": "40.17082910",
    "longitude": "24.38014440",
    "wikiDataId": null
  },
  {
    "id": 52920,
    "name": "Melíki",
    "state_id": 2125,
    "state_code": "B",
    "country_id": 85,
    "country_code": "GR",
    "latitude": "40.51685000",
    "longitude": "22.39599000",
    "wikiDataId": null
  },
  {
    "id": 52921,
    "name": "Melíssi",
    "state_id": 2125,
    "state_code": "B",
    "country_id": 85,
    "country_code": "GR",
    "latitude": "40.77406000",
    "longitude": "22.35304000",
    "wikiDataId": null
  },
  {
    "id": 52919,
    "name": "Melissochóri",
    "state_id": 2125,
    "state_code": "B",
    "country_id": 85,
    "country_code": "GR",
    "latitude": "40.76796000",
    "longitude": "22.92858000",
    "wikiDataId": null
  },
  {
    "id": 52924,
    "name": "Meneméni",
    "state_id": 2125,
    "state_code": "B",
    "country_id": 85,
    "country_code": "GR",
    "latitude": "40.65829000",
    "longitude": "22.89712000",
    "wikiDataId": null
  },
  {
    "id": 52927,
    "name": "Mesiméri",
    "state_id": 2125,
    "state_code": "B",
    "country_id": 85,
    "country_code": "GR",
    "latitude": "40.41344000",
    "longitude": "23.00750000",
    "wikiDataId": null
  },
  {
    "id": 52934,
    "name": "Mikró Monastíri",
    "state_id": 2125,
    "state_code": "B",
    "country_id": 85,
    "country_code": "GR",
    "latitude": "40.70430000",
    "longitude": "22.54112000",
    "wikiDataId": null
  },
  {
    "id": 52937,
    "name": "Mitroúsi",
    "state_id": 2125,
    "state_code": "B",
    "country_id": 85,
    "country_code": "GR",
    "latitude": "41.07041000",
    "longitude": "23.46064000",
    "wikiDataId": null
  },
  {
    "id": 52996,
    "name": "Náousa",
    "state_id": 2125,
    "state_code": "B",
    "country_id": 85,
    "country_code": "GR",
    "latitude": "40.62944000",
    "longitude": "22.06806000",
    "wikiDataId": null
  },
  {
    "id": 53002,
    "name": "Néa Apollonía",
    "state_id": 2125,
    "state_code": "B",
    "country_id": 85,
    "country_code": "GR",
    "latitude": "40.62558000",
    "longitude": "23.44074000",
    "wikiDataId": null
  },
  {
    "id": 53042,
    "name": "Néa Éfesos",
    "state_id": 2125,
    "state_code": "B",
    "country_id": 85,
    "country_code": "GR",
    "latitude": "40.22923000",
    "longitude": "22.49811000",
    "wikiDataId": null
  },
  {
    "id": 53007,
    "name": "Néa Flogitá",
    "state_id": 2125,
    "state_code": "B",
    "country_id": 85,
    "country_code": "GR",
    "latitude": "40.26108000",
    "longitude": "23.22107000",
    "wikiDataId": null
  },
  {
    "id": 53008,
    "name": "Néa Fókaia",
    "state_id": 2125,
    "state_code": "B",
    "country_id": 85,
    "country_code": "GR",
    "latitude": "40.13333000",
    "longitude": "23.39754000",
    "wikiDataId": null
  },
  {
    "id": 53012,
    "name": "Néa Kallikráteia",
    "state_id": 2125,
    "state_code": "B",
    "country_id": 85,
    "country_code": "GR",
    "latitude": "40.31312000",
    "longitude": "23.06343000",
    "wikiDataId": null
  },
  {
    "id": 53017,
    "name": "Néa Magnisía",
    "state_id": 2125,
    "state_code": "B",
    "country_id": 85,
    "country_code": "GR",
    "latitude": "40.68785000",
    "longitude": "22.84582000",
    "wikiDataId": null
  },
  {
    "id": 53023,
    "name": "Néa Málgara",
    "state_id": 2125,
    "state_code": "B",
    "country_id": 85,
    "country_code": "GR",
    "latitude": "40.60985000",
    "longitude": "22.68196000",
    "wikiDataId": null
  },
  {
    "id": 53019,
    "name": "Néa Mesimvría",
    "state_id": 2125,
    "state_code": "B",
    "country_id": 85,
    "country_code": "GR",
    "latitude": "40.75158000",
    "longitude": "22.76904000",
    "wikiDataId": null
  },
  {
    "id": 53020,
    "name": "Néa Michanióna",
    "state_id": 2125,
    "state_code": "B",
    "country_id": 85,
    "country_code": "GR",
    "latitude": "40.46371000",
    "longitude": "22.86170000",
    "wikiDataId": null
  },
  {
    "id": 53021,
    "name": "Néa Moudhaniá",
    "state_id": 2125,
    "state_code": "B",
    "country_id": 85,
    "country_code": "GR",
    "latitude": "40.24390000",
    "longitude": "23.28484000",
    "wikiDataId": null
  },
  {
    "id": 53029,
    "name": "Néa Pélla",
    "state_id": 2125,
    "state_code": "B",
    "country_id": 85,
    "country_code": "GR",
    "latitude": "40.76516000",
    "longitude": "22.49173000",
    "wikiDataId": null
  },
  {
    "id": 53026,
    "name": "Néa Plágia",
    "state_id": 2125,
    "state_code": "B",
    "country_id": 85,
    "country_code": "GR",
    "latitude": "40.26537000",
    "longitude": "23.20376000",
    "wikiDataId": null
  },
  {
    "id": 53027,
    "name": "Néa Poteídaia",
    "state_id": 2125,
    "state_code": "B",
    "country_id": 85,
    "country_code": "GR",
    "latitude": "40.19409000",
    "longitude": "23.32832000",
    "wikiDataId": null
  },
  {
    "id": 53028,
    "name": "Néa Potídhaia",
    "state_id": 2125,
    "state_code": "B",
    "country_id": 85,
    "country_code": "GR",
    "latitude": "40.19428000",
    "longitude": "23.32874000",
    "wikiDataId": null
  },
  {
    "id": 53032,
    "name": "Néa Róda",
    "state_id": 2125,
    "state_code": "B",
    "country_id": 85,
    "country_code": "GR",
    "latitude": "40.38119000",
    "longitude": "23.92374000",
    "wikiDataId": null
  },
  {
    "id": 53036,
    "name": "Néa Sánta",
    "state_id": 2125,
    "state_code": "B",
    "country_id": 85,
    "country_code": "GR",
    "latitude": "40.84084000",
    "longitude": "22.92163000",
    "wikiDataId": null
  },
  {
    "id": 53037,
    "name": "Néa Tríglia",
    "state_id": 2125,
    "state_code": "B",
    "country_id": 85,
    "country_code": "GR",
    "latitude": "40.30575000",
    "longitude": "23.20660000",
    "wikiDataId": null
  },
  {
    "id": 53039,
    "name": "Néa Vrasná",
    "state_id": 2125,
    "state_code": "B",
    "country_id": 85,
    "country_code": "GR",
    "latitude": "40.70592000",
    "longitude": "23.69850000",
    "wikiDataId": null
  },
  {
    "id": 53041,
    "name": "Néa Zíchni",
    "state_id": 2125,
    "state_code": "B",
    "country_id": 85,
    "country_code": "GR",
    "latitude": "41.03204000",
    "longitude": "23.82870000",
    "wikiDataId": null
  },
  {
    "id": 52961,
    "name": "Neapoli",
    "state_id": 2125,
    "state_code": "B",
    "country_id": 85,
    "country_code": "GR",
    "latitude": "40.65320000",
    "longitude": "22.94156000",
    "wikiDataId": null
  },
  {
    "id": 53043,
    "name": "Néo Agionéri",
    "state_id": 2125,
    "state_code": "B",
    "country_id": 85,
    "country_code": "GR",
    "latitude": "40.80826000",
    "longitude": "22.70733000",
    "wikiDataId": null
  },
  {
    "id": 53044,
    "name": "Néo Petrítsi",
    "state_id": 2125,
    "state_code": "B",
    "country_id": 85,
    "country_code": "GR",
    "latitude": "41.27459000",
    "longitude": "23.29381000",
    "wikiDataId": null
  },
  {
    "id": 53046,
    "name": "Néo Rýsi",
    "state_id": 2125,
    "state_code": "B",
    "country_id": 85,
    "country_code": "GR",
    "latitude": "40.49605000",
    "longitude": "22.98794000",
    "wikiDataId": null
  },
  {
    "id": 53047,
    "name": "Néo Soúli",
    "state_id": 2125,
    "state_code": "B",
    "country_id": 85,
    "country_code": "GR",
    "latitude": "41.09397000",
    "longitude": "23.64376000",
    "wikiDataId": null
  },
  {
    "id": 52966,
    "name": "Neochóri",
    "state_id": 2125,
    "state_code": "B",
    "country_id": 85,
    "country_code": "GR",
    "latitude": "41.05231000",
    "longitude": "23.57997000",
    "wikiDataId": null
  },
  {
    "id": 52963,
    "name": "Neochoroúda",
    "state_id": 2125,
    "state_code": "B",
    "country_id": 85,
    "country_code": "GR",
    "latitude": "40.73817000",
    "longitude": "22.87557000",
    "wikiDataId": null
  },
  {
    "id": 53048,
    "name": "Néoi Epivátes",
    "state_id": 2125,
    "state_code": "B",
    "country_id": 85,
    "country_code": "GR",
    "latitude": "40.49863000",
    "longitude": "22.91192000",
    "wikiDataId": null
  },
  {
    "id": 53050,
    "name": "Néos Marmarás",
    "state_id": 2125,
    "state_code": "B",
    "country_id": 85,
    "country_code": "GR",
    "latitude": "40.09610000",
    "longitude": "23.78323000",
    "wikiDataId": null
  },
  {
    "id": 53051,
    "name": "Néos Mylótopos",
    "state_id": 2125,
    "state_code": "B",
    "country_id": 85,
    "country_code": "GR",
    "latitude": "40.81872000",
    "longitude": "22.35489000",
    "wikiDataId": null
  },
  {
    "id": 53053,
    "name": "Néos Skopós",
    "state_id": 2125,
    "state_code": "B",
    "country_id": 85,
    "country_code": "GR",
    "latitude": "41.02390000",
    "longitude": "23.60927000",
    "wikiDataId": null
  },
  {
    "id": 52975,
    "name": "Nigríta",
    "state_id": 2125,
    "state_code": "B",
    "country_id": 85,
    "country_code": "GR",
    "latitude": "40.90528000",
    "longitude": "23.49944000",
    "wikiDataId": null
  },
  {
    "id": 53055,
    "name": "Níkiti",
    "state_id": 2125,
    "state_code": "B",
    "country_id": 85,
    "country_code": "GR",
    "latitude": "40.22204000",
    "longitude": "23.66837000",
    "wikiDataId": null
  },
  {
    "id": 52977,
    "name": "Nisí",
    "state_id": 2125,
    "state_code": "B",
    "country_id": 85,
    "country_code": "GR",
    "latitude": "40.63610000",
    "longitude": "22.38884000",
    "wikiDataId": null
  },
  {
    "id": 52981,
    "name": "Nomós Chalkidikís",
    "state_id": 2125,
    "state_code": "B",
    "country_id": 85,
    "country_code": "GR",
    "latitude": "40.41667000",
    "longitude": "23.50000000",
    "wikiDataId": null
  },
  {
    "id": 52990,
    "name": "Nomós Péllis",
    "state_id": 2125,
    "state_code": "B",
    "country_id": 85,
    "country_code": "GR",
    "latitude": "40.83333000",
    "longitude": "22.25000000",
    "wikiDataId": null
  },
  {
    "id": 52992,
    "name": "Nomós Thessaloníkis",
    "state_id": 2125,
    "state_code": "B",
    "country_id": 85,
    "country_code": "GR",
    "latitude": "40.66667000",
    "longitude": "23.00000000",
    "wikiDataId": null
  },
  {
    "id": 53423,
    "name": "Ólynthos",
    "state_id": 2125,
    "state_code": "B",
    "country_id": 85,
    "country_code": "GR",
    "latitude": "40.29147000",
    "longitude": "23.34205000",
    "wikiDataId": null
  },
  {
    "id": 53059,
    "name": "Oraiókastro",
    "state_id": 2125,
    "state_code": "B",
    "country_id": 85,
    "country_code": "GR",
    "latitude": "40.73083000",
    "longitude": "22.91722000",
    "wikiDataId": null
  },
  {
    "id": 53063,
    "name": "Ormýlia",
    "state_id": 2125,
    "state_code": "B",
    "country_id": 85,
    "country_code": "GR",
    "latitude": "40.29451000",
    "longitude": "23.54332000",
    "wikiDataId": null
  },
  {
    "id": 154234,
    "name": "Osiou Gregoriou",
    "state_id": 2125,
    "state_code": "B",
    "country_id": 85,
    "country_code": "GR",
    "latitude": "40.19551360",
    "longitude": "24.19748120",
    "wikiDataId": null
  },
  {
    "id": 53066,
    "name": "Ouranoupolis",
    "state_id": 2125,
    "state_code": "B",
    "country_id": 85,
    "country_code": "GR",
    "latitude": "40.33333000",
    "longitude": "23.98333000",
    "wikiDataId": null
  },
  {
    "id": 53082,
    "name": "Palaífyto",
    "state_id": 2125,
    "state_code": "B",
    "country_id": 85,
    "country_code": "GR",
    "latitude": "40.78283000",
    "longitude": "22.27388000",
    "wikiDataId": null
  },
  {
    "id": 53072,
    "name": "Palaiochóri",
    "state_id": 2125,
    "state_code": "B",
    "country_id": 85,
    "country_code": "GR",
    "latitude": "40.49186000",
    "longitude": "23.64928000",
    "wikiDataId": null
  },
  {
    "id": 53073,
    "name": "Palaiokómi",
    "state_id": 2125,
    "state_code": "B",
    "country_id": 85,
    "country_code": "GR",
    "latitude": "40.87068000",
    "longitude": "23.90121000",
    "wikiDataId": null
  },
  {
    "id": 53086,
    "name": "Panórama",
    "state_id": 2125,
    "state_code": "B",
    "country_id": 85,
    "country_code": "GR",
    "latitude": "40.58779000",
    "longitude": "23.03150000",
    "wikiDataId": null
  },
  {
    "id": 154245,
    "name": "Pantokratoros",
    "state_id": 2125,
    "state_code": "B",
    "country_id": 85,
    "country_code": "GR",
    "latitude": "40.27918290",
    "longitude": "24.23398530",
    "wikiDataId": null
  },
  {
    "id": 53091,
    "name": "Paralía",
    "state_id": 2125,
    "state_code": "B",
    "country_id": 85,
    "country_code": "GR",
    "latitude": "40.26710000",
    "longitude": "22.59615000",
    "wikiDataId": null
  },
  {
    "id": 53100,
    "name": "Patrída",
    "state_id": 2125,
    "state_code": "B",
    "country_id": 85,
    "country_code": "GR",
    "latitude": "40.56071000",
    "longitude": "22.18545000",
    "wikiDataId": null
  },
  {
    "id": 53170,
    "name": "Péfka",
    "state_id": 2125,
    "state_code": "B",
    "country_id": 85,
    "country_code": "GR",
    "latitude": "40.65806000",
    "longitude": "22.99378000",
    "wikiDataId": null
  },
  {
    "id": 53102,
    "name": "Pefkochóri",
    "state_id": 2125,
    "state_code": "B",
    "country_id": 85,
    "country_code": "GR",
    "latitude": "39.98784000",
    "longitude": "23.61219000",
    "wikiDataId": null
  },
  {
    "id": 53172,
    "name": "Pélla",
    "state_id": 2125,
    "state_code": "B",
    "country_id": 85,
    "country_code": "GR",
    "latitude": "40.76169000",
    "longitude": "22.52637000",
    "wikiDataId": null
  },
  {
    "id": 53106,
    "name": "Pentálofos",
    "state_id": 2125,
    "state_code": "B",
    "country_id": 85,
    "country_code": "GR",
    "latitude": "40.74296000",
    "longitude": "22.85256000",
    "wikiDataId": null
  },
  {
    "id": 53105,
    "name": "Pentaplátano",
    "state_id": 2125,
    "state_code": "B",
    "country_id": 85,
    "country_code": "GR",
    "latitude": "40.81902000",
    "longitude": "22.41903000",
    "wikiDataId": null
  },
  {
    "id": 53110,
    "name": "Peraía",
    "state_id": 2125,
    "state_code": "B",
    "country_id": 85,
    "country_code": "GR",
    "latitude": "40.49874000",
    "longitude": "22.92617000",
    "wikiDataId": null
  },
  {
    "id": 53116,
    "name": "Perístasi",
    "state_id": 2125,
    "state_code": "B",
    "country_id": 85,
    "country_code": "GR",
    "latitude": "40.27443000",
    "longitude": "22.54164000",
    "wikiDataId": null
  },
  {
    "id": 53111,
    "name": "Peristerá",
    "state_id": 2125,
    "state_code": "B",
    "country_id": 85,
    "country_code": "GR",
    "latitude": "40.54881000",
    "longitude": "23.16540000",
    "wikiDataId": null
  },
  {
    "id": 154249,
    "name": "Philotheou",
    "state_id": 2125,
    "state_code": "B",
    "country_id": 85,
    "country_code": "GR",
    "latitude": "40.22564580",
    "longitude": "24.28867130",
    "wikiDataId": null
  },
  {
    "id": 53125,
    "name": "Plagiári",
    "state_id": 2125,
    "state_code": "B",
    "country_id": 85,
    "country_code": "GR",
    "latitude": "40.47276000",
    "longitude": "22.95790000",
    "wikiDataId": null
  },
  {
    "id": 53128,
    "name": "Platý",
    "state_id": 2125,
    "state_code": "B",
    "country_id": 85,
    "country_code": "GR",
    "latitude": "40.64241000",
    "longitude": "22.53458000",
    "wikiDataId": null
  },
  {
    "id": 53134,
    "name": "Políchni",
    "state_id": 2125,
    "state_code": "B",
    "country_id": 85,
    "country_code": "GR",
    "latitude": "40.66671000",
    "longitude": "22.94881000",
    "wikiDataId": null
  },
  {
    "id": 53135,
    "name": "Polýgyros",
    "state_id": 2125,
    "state_code": "B",
    "country_id": 85,
    "country_code": "GR",
    "latitude": "40.37704000",
    "longitude": "23.44135000",
    "wikiDataId": null
  },
  {
    "id": 53133,
    "name": "Polykárpi",
    "state_id": 2125,
    "state_code": "B",
    "country_id": 85,
    "country_code": "GR",
    "latitude": "40.92598000",
    "longitude": "22.01634000",
    "wikiDataId": null
  },
  {
    "id": 53136,
    "name": "Polýkastro",
    "state_id": 2125,
    "state_code": "B",
    "country_id": 85,
    "country_code": "GR",
    "latitude": "40.99444000",
    "longitude": "22.56909000",
    "wikiDataId": null
  },
  {
    "id": 53137,
    "name": "Pontisméno",
    "state_id": 2125,
    "state_code": "B",
    "country_id": 85,
    "country_code": "GR",
    "latitude": "41.20885000",
    "longitude": "23.28325000",
    "wikiDataId": null
  },
  {
    "id": 53139,
    "name": "Portariá",
    "state_id": 2125,
    "state_code": "B",
    "country_id": 85,
    "country_code": "GR",
    "latitude": "40.28405000",
    "longitude": "23.29549000",
    "wikiDataId": null
  },
  {
    "id": 53151,
    "name": "Próchoma",
    "state_id": 2125,
    "state_code": "B",
    "country_id": 85,
    "country_code": "GR",
    "latitude": "40.79826000",
    "longitude": "22.66659000",
    "wikiDataId": null
  },
  {
    "id": 53143,
    "name": "Profítis Ilías",
    "state_id": 2125,
    "state_code": "B",
    "country_id": 85,
    "country_code": "GR",
    "latitude": "40.81373000",
    "longitude": "22.16166000",
    "wikiDataId": null
  },
  {
    "id": 53152,
    "name": "Prómachoi",
    "state_id": 2125,
    "state_code": "B",
    "country_id": 85,
    "country_code": "GR",
    "latitude": "41.02517000",
    "longitude": "22.00437000",
    "wikiDataId": null
  },
  {
    "id": 53153,
    "name": "Próti",
    "state_id": 2125,
    "state_code": "B",
    "country_id": 85,
    "country_code": "GR",
    "latitude": "40.94411000",
    "longitude": "24.00118000",
    "wikiDataId": null
  },
  {
    "id": 53146,
    "name": "Provatás",
    "state_id": 2125,
    "state_code": "B",
    "country_id": 85,
    "country_code": "GR",
    "latitude": "41.06825000",
    "longitude": "23.39030000",
    "wikiDataId": null
  },
  {
    "id": 53158,
    "name": "Pylaía",
    "state_id": 2125,
    "state_code": "B",
    "country_id": 85,
    "country_code": "GR",
    "latitude": "40.59918000",
    "longitude": "22.98613000",
    "wikiDataId": null
  },
  {
    "id": 53188,
    "name": "Ritíni",
    "state_id": 2125,
    "state_code": "B",
    "country_id": 85,
    "country_code": "GR",
    "latitude": "40.28835000",
    "longitude": "22.28361000",
    "wikiDataId": null
  },
  {
    "id": 53189,
    "name": "Rizári",
    "state_id": 2125,
    "state_code": "B",
    "country_id": 85,
    "country_code": "GR",
    "latitude": "40.78373000",
    "longitude": "22.08800000",
    "wikiDataId": null
  },
  {
    "id": 53190,
    "name": "Rizó",
    "state_id": 2125,
    "state_code": "B",
    "country_id": 85,
    "country_code": "GR",
    "latitude": "40.73331000",
    "longitude": "22.13674000",
    "wikiDataId": null
  },
  {
    "id": 53191,
    "name": "Rizómata",
    "state_id": 2125,
    "state_code": "B",
    "country_id": 85,
    "country_code": "GR",
    "latitude": "40.35061000",
    "longitude": "22.21079000",
    "wikiDataId": null
  },
  {
    "id": 53195,
    "name": "Rodolívos",
    "state_id": 2125,
    "state_code": "B",
    "country_id": 85,
    "country_code": "GR",
    "latitude": "40.92055000",
    "longitude": "23.97489000",
    "wikiDataId": null
  },
  {
    "id": 53265,
    "name": "Sárti",
    "state_id": 2125,
    "state_code": "B",
    "country_id": 85,
    "country_code": "GR",
    "latitude": "40.09369000",
    "longitude": "23.97859000",
    "wikiDataId": null
  },
  {
    "id": 53268,
    "name": "Sérres",
    "state_id": 2125,
    "state_code": "B",
    "country_id": 85,
    "country_code": "GR",
    "latitude": "41.08499000",
    "longitude": "23.54757000",
    "wikiDataId": null
  },
  {
    "id": 53212,
    "name": "Sevastianá",
    "state_id": 2125,
    "state_code": "B",
    "country_id": 85,
    "country_code": "GR",
    "latitude": "40.76874000",
    "longitude": "22.12346000",
    "wikiDataId": null
  },
  {
    "id": 53213,
    "name": "Sfendámi",
    "state_id": 2125,
    "state_code": "B",
    "country_id": 85,
    "country_code": "GR",
    "latitude": "40.41307000",
    "longitude": "22.54677000",
    "wikiDataId": null
  },
  {
    "id": 53214,
    "name": "Sidirókastro",
    "state_id": 2125,
    "state_code": "B",
    "country_id": 85,
    "country_code": "GR",
    "latitude": "41.23499000",
    "longitude": "23.38899000",
    "wikiDataId": null
  },
  {
    "id": 53270,
    "name": "Símantra",
    "state_id": 2125,
    "state_code": "B",
    "country_id": 85,
    "country_code": "GR",
    "latitude": "40.34563000",
    "longitude": "23.31026000",
    "wikiDataId": null
  },
  {
    "id": 154235,
    "name": "Simonopetra",
    "state_id": 2125,
    "state_code": "B",
    "country_id": 85,
    "country_code": "GR",
    "latitude": "40.19089880",
    "longitude": "24.24472710",
    "wikiDataId": null
  },
  {
    "id": 53271,
    "name": "Síndos",
    "state_id": 2125,
    "state_code": "B",
    "country_id": 85,
    "country_code": "GR",
    "latitude": "40.67045000",
    "longitude": "22.80545000",
    "wikiDataId": null
  },
  {
    "id": 53222,
    "name": "Skotoússa",
    "state_id": 2125,
    "state_code": "B",
    "country_id": 85,
    "country_code": "GR",
    "latitude": "41.12844000",
    "longitude": "23.38174000",
    "wikiDataId": null
  },
  {
    "id": 53223,
    "name": "Skoútari",
    "state_id": 2125,
    "state_code": "B",
    "country_id": 85,
    "country_code": "GR",
    "latitude": "41.01871000",
    "longitude": "23.51971000",
    "wikiDataId": null
  },
  {
    "id": 53228,
    "name": "Skýdra",
    "state_id": 2125,
    "state_code": "B",
    "country_id": 85,
    "country_code": "GR",
    "latitude": "40.76722000",
    "longitude": "22.15194000",
    "wikiDataId": null
  },
  {
    "id": 53231,
    "name": "Sochós",
    "state_id": 2125,
    "state_code": "B",
    "country_id": 85,
    "country_code": "GR",
    "latitude": "40.81788000",
    "longitude": "23.35546000",
    "wikiDataId": null
  },
  {
    "id": 53234,
    "name": "Sosándra",
    "state_id": 2125,
    "state_code": "B",
    "country_id": 85,
    "country_code": "GR",
    "latitude": "40.99894000",
    "longitude": "22.03254000",
    "wikiDataId": null
  },
  {
    "id": 53236,
    "name": "Sourotí",
    "state_id": 2125,
    "state_code": "B",
    "country_id": 85,
    "country_code": "GR",
    "latitude": "40.47274000",
    "longitude": "23.09197000",
    "wikiDataId": null
  },
  {
    "id": 154237,
    "name": "St. Panteleimon",
    "state_id": 2125,
    "state_code": "B",
    "country_id": 85,
    "country_code": "GR",
    "latitude": "40.23784390",
    "longitude": "24.19873180",
    "wikiDataId": null
  },
  {
    "id": 53246,
    "name": "Stathmós Mourión",
    "state_id": 2125,
    "state_code": "B",
    "country_id": 85,
    "country_code": "GR",
    "latitude": "41.26378000",
    "longitude": "22.83855000",
    "wikiDataId": null
  },
  {
    "id": 154246,
    "name": "Stavronikita",
    "state_id": 2125,
    "state_code": "B",
    "country_id": 85,
    "country_code": "GR",
    "latitude": "40.26731890",
    "longitude": "24.27341890",
    "wikiDataId": null
  },
  {
    "id": 53250,
    "name": "Stavrós",
    "state_id": 2125,
    "state_code": "B",
    "country_id": 85,
    "country_code": "GR",
    "latitude": "40.66498000",
    "longitude": "23.70015000",
    "wikiDataId": null
  },
  {
    "id": 53247,
    "name": "Stavroúpoli",
    "state_id": 2125,
    "state_code": "B",
    "country_id": 85,
    "country_code": "GR",
    "latitude": "40.66944000",
    "longitude": "22.93806000",
    "wikiDataId": null
  },
  {
    "id": 53253,
    "name": "Stratónion",
    "state_id": 2125,
    "state_code": "B",
    "country_id": 85,
    "country_code": "GR",
    "latitude": "40.51406000",
    "longitude": "23.82471000",
    "wikiDataId": null
  },
  {
    "id": 53254,
    "name": "Strymonikó",
    "state_id": 2125,
    "state_code": "B",
    "country_id": 85,
    "country_code": "GR",
    "latitude": "41.04144000",
    "longitude": "23.31487000",
    "wikiDataId": null
  },
  {
    "id": 53257,
    "name": "Svorónos",
    "state_id": 2125,
    "state_code": "B",
    "country_id": 85,
    "country_code": "GR",
    "latitude": "40.26805000",
    "longitude": "22.46366000",
    "wikiDataId": null
  },
  {
    "id": 53259,
    "name": "Sykiá",
    "state_id": 2125,
    "state_code": "B",
    "country_id": 85,
    "country_code": "GR",
    "latitude": "40.03874000",
    "longitude": "23.94046000",
    "wikiDataId": null
  },
  {
    "id": 53260,
    "name": "Sykiés",
    "state_id": 2125,
    "state_code": "B",
    "country_id": 85,
    "country_code": "GR",
    "latitude": "40.64944000",
    "longitude": "22.95083000",
    "wikiDataId": null
  },
  {
    "id": 53275,
    "name": "Terpní",
    "state_id": 2125,
    "state_code": "B",
    "country_id": 85,
    "country_code": "GR",
    "latitude": "40.91643000",
    "longitude": "23.48137000",
    "wikiDataId": null
  },
  {
    "id": 53283,
    "name": "Thérmi",
    "state_id": 2125,
    "state_code": "B",
    "country_id": 85,
    "country_code": "GR",
    "latitude": "40.54712000",
    "longitude": "23.01967000",
    "wikiDataId": null
  },
  {
    "id": 53278,
    "name": "Thessaloníki",
    "state_id": 2125,
    "state_code": "B",
    "country_id": 85,
    "country_code": "GR",
    "latitude": "40.64361000",
    "longitude": "22.93086000",
    "wikiDataId": null
  },
  {
    "id": 53289,
    "name": "Triandría",
    "state_id": 2125,
    "state_code": "B",
    "country_id": 85,
    "country_code": "GR",
    "latitude": "40.61500000",
    "longitude": "22.97620000",
    "wikiDataId": null
  },
  {
    "id": 53290,
    "name": "Tríkala",
    "state_id": 2125,
    "state_code": "B",
    "country_id": 85,
    "country_code": "GR",
    "latitude": "40.59814000",
    "longitude": "22.55733000",
    "wikiDataId": null
  },
  {
    "id": 53293,
    "name": "Trílofos",
    "state_id": 2125,
    "state_code": "B",
    "country_id": 85,
    "country_code": "GR",
    "latitude": "40.46898000",
    "longitude": "22.97180000",
    "wikiDataId": null
  },
  {
    "id": 53305,
    "name": "Valteró",
    "state_id": 2125,
    "state_code": "B",
    "country_id": 85,
    "country_code": "GR",
    "latitude": "41.17927000",
    "longitude": "23.32022000",
    "wikiDataId": null
  },
  {
    "id": 53306,
    "name": "Vamvakófyto",
    "state_id": 2125,
    "state_code": "B",
    "country_id": 85,
    "country_code": "GR",
    "latitude": "41.17916000",
    "longitude": "23.39602000",
    "wikiDataId": null
  },
  {
    "id": 53312,
    "name": "Vasiliká",
    "state_id": 2125,
    "state_code": "B",
    "country_id": 85,
    "country_code": "GR",
    "latitude": "40.47966000",
    "longitude": "23.13695000",
    "wikiDataId": null
  },
  {
    "id": 53317,
    "name": "Vathýlakkos",
    "state_id": 2125,
    "state_code": "B",
    "country_id": 85,
    "country_code": "GR",
    "latitude": "40.76942000",
    "longitude": "22.70880000",
    "wikiDataId": null
  },
  {
    "id": 154244,
    "name": "Vatopedi",
    "state_id": 2125,
    "state_code": "B",
    "country_id": 85,
    "country_code": "GR",
    "latitude": "40.31475820",
    "longitude": "24.20832690",
    "wikiDataId": null
  },
  {
    "id": 53320,
    "name": "Vergína",
    "state_id": 2125,
    "state_code": "B",
    "country_id": 85,
    "country_code": "GR",
    "latitude": "40.48654000",
    "longitude": "22.31735000",
    "wikiDataId": null
  },
  {
    "id": 53343,
    "name": "Véroia",
    "state_id": 2125,
    "state_code": "B",
    "country_id": 85,
    "country_code": "GR",
    "latitude": "40.52437000",
    "longitude": "22.20242000",
    "wikiDataId": null
  },
  {
    "id": 53336,
    "name": "Vrontoú",
    "state_id": 2125,
    "state_code": "B",
    "country_id": 85,
    "country_code": "GR",
    "latitude": "40.19356000",
    "longitude": "22.43203000",
    "wikiDataId": null
  },
  {
    "id": 154238,
    "name": "Xenophontos",
    "state_id": 2125,
    "state_code": "B",
    "country_id": 85,
    "country_code": "GR",
    "latitude": "40.25863990",
    "longitude": "24.17609200",
    "wikiDataId": null
  },
  {
    "id": 154236,
    "name": "Xeropotamou",
    "state_id": 2125,
    "state_code": "B",
    "country_id": 85,
    "country_code": "GR",
    "latitude": "40.23494460",
    "longitude": "24.14856440",
    "wikiDataId": null
  },
  {
    "id": 53348,
    "name": "Xilópolis",
    "state_id": 2125,
    "state_code": "B",
    "country_id": 85,
    "country_code": "GR",
    "latitude": "40.92713000",
    "longitude": "23.17944000",
    "wikiDataId": null
  },
  {
    "id": 154241,
    "name": "Zografou",
    "state_id": 2125,
    "state_code": "B",
    "country_id": 85,
    "country_code": "GR",
    "latitude": "40.30627210",
    "longitude": "24.15766160",
    "wikiDataId": null
  }
]