[
  {
    "id": 31911,
    "name": "Abezames",
    "state_id": 1161,
    "state_code": "ZA",
    "country_id": 207,
    "country_code": "ES",
    "latitude": "41.62642000",
    "longitude": "-5.42577000",
    "wikiDataId": null
  },
  {
    "id": 32093,
    "name": "Alcañices",
    "state_id": 1161,
    "state_code": "ZA",
    "country_id": 207,
    "country_code": "ES",
    "latitude": "41.69940000",
    "longitude": "-6.34647000",
    "wikiDataId": null
  },
  {
    "id": 32126,
    "name": "Alcubilla de Nogales",
    "state_id": 1161,
    "state_code": "ZA",
    "country_id": 207,
    "country_code": "ES",
    "latitude": "42.12787000",
    "longitude": "-5.92184000",
    "wikiDataId": null
  },
  {
    "id": 152651,
    "name": "Alfaraz de Sayago",
    "state_id": 1161,
    "state_code": "ZA",
    "country_id": 207,
    "country_code": "ES",
    "latitude": "41.22781300",
    "longitude": "-5.98391860",
    "wikiDataId": null
  },
  {
    "id": 32224,
    "name": "Algodre",
    "state_id": 1161,
    "state_code": "ZA",
    "country_id": 207,
    "country_code": "ES",
    "latitude": "41.56631000",
    "longitude": "-5.60406000",
    "wikiDataId": null
  },
  {
    "id": 32269,
    "name": "Almaraz de Duero",
    "state_id": 1161,
    "state_code": "ZA",
    "country_id": 207,
    "country_code": "ES",
    "latitude": "41.47505000",
    "longitude": "-5.91654000",
    "wikiDataId": null
  },
  {
    "id": 152652,
    "name": "Almeida de Sayago",
    "state_id": 1161,
    "state_code": "ZA",
    "country_id": 207,
    "country_code": "ES",
    "latitude": "41.26762530",
    "longitude": "-6.07189080",
    "wikiDataId": null
  },
  {
    "id": 152653,
    "name": "Andavías",
    "state_id": 1161,
    "state_code": "ZA",
    "country_id": 207,
    "country_code": "ES",
    "latitude": "41.51178970",
    "longitude": "-5.75386240",
    "wikiDataId": null
  },
  {
    "id": 32429,
    "name": "Arcenillas",
    "state_id": 1161,
    "state_code": "ZA",
    "country_id": 207,
    "country_code": "ES",
    "latitude": "41.45641000",
    "longitude": "-5.68512000",
    "wikiDataId": null
  },
  {
    "id": 32438,
    "name": "Arcos de la Polvorosa",
    "state_id": 1161,
    "state_code": "ZA",
    "country_id": 207,
    "country_code": "ES",
    "latitude": "41.94389000",
    "longitude": "-5.69731000",
    "wikiDataId": null
  },
  {
    "id": 32466,
    "name": "Argañín",
    "state_id": 1161,
    "state_code": "ZA",
    "country_id": 207,
    "country_code": "ES",
    "latitude": "41.43948000",
    "longitude": "-6.20827000",
    "wikiDataId": null
  },
  {
    "id": 32476,
    "name": "Argujillo",
    "state_id": 1161,
    "state_code": "ZA",
    "country_id": 207,
    "country_code": "ES",
    "latitude": "41.31156000",
    "longitude": "-5.58763000",
    "wikiDataId": null
  },
  {
    "id": 32498,
    "name": "Arquillinos",
    "state_id": 1161,
    "state_code": "ZA",
    "country_id": 207,
    "country_code": "ES",
    "latitude": "41.70990000",
    "longitude": "-5.65708000",
    "wikiDataId": null
  },
  {
    "id": 32500,
    "name": "Arrabalde",
    "state_id": 1161,
    "state_code": "ZA",
    "country_id": 207,
    "country_code": "ES",
    "latitude": "42.10760000",
    "longitude": "-5.89441000",
    "wikiDataId": null
  },
  {
    "id": 32536,
    "name": "Aspariegos",
    "state_id": 1161,
    "state_code": "ZA",
    "country_id": 207,
    "country_code": "ES",
    "latitude": "41.67458000",
    "longitude": "-5.59955000",
    "wikiDataId": null
  },
  {
    "id": 32542,
    "name": "Asturianos",
    "state_id": 1161,
    "state_code": "ZA",
    "country_id": 207,
    "country_code": "ES",
    "latitude": "42.05201000",
    "longitude": "-6.48940000",
    "wikiDataId": null
  },
  {
    "id": 32577,
    "name": "Ayoó de Vidriales",
    "state_id": 1161,
    "state_code": "ZA",
    "country_id": 207,
    "country_code": "ES",
    "latitude": "42.13042000",
    "longitude": "-6.06550000",
    "wikiDataId": null
  },
  {
    "id": 32657,
    "name": "Barcial del Barco",
    "state_id": 1161,
    "state_code": "ZA",
    "country_id": 207,
    "country_code": "ES",
    "latitude": "41.93353000",
    "longitude": "-5.66268000",
    "wikiDataId": null
  },
  {
    "id": 32754,
    "name": "Belver de los Montes",
    "state_id": 1161,
    "state_code": "ZA",
    "country_id": 207,
    "country_code": "ES",
    "latitude": "41.72284000",
    "longitude": "-5.45182000",
    "wikiDataId": null
  },
  {
    "id": 32781,
    "name": "Benavente",
    "state_id": 1161,
    "state_code": "ZA",
    "country_id": 207,
    "country_code": "ES",
    "latitude": "42.00249000",
    "longitude": "-5.67826000",
    "wikiDataId": null
  },
  {
    "id": 32784,
    "name": "Benegiles",
    "state_id": 1161,
    "state_code": "ZA",
    "country_id": 207,
    "country_code": "ES",
    "latitude": "41.62700000",
    "longitude": "-5.63479000",
    "wikiDataId": null
  },
  {
    "id": 32860,
    "name": "Bermillo de Sayago",
    "state_id": 1161,
    "state_code": "ZA",
    "country_id": 207,
    "country_code": "ES",
    "latitude": "41.36648000",
    "longitude": "-6.11223000",
    "wikiDataId": null
  },
  {
    "id": 32979,
    "name": "Bretó",
    "state_id": 1161,
    "state_code": "ZA",
    "country_id": 207,
    "country_code": "ES",
    "latitude": "41.87917000",
    "longitude": "-5.73902000",
    "wikiDataId": null
  },
  {
    "id": 32978,
    "name": "Bretocino",
    "state_id": 1161,
    "state_code": "ZA",
    "country_id": 207,
    "country_code": "ES",
    "latitude": "41.88430000",
    "longitude": "-5.75473000",
    "wikiDataId": null
  },
  {
    "id": 32985,
    "name": "Brime de Sog",
    "state_id": 1161,
    "state_code": "ZA",
    "country_id": 207,
    "country_code": "ES",
    "latitude": "42.06162000",
    "longitude": "-6.04791000",
    "wikiDataId": null
  },
  {
    "id": 32986,
    "name": "Brime de Urz",
    "state_id": 1161,
    "state_code": "ZA",
    "country_id": 207,
    "country_code": "ES",
    "latitude": "42.03794000",
    "longitude": "-5.87326000",
    "wikiDataId": null
  },
  {
    "id": 33024,
    "name": "Burganes de Valverde",
    "state_id": 1161,
    "state_code": "ZA",
    "country_id": 207,
    "country_code": "ES",
    "latitude": "41.92130000",
    "longitude": "-5.78244000",
    "wikiDataId": null
  },
  {
    "id": 33041,
    "name": "Bustillo del Oro",
    "state_id": 1161,
    "state_code": "ZA",
    "country_id": 207,
    "country_code": "ES",
    "latitude": "41.67460000",
    "longitude": "-5.46158000",
    "wikiDataId": null
  },
  {
    "id": 33072,
    "name": "Cabañas de Sayago",
    "state_id": 1161,
    "state_code": "ZA",
    "country_id": 207,
    "country_code": "ES",
    "latitude": "41.33333000",
    "longitude": "-5.78333000",
    "wikiDataId": null
  },
  {
    "id": 33162,
    "name": "Calzadilla de Tera",
    "state_id": 1161,
    "state_code": "ZA",
    "country_id": 207,
    "country_code": "ES",
    "latitude": "41.97899000",
    "longitude": "-6.08243000",
    "wikiDataId": null
  },
  {
    "id": 33171,
    "name": "Camarzana de Tera",
    "state_id": 1161,
    "state_code": "ZA",
    "country_id": 207,
    "country_code": "ES",
    "latitude": "41.99471000",
    "longitude": "-6.02657000",
    "wikiDataId": null
  },
  {
    "id": 33542,
    "name": "Cañizal",
    "state_id": 1161,
    "state_code": "ZA",
    "country_id": 207,
    "country_code": "ES",
    "latitude": "41.16654000",
    "longitude": "-5.36828000",
    "wikiDataId": null
  },
  {
    "id": 33546,
    "name": "Cañizo",
    "state_id": 1161,
    "state_code": "ZA",
    "country_id": 207,
    "country_code": "ES",
    "latitude": "41.76955000",
    "longitude": "-5.50199000",
    "wikiDataId": null
  },
  {
    "id": 33279,
    "name": "Carbajales de Alba",
    "state_id": 1161,
    "state_code": "ZA",
    "country_id": 207,
    "country_code": "ES",
    "latitude": "41.65347000",
    "longitude": "-5.99706000",
    "wikiDataId": null
  },
  {
    "id": 33284,
    "name": "Carbellino",
    "state_id": 1161,
    "state_code": "ZA",
    "country_id": 207,
    "country_code": "ES",
    "latitude": "41.22975000",
    "longitude": "-6.14901000",
    "wikiDataId": null
  },
  {
    "id": 33377,
    "name": "Casaseca de Campeán",
    "state_id": 1161,
    "state_code": "ZA",
    "country_id": 207,
    "country_code": "ES",
    "latitude": "41.37429000",
    "longitude": "-5.74648000",
    "wikiDataId": null
  },
  {
    "id": 33378,
    "name": "Casaseca de las Chanas",
    "state_id": 1161,
    "state_code": "ZA",
    "country_id": 207,
    "country_code": "ES",
    "latitude": "41.43870000",
    "longitude": "-5.67547000",
    "wikiDataId": null
  },
  {
    "id": 33480,
    "name": "Castrillo de la Guareña",
    "state_id": 1161,
    "state_code": "ZA",
    "country_id": 207,
    "country_code": "ES",
    "latitude": "41.23043000",
    "longitude": "-5.32550000",
    "wikiDataId": null
  },
  {
    "id": 33497,
    "name": "Castrogonzalo",
    "state_id": 1161,
    "state_code": "ZA",
    "country_id": 207,
    "country_code": "ES",
    "latitude": "41.99099000",
    "longitude": "-5.60301000",
    "wikiDataId": null
  },
  {
    "id": 33502,
    "name": "Castronuevo",
    "state_id": 1161,
    "state_code": "ZA",
    "country_id": 207,
    "country_code": "ES",
    "latitude": "41.72046000",
    "longitude": "-5.54315000",
    "wikiDataId": null
  },
  {
    "id": 33510,
    "name": "Castroverde de Campos",
    "state_id": 1161,
    "state_code": "ZA",
    "country_id": 207,
    "country_code": "ES",
    "latitude": "41.97049000",
    "longitude": "-5.31434000",
    "wikiDataId": null
  },
  {
    "id": 33525,
    "name": "Cazurra",
    "state_id": 1161,
    "state_code": "ZA",
    "country_id": 207,
    "country_code": "ES",
    "latitude": "41.41583000",
    "longitude": "-5.70454000",
    "wikiDataId": null
  },
  {
    "id": 33584,
    "name": "Cerecinos de Campos",
    "state_id": 1161,
    "state_code": "ZA",
    "country_id": 207,
    "country_code": "ES",
    "latitude": "41.90017000",
    "longitude": "-5.48605000",
    "wikiDataId": null
  },
  {
    "id": 33585,
    "name": "Cerecinos del Carrizal",
    "state_id": 1161,
    "state_code": "ZA",
    "country_id": 207,
    "country_code": "ES",
    "latitude": "41.68384000",
    "longitude": "-5.65303000",
    "wikiDataId": null
  },
  {
    "id": 33590,
    "name": "Cernadilla",
    "state_id": 1161,
    "state_code": "ZA",
    "country_id": 207,
    "country_code": "ES",
    "latitude": "42.02083000",
    "longitude": "-6.41701000",
    "wikiDataId": null
  },
  {
    "id": 33713,
    "name": "Cobreros",
    "state_id": 1161,
    "state_code": "ZA",
    "country_id": 207,
    "country_code": "ES",
    "latitude": "42.07323000",
    "longitude": "-6.70053000",
    "wikiDataId": null
  },
  {
    "id": 33771,
    "name": "Coomonte",
    "state_id": 1161,
    "state_code": "ZA",
    "country_id": 207,
    "country_code": "ES",
    "latitude": "42.11546000",
    "longitude": "-5.81316000",
    "wikiDataId": null
  },
  {
    "id": 33787,
    "name": "Coreses",
    "state_id": 1161,
    "state_code": "ZA",
    "country_id": 207,
    "country_code": "ES",
    "latitude": "41.54794000",
    "longitude": "-5.62252000",
    "wikiDataId": null
  },
  {
    "id": 152655,
    "name": "Corrales del Vino",
    "state_id": 1161,
    "state_code": "ZA",
    "country_id": 207,
    "country_code": "ES",
    "latitude": "41.35787590",
    "longitude": "-5.72561160",
    "wikiDataId": null
  },
  {
    "id": 152656,
    "name": "Cotanes del Monte",
    "state_id": 1161,
    "state_code": "ZA",
    "country_id": 207,
    "country_code": "ES",
    "latitude": "41.81725720",
    "longitude": "-5.29130300",
    "wikiDataId": null
  },
  {
    "id": 33856,
    "name": "Cubillos",
    "state_id": 1161,
    "state_code": "ZA",
    "country_id": 207,
    "country_code": "ES",
    "latitude": "41.57436000",
    "longitude": "-5.73920000",
    "wikiDataId": null
  },
  {
    "id": 33859,
    "name": "Cubo de Benavente",
    "state_id": 1161,
    "state_code": "ZA",
    "country_id": 207,
    "country_code": "ES",
    "latitude": "42.12490000",
    "longitude": "-6.16342000",
    "wikiDataId": null
  },
  {
    "id": 33863,
    "name": "Cuelgamures",
    "state_id": 1161,
    "state_code": "ZA",
    "country_id": 207,
    "country_code": "ES",
    "latitude": "41.30738000",
    "longitude": "-5.65769000",
    "wikiDataId": null
  },
  {
    "id": 152657,
    "name": "El Cubo de Tierra del Vino",
    "state_id": 1161,
    "state_code": "ZA",
    "country_id": 207,
    "country_code": "ES",
    "latitude": "41.25544070",
    "longitude": "-5.71089800",
    "wikiDataId": null
  },
  {
    "id": 152660,
    "name": "El Maderal",
    "state_id": 1161,
    "state_code": "ZA",
    "country_id": 207,
    "country_code": "ES",
    "latitude": "41.28229700",
    "longitude": "-5.62279600",
    "wikiDataId": null
  },
  {
    "id": 152664,
    "name": "El Pego",
    "state_id": 1161,
    "state_code": "ZA",
    "country_id": 207,
    "country_code": "ES",
    "latitude": "41.33476990",
    "longitude": "-5.46795150",
    "wikiDataId": null
  },
  {
    "id": 152665,
    "name": "El Perdigón",
    "state_id": 1161,
    "state_code": "ZA",
    "country_id": 207,
    "country_code": "ES",
    "latitude": "41.41146340",
    "longitude": "-5.75236440",
    "wikiDataId": null
  },
  {
    "id": 152667,
    "name": "El Piñero",
    "state_id": 1161,
    "state_code": "ZA",
    "country_id": 207,
    "country_code": "ES",
    "latitude": "41.35272190",
    "longitude": "-5.58864260",
    "wikiDataId": null
  },
  {
    "id": 34061,
    "name": "Entrala",
    "state_id": 1161,
    "state_code": "ZA",
    "country_id": 207,
    "country_code": "ES",
    "latitude": "41.43006000",
    "longitude": "-5.75556000",
    "wikiDataId": null
  },
  {
    "id": 34102,
    "name": "Espadañedo",
    "state_id": 1161,
    "state_code": "ZA",
    "country_id": 207,
    "country_code": "ES",
    "latitude": "42.11618000",
    "longitude": "-6.39419000",
    "wikiDataId": null
  },
  {
    "id": 34163,
    "name": "Faramontanos de Tábara",
    "state_id": 1161,
    "state_code": "ZA",
    "country_id": 207,
    "country_code": "ES",
    "latitude": "41.83469000",
    "longitude": "-5.88883000",
    "wikiDataId": null
  },
  {
    "id": 34164,
    "name": "Fariza",
    "state_id": 1161,
    "state_code": "ZA",
    "country_id": 207,
    "country_code": "ES",
    "latitude": "41.41667000",
    "longitude": "-6.26667000",
    "wikiDataId": null
  },
  {
    "id": 34174,
    "name": "Fermoselle",
    "state_id": 1161,
    "state_code": "ZA",
    "country_id": 207,
    "country_code": "ES",
    "latitude": "41.31738000",
    "longitude": "-6.39584000",
    "wikiDataId": null
  },
  {
    "id": 34177,
    "name": "Ferreras de Abajo",
    "state_id": 1161,
    "state_code": "ZA",
    "country_id": 207,
    "country_code": "ES",
    "latitude": "41.89651000",
    "longitude": "-6.07904000",
    "wikiDataId": null
  },
  {
    "id": 34178,
    "name": "Ferreras de Arriba",
    "state_id": 1161,
    "state_code": "ZA",
    "country_id": 207,
    "country_code": "ES",
    "latitude": "41.89878000",
    "longitude": "-6.19461000",
    "wikiDataId": null
  },
  {
    "id": 34180,
    "name": "Ferreruela",
    "state_id": 1161,
    "state_code": "ZA",
    "country_id": 207,
    "country_code": "ES",
    "latitude": "41.76673000",
    "longitude": "-6.07215000",
    "wikiDataId": null
  },
  {
    "id": 34186,
    "name": "Figueruela de Arriba",
    "state_id": 1161,
    "state_code": "ZA",
    "country_id": 207,
    "country_code": "ES",
    "latitude": "41.86867000",
    "longitude": "-6.44454000",
    "wikiDataId": null
  },
  {
    "id": 34207,
    "name": "Fonfría",
    "state_id": 1161,
    "state_code": "ZA",
    "country_id": 207,
    "country_code": "ES",
    "latitude": "40.99566000",
    "longitude": "-1.08475000",
    "wikiDataId": null
  },
  {
    "id": 34261,
    "name": "Fresno de la Polvorosa",
    "state_id": 1161,
    "state_code": "ZA",
    "country_id": 207,
    "country_code": "ES",
    "latitude": "42.08310000",
    "longitude": "-5.76969000",
    "wikiDataId": null
  },
  {
    "id": 34262,
    "name": "Fresno de la Ribera",
    "state_id": 1161,
    "state_code": "ZA",
    "country_id": 207,
    "country_code": "ES",
    "latitude": "41.52926000",
    "longitude": "-5.56658000",
    "wikiDataId": null
  },
  {
    "id": 34258,
    "name": "Fresno de Sayago",
    "state_id": 1161,
    "state_code": "ZA",
    "country_id": 207,
    "country_code": "ES",
    "latitude": "41.31848000",
    "longitude": "-5.97129000",
    "wikiDataId": null
  },
  {
    "id": 34265,
    "name": "Friera de Valverde",
    "state_id": 1161,
    "state_code": "ZA",
    "country_id": 207,
    "country_code": "ES",
    "latitude": "41.91214000",
    "longitude": "-5.84153000",
    "wikiDataId": null
  },
  {
    "id": 34291,
    "name": "Fuente Encalada",
    "state_id": 1161,
    "state_code": "ZA",
    "country_id": 207,
    "country_code": "ES",
    "latitude": "42.11011000",
    "longitude": "-5.99622000",
    "wikiDataId": null
  },
  {
    "id": 34318,
    "name": "Fuentelapeña",
    "state_id": 1161,
    "state_code": "ZA",
    "country_id": 207,
    "country_code": "ES",
    "latitude": "41.25144000",
    "longitude": "-5.38325000",
    "wikiDataId": null
  },
  {
    "id": 34349,
    "name": "Fuentes de Ropel",
    "state_id": 1161,
    "state_code": "ZA",
    "country_id": 207,
    "country_code": "ES",
    "latitude": "42.00377000",
    "longitude": "-5.54532000",
    "wikiDataId": null
  },
  {
    "id": 34352,
    "name": "Fuentesaúco",
    "state_id": 1161,
    "state_code": "ZA",
    "country_id": 207,
    "country_code": "ES",
    "latitude": "41.23043000",
    "longitude": "-5.49722000",
    "wikiDataId": null
  },
  {
    "id": 34354,
    "name": "Fuentesecas",
    "state_id": 1161,
    "state_code": "ZA",
    "country_id": 207,
    "country_code": "ES",
    "latitude": "41.63077000",
    "longitude": "-5.47252000",
    "wikiDataId": null
  },
  {
    "id": 34358,
    "name": "Fuentespreadas",
    "state_id": 1161,
    "state_code": "ZA",
    "country_id": 207,
    "country_code": "ES",
    "latitude": "41.32627000",
    "longitude": "-5.62798000",
    "wikiDataId": null
  },
  {
    "id": 34379,
    "name": "Galende",
    "state_id": 1161,
    "state_code": "ZA",
    "country_id": 207,
    "country_code": "ES",
    "latitude": "42.10440000",
    "longitude": "-6.66252000",
    "wikiDataId": null
  },
  {
    "id": 34390,
    "name": "Gallegos del Pan",
    "state_id": 1161,
    "state_code": "ZA",
    "country_id": 207,
    "country_code": "ES",
    "latitude": "41.59985000",
    "longitude": "-5.58117000",
    "wikiDataId": null
  },
  {
    "id": 34391,
    "name": "Gallegos del Río",
    "state_id": 1161,
    "state_code": "ZA",
    "country_id": 207,
    "country_code": "ES",
    "latitude": "41.73497000",
    "longitude": "-6.17435000",
    "wikiDataId": null
  },
  {
    "id": 34401,
    "name": "Gamones",
    "state_id": 1161,
    "state_code": "ZA",
    "country_id": 207,
    "country_code": "ES",
    "latitude": "41.46690000",
    "longitude": "-6.17621000",
    "wikiDataId": null
  },
  {
    "id": 34449,
    "name": "Gema",
    "state_id": 1161,
    "state_code": "ZA",
    "country_id": 207,
    "country_code": "ES",
    "latitude": "41.41855000",
    "longitude": "-5.64906000",
    "wikiDataId": null
  },
  {
    "id": 34500,
    "name": "Granja de Moreruela",
    "state_id": 1161,
    "state_code": "ZA",
    "country_id": 207,
    "country_code": "ES",
    "latitude": "41.81026000",
    "longitude": "-5.73893000",
    "wikiDataId": null
  },
  {
    "id": 34504,
    "name": "Granucillo",
    "state_id": 1161,
    "state_code": "ZA",
    "country_id": 207,
    "country_code": "ES",
    "latitude": "42.05209000",
    "longitude": "-5.92777000",
    "wikiDataId": null
  },
  {
    "id": 152658,
    "name": "Guarrate",
    "state_id": 1161,
    "state_code": "ZA",
    "country_id": 207,
    "country_code": "ES",
    "latitude": "41.28908390",
    "longitude": "-5.44240230",
    "wikiDataId": null
  },
  {
    "id": 34587,
    "name": "Hermisende",
    "state_id": 1161,
    "state_code": "ZA",
    "country_id": 207,
    "country_code": "ES",
    "latitude": "41.96898000",
    "longitude": "-6.89616000",
    "wikiDataId": null
  },
  {
    "id": 34794,
    "name": "Jambrina",
    "state_id": 1161,
    "state_code": "ZA",
    "country_id": 207,
    "country_code": "ES",
    "latitude": "41.39196000",
    "longitude": "-5.66411000",
    "wikiDataId": null
  },
  {
    "id": 34833,
    "name": "Justel",
    "state_id": 1161,
    "state_code": "ZA",
    "country_id": 207,
    "country_code": "ES",
    "latitude": "42.14861000",
    "longitude": "-6.29594000",
    "wikiDataId": null
  },
  {
    "id": 152654,
    "name": "La Bóveda de Toro",
    "state_id": 1161,
    "state_code": "ZA",
    "country_id": 207,
    "country_code": "ES",
    "latitude": "41.34308550",
    "longitude": "-5.41097250",
    "wikiDataId": null
  },
  {
    "id": 152659,
    "name": "La Hiniesta",
    "state_id": 1161,
    "state_code": "ZA",
    "country_id": 207,
    "country_code": "ES",
    "latitude": "41.55116260",
    "longitude": "-5.79978990",
    "wikiDataId": null
  },
  {
    "id": 152674,
    "name": "La Torre del Valle",
    "state_id": 1161,
    "state_code": "ZA",
    "country_id": 207,
    "country_code": "ES",
    "latitude": "42.09066110",
    "longitude": "-5.72405880",
    "wikiDataId": null
  },
  {
    "id": 35139,
    "name": "Losacino",
    "state_id": 1161,
    "state_code": "ZA",
    "country_id": 207,
    "country_code": "ES",
    "latitude": "41.68084000",
    "longitude": "-6.07986000",
    "wikiDataId": null
  },
  {
    "id": 35140,
    "name": "Losacio",
    "state_id": 1161,
    "state_code": "ZA",
    "country_id": 207,
    "country_code": "ES",
    "latitude": "41.71092000",
    "longitude": "-6.04059000",
    "wikiDataId": null
  },
  {
    "id": 35146,
    "name": "Lubián",
    "state_id": 1161,
    "state_code": "ZA",
    "country_id": 207,
    "country_code": "ES",
    "latitude": "42.03569000",
    "longitude": "-6.90541000",
    "wikiDataId": null
  },
  {
    "id": 35156,
    "name": "Luelmo",
    "state_id": 1161,
    "state_code": "ZA",
    "country_id": 207,
    "country_code": "ES",
    "latitude": "41.44030000",
    "longitude": "-6.13338000",
    "wikiDataId": null
  },
  {
    "id": 35187,
    "name": "Madridanos",
    "state_id": 1161,
    "state_code": "ZA",
    "country_id": 207,
    "country_code": "ES",
    "latitude": "41.47967000",
    "longitude": "-5.60459000",
    "wikiDataId": null
  },
  {
    "id": 35207,
    "name": "Mahide",
    "state_id": 1161,
    "state_code": "ZA",
    "country_id": 207,
    "country_code": "ES",
    "latitude": "41.86917000",
    "longitude": "-6.37784000",
    "wikiDataId": null
  },
  {
    "id": 35211,
    "name": "Maire de Castroponce",
    "state_id": 1161,
    "state_code": "ZA",
    "country_id": 207,
    "country_code": "ES",
    "latitude": "42.11283000",
    "longitude": "-5.78475000",
    "wikiDataId": null
  },
  {
    "id": 35233,
    "name": "Malva",
    "state_id": 1161,
    "state_code": "ZA",
    "country_id": 207,
    "country_code": "ES",
    "latitude": "41.65467000",
    "longitude": "-5.48657000",
    "wikiDataId": null
  },
  {
    "id": 35248,
    "name": "Manganeses de la Lampreana",
    "state_id": 1161,
    "state_code": "ZA",
    "country_id": 207,
    "country_code": "ES",
    "latitude": "41.75085000",
    "longitude": "-5.71048000",
    "wikiDataId": null
  },
  {
    "id": 35249,
    "name": "Manganeses de la Polvorosa",
    "state_id": 1161,
    "state_code": "ZA",
    "country_id": 207,
    "country_code": "ES",
    "latitude": "42.03563000",
    "longitude": "-5.74694000",
    "wikiDataId": null
  },
  {
    "id": 35262,
    "name": "Manzanal de Arriba",
    "state_id": 1161,
    "state_code": "ZA",
    "country_id": 207,
    "country_code": "ES",
    "latitude": "41.99217000",
    "longitude": "-6.44012000",
    "wikiDataId": null
  },
  {
    "id": 35263,
    "name": "Manzanal de los Infantes",
    "state_id": 1161,
    "state_code": "ZA",
    "country_id": 207,
    "country_code": "ES",
    "latitude": "42.05428000",
    "longitude": "-6.38288000",
    "wikiDataId": null
  },
  {
    "id": 35264,
    "name": "Manzanal del Barco",
    "state_id": 1161,
    "state_code": "ZA",
    "country_id": 207,
    "country_code": "ES",
    "latitude": "41.63501000",
    "longitude": "-5.94671000",
    "wikiDataId": null
  },
  {
    "id": 35342,
    "name": "Matilla de Arzón",
    "state_id": 1161,
    "state_code": "ZA",
    "country_id": 207,
    "country_code": "ES",
    "latitude": "42.10499000",
    "longitude": "-5.64156000",
    "wikiDataId": null
  },
  {
    "id": 35345,
    "name": "Matilla la Seca",
    "state_id": 1161,
    "state_code": "ZA",
    "country_id": 207,
    "country_code": "ES",
    "latitude": "41.57935000",
    "longitude": "-5.50030000",
    "wikiDataId": null
  },
  {
    "id": 35348,
    "name": "Mayalde",
    "state_id": 1161,
    "state_code": "ZA",
    "country_id": 207,
    "country_code": "ES",
    "latitude": "41.25080000",
    "longitude": "-5.79767000",
    "wikiDataId": null
  },
  {
    "id": 35388,
    "name": "Melgar de Tera",
    "state_id": 1161,
    "state_code": "ZA",
    "country_id": 207,
    "country_code": "ES",
    "latitude": "41.96618000",
    "longitude": "-6.01390000",
    "wikiDataId": null
  },
  {
    "id": 35418,
    "name": "Micereces de Tera",
    "state_id": 1161,
    "state_code": "ZA",
    "country_id": 207,
    "country_code": "ES",
    "latitude": "41.98886000",
    "longitude": "-5.87133000",
    "wikiDataId": null
  },
  {
    "id": 35434,
    "name": "Milles de la Polvorosa",
    "state_id": 1161,
    "state_code": "ZA",
    "country_id": 207,
    "country_code": "ES",
    "latitude": "41.92339000",
    "longitude": "-5.73309000",
    "wikiDataId": null
  },
  {
    "id": 35475,
    "name": "Molacillos",
    "state_id": 1161,
    "state_code": "ZA",
    "country_id": 207,
    "country_code": "ES",
    "latitude": "41.58269000",
    "longitude": "-5.66046000",
    "wikiDataId": null
  },
  {
    "id": 35476,
    "name": "Molezuelas de la Carballeda",
    "state_id": 1161,
    "state_code": "ZA",
    "country_id": 207,
    "country_code": "ES",
    "latitude": "42.08166000",
    "longitude": "-6.18723000",
    "wikiDataId": null
  },
  {
    "id": 35493,
    "name": "Mombuey",
    "state_id": 1161,
    "state_code": "ZA",
    "country_id": 207,
    "country_code": "ES",
    "latitude": "42.02283000",
    "longitude": "-6.33027000",
    "wikiDataId": null
  },
  {
    "id": 35511,
    "name": "Monfarracinos",
    "state_id": 1161,
    "state_code": "ZA",
    "country_id": 207,
    "country_code": "ES",
    "latitude": "41.55468000",
    "longitude": "-5.70795000",
    "wikiDataId": null
  },
  {
    "id": 35535,
    "name": "Montamarta",
    "state_id": 1161,
    "state_code": "ZA",
    "country_id": 207,
    "country_code": "ES",
    "latitude": "41.64724000",
    "longitude": "-5.80402000",
    "wikiDataId": null
  },
  {
    "id": 35598,
    "name": "Moral de Sayago",
    "state_id": 1161,
    "state_code": "ZA",
    "country_id": 207,
    "country_code": "ES",
    "latitude": "41.47019000",
    "longitude": "-6.10060000",
    "wikiDataId": null
  },
  {
    "id": 35604,
    "name": "Moraleja de Sayago",
    "state_id": 1161,
    "state_code": "ZA",
    "country_id": 207,
    "country_code": "ES",
    "latitude": "41.16916000",
    "longitude": "-6.00369000",
    "wikiDataId": null
  },
  {
    "id": 35606,
    "name": "Moraleja del Vino",
    "state_id": 1161,
    "state_code": "ZA",
    "country_id": 207,
    "country_code": "ES",
    "latitude": "41.46385000",
    "longitude": "-5.65631000",
    "wikiDataId": null
  },
  {
    "id": 152661,
    "name": "Morales de Rey",
    "state_id": 1161,
    "state_code": "ZA",
    "country_id": 207,
    "country_code": "ES",
    "latitude": "42.06718500",
    "longitude": "-5.78661240",
    "wikiDataId": null
  },
  {
    "id": 35608,
    "name": "Morales de Toro",
    "state_id": 1161,
    "state_code": "ZA",
    "country_id": 207,
    "country_code": "ES",
    "latitude": "41.53737000",
    "longitude": "-5.30642000",
    "wikiDataId": null
  },
  {
    "id": 35609,
    "name": "Morales de Valverde",
    "state_id": 1161,
    "state_code": "ZA",
    "country_id": 207,
    "country_code": "ES",
    "latitude": "41.93643000",
    "longitude": "-5.89255000",
    "wikiDataId": null
  },
  {
    "id": 35610,
    "name": "Morales del Vino",
    "state_id": 1161,
    "state_code": "ZA",
    "country_id": 207,
    "country_code": "ES",
    "latitude": "41.44736000",
    "longitude": "-5.73070000",
    "wikiDataId": null
  },
  {
    "id": 35611,
    "name": "Moralina",
    "state_id": 1161,
    "state_code": "ZA",
    "country_id": 207,
    "country_code": "ES",
    "latitude": "41.49001000",
    "longitude": "-6.13670000",
    "wikiDataId": null
  },
  {
    "id": 35628,
    "name": "Moreruela de los Infanzones",
    "state_id": 1161,
    "state_code": "ZA",
    "country_id": 207,
    "country_code": "ES",
    "latitude": "41.63118000",
    "longitude": "-5.70614000",
    "wikiDataId": null
  },
  {
    "id": 35627,
    "name": "Moreruela de Tábara",
    "state_id": 1161,
    "state_code": "ZA",
    "country_id": 207,
    "country_code": "ES",
    "latitude": "41.79588000",
    "longitude": "-5.86849000",
    "wikiDataId": null
  },
  {
    "id": 35656,
    "name": "Muelas de los Caballeros",
    "state_id": 1161,
    "state_code": "ZA",
    "country_id": 207,
    "country_code": "ES",
    "latitude": "42.12843000",
    "longitude": "-6.33719000",
    "wikiDataId": null
  },
  {
    "id": 152662,
    "name": "Muelas del Pan",
    "state_id": 1161,
    "state_code": "ZA",
    "country_id": 207,
    "country_code": "ES",
    "latitude": "41.52060810",
    "longitude": "-5.97181620",
    "wikiDataId": null
  },
  {
    "id": 35657,
    "name": "Muga de Sayago",
    "state_id": 1161,
    "state_code": "ZA",
    "country_id": 207,
    "country_code": "ES",
    "latitude": "41.38779000",
    "longitude": "-6.19777000",
    "wikiDataId": null
  },
  {
    "id": 35791,
    "name": "Navianos de Valverde",
    "state_id": 1161,
    "state_code": "ZA",
    "country_id": 207,
    "country_code": "ES",
    "latitude": "41.95319000",
    "longitude": "-5.81781000",
    "wikiDataId": null
  },
  {
    "id": 35903,
    "name": "Olmillos de Castro",
    "state_id": 1161,
    "state_code": "ZA",
    "country_id": 207,
    "country_code": "ES",
    "latitude": "41.73179000",
    "longitude": "-5.96791000",
    "wikiDataId": null
  },
  {
    "id": 35978,
    "name": "Otero de Bodas",
    "state_id": 1161,
    "state_code": "ZA",
    "country_id": 207,
    "country_code": "ES",
    "latitude": "41.93868000",
    "longitude": "-6.15024000",
    "wikiDataId": null
  },
  {
    "id": 36002,
    "name": "Pajares de la Lampreana",
    "state_id": 1161,
    "state_code": "ZA",
    "country_id": 207,
    "country_code": "ES",
    "latitude": "41.71551000",
    "longitude": "-5.69351000",
    "wikiDataId": null
  },
  {
    "id": 36007,
    "name": "Palacios de Sanabria",
    "state_id": 1161,
    "state_code": "ZA",
    "country_id": 207,
    "country_code": "ES",
    "latitude": "42.05901000",
    "longitude": "-6.52362000",
    "wikiDataId": null
  },
  {
    "id": 36011,
    "name": "Palacios del Pan",
    "state_id": 1161,
    "state_code": "ZA",
    "country_id": 207,
    "country_code": "ES",
    "latitude": "41.60242000",
    "longitude": "-5.87773000",
    "wikiDataId": null
  },
  {
    "id": 152663,
    "name": "Pedralba de la Pradería",
    "state_id": 1161,
    "state_code": "ZA",
    "country_id": 207,
    "country_code": "ES",
    "latitude": "41.97209710",
    "longitude": "-6.69589390",
    "wikiDataId": null
  },
  {
    "id": 36124,
    "name": "Peleagonzalo",
    "state_id": 1161,
    "state_code": "ZA",
    "country_id": 207,
    "country_code": "ES",
    "latitude": "41.48175000",
    "longitude": "-5.48304000",
    "wikiDataId": null
  },
  {
    "id": 36125,
    "name": "Peleas de Abajo",
    "state_id": 1161,
    "state_code": "ZA",
    "country_id": 207,
    "country_code": "ES",
    "latitude": "41.39260000",
    "longitude": "-5.68966000",
    "wikiDataId": null
  },
  {
    "id": 36176,
    "name": "Peñausende",
    "state_id": 1161,
    "state_code": "ZA",
    "country_id": 207,
    "country_code": "ES",
    "latitude": "41.28662000",
    "longitude": "-5.86755000",
    "wikiDataId": null
  },
  {
    "id": 36129,
    "name": "Peque",
    "state_id": 1161,
    "state_code": "ZA",
    "country_id": 207,
    "country_code": "ES",
    "latitude": "42.07297000",
    "longitude": "-6.27489000",
    "wikiDataId": null
  },
  {
    "id": 36148,
    "name": "Pereruela",
    "state_id": 1161,
    "state_code": "ZA",
    "country_id": 207,
    "country_code": "ES",
    "latitude": "41.41650000",
    "longitude": "-5.87812000",
    "wikiDataId": null
  },
  {
    "id": 36150,
    "name": "Perilla de Castro",
    "state_id": 1161,
    "state_code": "ZA",
    "country_id": 207,
    "country_code": "ES",
    "latitude": "41.72540000",
    "longitude": "-5.87636000",
    "wikiDataId": null
  },
  {
    "id": 36485,
    "name": "Pías",
    "state_id": 1161,
    "state_code": "ZA",
    "country_id": 207,
    "country_code": "ES",
    "latitude": "42.08333000",
    "longitude": "-7.00000000",
    "wikiDataId": null
  },
  {
    "id": 36181,
    "name": "Piedrahita de Castro",
    "state_id": 1161,
    "state_code": "ZA",
    "country_id": 207,
    "country_code": "ES",
    "latitude": "41.68089000",
    "longitude": "-5.72886000",
    "wikiDataId": null
  },
  {
    "id": 36203,
    "name": "Pinilla de Toro",
    "state_id": 1161,
    "state_code": "ZA",
    "country_id": 207,
    "country_code": "ES",
    "latitude": "41.62783000",
    "longitude": "-5.36414000",
    "wikiDataId": null
  },
  {
    "id": 152666,
    "name": "Pino del Oro",
    "state_id": 1161,
    "state_code": "ZA",
    "country_id": 207,
    "country_code": "ES",
    "latitude": "41.57623000",
    "longitude": "-6.12089480",
    "wikiDataId": null
  },
  {
    "id": 36251,
    "name": "Pobladura de Valderaduey",
    "state_id": 1161,
    "state_code": "ZA",
    "country_id": 207,
    "country_code": "ES",
    "latitude": "41.70009000",
    "longitude": "-5.54189000",
    "wikiDataId": null
  },
  {
    "id": 36252,
    "name": "Pobladura del Valle",
    "state_id": 1161,
    "state_code": "ZA",
    "country_id": 207,
    "country_code": "ES",
    "latitude": "42.10257000",
    "longitude": "-5.73333000",
    "wikiDataId": null
  },
  {
    "id": 36294,
    "name": "Porto",
    "state_id": 1161,
    "state_code": "ZA",
    "country_id": 207,
    "country_code": "ES",
    "latitude": "42.16737000",
    "longitude": "-6.89934000",
    "wikiDataId": null
  },
  {
    "id": 36322,
    "name": "Pozoantiguo",
    "state_id": 1161,
    "state_code": "ZA",
    "country_id": 207,
    "country_code": "ES",
    "latitude": "41.59730000",
    "longitude": "-5.43660000",
    "wikiDataId": null
  },
  {
    "id": 36334,
    "name": "Pozuelo de Tábara",
    "state_id": 1161,
    "state_code": "ZA",
    "country_id": 207,
    "country_code": "ES",
    "latitude": "41.78502000",
    "longitude": "-5.89455000",
    "wikiDataId": null
  },
  {
    "id": 36344,
    "name": "Prado",
    "state_id": 1161,
    "state_code": "ZA",
    "country_id": 207,
    "country_code": "ES",
    "latitude": "41.92077000",
    "longitude": "-5.42027000",
    "wikiDataId": null
  },
  {
    "id": 36423,
    "name": "Puebla de Sanabria",
    "state_id": 1161,
    "state_code": "ZA",
    "country_id": 207,
    "country_code": "ES",
    "latitude": "42.05401000",
    "longitude": "-6.63350000",
    "wikiDataId": null
  },
  {
    "id": 36432,
    "name": "Pueblica de Valverde",
    "state_id": 1161,
    "state_code": "ZA",
    "country_id": 207,
    "country_code": "ES",
    "latitude": "41.91843000",
    "longitude": "-5.89975000",
    "wikiDataId": null
  },
  {
    "id": 36521,
    "name": "Quintanilla de Urz",
    "state_id": 1161,
    "state_code": "ZA",
    "country_id": 207,
    "country_code": "ES",
    "latitude": "42.03290000",
    "longitude": "-5.84866000",
    "wikiDataId": null
  },
  {
    "id": 36525,
    "name": "Quintanilla del Monte",
    "state_id": 1161,
    "state_code": "ZA",
    "country_id": 207,
    "country_code": "ES",
    "latitude": "41.86812000",
    "longitude": "-5.34928000",
    "wikiDataId": null
  },
  {
    "id": 36526,
    "name": "Quintanilla del Olmo",
    "state_id": 1161,
    "state_code": "ZA",
    "country_id": 207,
    "country_code": "ES",
    "latitude": "41.90561000",
    "longitude": "-5.40726000",
    "wikiDataId": null
  },
  {
    "id": 36530,
    "name": "Quiruelas de Vidriales",
    "state_id": 1161,
    "state_code": "ZA",
    "country_id": 207,
    "country_code": "ES",
    "latitude": "42.01762000",
    "longitude": "-5.82947000",
    "wikiDataId": null
  },
  {
    "id": 36533,
    "name": "Rabanales",
    "state_id": 1161,
    "state_code": "ZA",
    "country_id": 207,
    "country_code": "ES",
    "latitude": "41.74287000",
    "longitude": "-6.27674000",
    "wikiDataId": null
  },
  {
    "id": 36709,
    "name": "Rábano de Aliste",
    "state_id": 1161,
    "state_code": "ZA",
    "country_id": 207,
    "country_code": "ES",
    "latitude": "41.74430000",
    "longitude": "-6.43302000",
    "wikiDataId": null
  },
  {
    "id": 152668,
    "name": "Requejo",
    "state_id": 1161,
    "state_code": "ZA",
    "country_id": 207,
    "country_code": "ES",
    "latitude": "42.03050200",
    "longitude": "-6.74370280",
    "wikiDataId": null
  },
  {
    "id": 36593,
    "name": "Revellinos",
    "state_id": 1161,
    "state_code": "ZA",
    "country_id": 207,
    "country_code": "ES",
    "latitude": "41.88982000",
    "longitude": "-5.56871000",
    "wikiDataId": null
  },
  {
    "id": 36715,
    "name": "Ríofrío de Aliste",
    "state_id": 1161,
    "state_code": "ZA",
    "country_id": 207,
    "country_code": "ES",
    "latitude": "41.81724000",
    "longitude": "-6.17741000",
    "wikiDataId": null
  },
  {
    "id": 152669,
    "name": "Rionegro del Puente",
    "state_id": 1161,
    "state_code": "ZA",
    "country_id": 207,
    "country_code": "ES",
    "latitude": "42.00460090",
    "longitude": "-6.22830350",
    "wikiDataId": null
  },
  {
    "id": 36644,
    "name": "Roales",
    "state_id": 1161,
    "state_code": "ZA",
    "country_id": 207,
    "country_code": "ES",
    "latitude": "41.55170000",
    "longitude": "-5.77211000",
    "wikiDataId": null
  },
  {
    "id": 36647,
    "name": "Robleda-Cervantes",
    "state_id": 1161,
    "state_code": "ZA",
    "country_id": 207,
    "country_code": "ES",
    "latitude": "42.08246000",
    "longitude": "-6.59414000",
    "wikiDataId": null
  },
  {
    "id": 152670,
    "name": "Roelos de Sayago",
    "state_id": 1161,
    "state_code": "ZA",
    "country_id": 207,
    "country_code": "ES",
    "latitude": "41.25271330",
    "longitude": "-6.17249770",
    "wikiDataId": null
  },
  {
    "id": 152671,
    "name": "Rosinos de la Requejada",
    "state_id": 1161,
    "state_code": "ZA",
    "country_id": 207,
    "country_code": "ES",
    "latitude": "42.08560960",
    "longitude": "-6.53364430",
    "wikiDataId": null
  },
  {
    "id": 36752,
    "name": "Salce",
    "state_id": 1161,
    "state_code": "ZA",
    "country_id": 207,
    "country_code": "ES",
    "latitude": "41.26996000",
    "longitude": "-6.21875000",
    "wikiDataId": null
  },
  {
    "id": 36791,
    "name": "Samir de los Caños",
    "state_id": 1161,
    "state_code": "ZA",
    "country_id": 207,
    "country_code": "ES",
    "latitude": "41.67280000",
    "longitude": "-6.16415000",
    "wikiDataId": null
  },
  {
    "id": 36800,
    "name": "San Agustín del Pozo",
    "state_id": 1161,
    "state_code": "ZA",
    "country_id": 207,
    "country_code": "ES",
    "latitude": "41.88613000",
    "longitude": "-5.59351000",
    "wikiDataId": null
  },
  {
    "id": 36815,
    "name": "San Cebrián de Castro",
    "state_id": 1161,
    "state_code": "ZA",
    "country_id": 207,
    "country_code": "ES",
    "latitude": "41.70632000",
    "longitude": "-5.75605000",
    "wikiDataId": null
  },
  {
    "id": 36821,
    "name": "San Cristóbal de Entreviñas",
    "state_id": 1161,
    "state_code": "ZA",
    "country_id": 207,
    "country_code": "ES",
    "latitude": "42.04575000",
    "longitude": "-5.63468000",
    "wikiDataId": null
  },
  {
    "id": 36832,
    "name": "San Esteban del Molar",
    "state_id": 1161,
    "state_code": "ZA",
    "country_id": 207,
    "country_code": "ES",
    "latitude": "41.93717000",
    "longitude": "-5.55158000",
    "wikiDataId": null
  },
  {
    "id": 36853,
    "name": "San Justo",
    "state_id": 1161,
    "state_code": "ZA",
    "country_id": 207,
    "country_code": "ES",
    "latitude": "42.13321000",
    "longitude": "-6.62388000",
    "wikiDataId": null
  },
  {
    "id": 36871,
    "name": "San Martín de Valderaduey",
    "state_id": 1161,
    "state_code": "ZA",
    "country_id": 207,
    "country_code": "ES",
    "latitude": "41.81414000",
    "longitude": "-5.47249000",
    "wikiDataId": null
  },
  {
    "id": 36886,
    "name": "San Miguel de la Ribera",
    "state_id": 1161,
    "state_code": "ZA",
    "country_id": 207,
    "country_code": "ES",
    "latitude": "41.33301000",
    "longitude": "-5.57689000",
    "wikiDataId": null
  },
  {
    "id": 152672,
    "name": "San Miguel del Valle",
    "state_id": 1161,
    "state_code": "ZA",
    "country_id": 207,
    "country_code": "ES",
    "latitude": "42.04037510",
    "longitude": "-5.50400150",
    "wikiDataId": null
  },
  {
    "id": 36904,
    "name": "San Pedro de Ceque",
    "state_id": 1161,
    "state_code": "ZA",
    "country_id": 207,
    "country_code": "ES",
    "latitude": "42.04334000",
    "longitude": "-6.07242000",
    "wikiDataId": null
  },
  {
    "id": 152673,
    "name": "San Pedro de la Nave-Almendra",
    "state_id": 1161,
    "state_code": "ZA",
    "country_id": 207,
    "country_code": "ES",
    "latitude": "41.58280140",
    "longitude": "-5.93568720",
    "wikiDataId": null
  },
  {
    "id": 36929,
    "name": "San Vicente de la Cabeza",
    "state_id": 1161,
    "state_code": "ZA",
    "country_id": 207,
    "country_code": "ES",
    "latitude": "41.80696000",
    "longitude": "-6.24993000",
    "wikiDataId": null
  },
  {
    "id": 36933,
    "name": "San Vitero",
    "state_id": 1161,
    "state_code": "ZA",
    "country_id": 207,
    "country_code": "ES",
    "latitude": "41.77740000",
    "longitude": "-6.34877000",
    "wikiDataId": null
  },
  {
    "id": 37013,
    "name": "Santa Clara de Avedillo",
    "state_id": 1161,
    "state_code": "ZA",
    "country_id": 207,
    "country_code": "ES",
    "latitude": "41.33877000",
    "longitude": "-5.67692000",
    "wikiDataId": null
  },
  {
    "id": 37020,
    "name": "Santa Colomba de las Monjas",
    "state_id": 1161,
    "state_code": "ZA",
    "country_id": 207,
    "country_code": "ES",
    "latitude": "41.95833000",
    "longitude": "-5.68389000",
    "wikiDataId": null
  },
  {
    "id": 37024,
    "name": "Santa Cristina de la Polvorosa",
    "state_id": 1161,
    "state_code": "ZA",
    "country_id": 207,
    "country_code": "ES",
    "latitude": "41.99985000",
    "longitude": "-5.71355000",
    "wikiDataId": null
  },
  {
    "id": 37025,
    "name": "Santa Croya de Tera",
    "state_id": 1161,
    "state_code": "ZA",
    "country_id": 207,
    "country_code": "ES",
    "latitude": "41.98334000",
    "longitude": "-5.97725000",
    "wikiDataId": null
  },
  {
    "id": 37051,
    "name": "Santa Eufemia del Barco",
    "state_id": 1161,
    "state_code": "ZA",
    "country_id": 207,
    "country_code": "ES",
    "latitude": "41.67808000",
    "longitude": "-5.89831000",
    "wikiDataId": null
  },
  {
    "id": 37081,
    "name": "Santa María de la Vega",
    "state_id": 1161,
    "state_code": "ZA",
    "country_id": 207,
    "country_code": "ES",
    "latitude": "42.08497000",
    "longitude": "-5.80851000",
    "wikiDataId": null
  },
  {
    "id": 37078,
    "name": "Santa María de Valverde",
    "state_id": 1161,
    "state_code": "ZA",
    "country_id": 207,
    "country_code": "ES",
    "latitude": "41.93479000",
    "longitude": "-5.93560000",
    "wikiDataId": null
  },
  {
    "id": 37122,
    "name": "Santibáñez de Tera",
    "state_id": 1161,
    "state_code": "ZA",
    "country_id": 207,
    "country_code": "ES",
    "latitude": "41.98563000",
    "longitude": "-5.92257000",
    "wikiDataId": null
  },
  {
    "id": 37124,
    "name": "Santibáñez de Vidriales",
    "state_id": 1161,
    "state_code": "ZA",
    "country_id": 207,
    "country_code": "ES",
    "latitude": "42.07362000",
    "longitude": "-6.01549000",
    "wikiDataId": null
  },
  {
    "id": 37147,
    "name": "Santovenia",
    "state_id": 1161,
    "state_code": "ZA",
    "country_id": 207,
    "country_code": "ES",
    "latitude": "41.87857000",
    "longitude": "-5.71003000",
    "wikiDataId": null
  },
  {
    "id": 37158,
    "name": "Sanzoles",
    "state_id": 1161,
    "state_code": "ZA",
    "country_id": 207,
    "country_code": "ES",
    "latitude": "41.43235000",
    "longitude": "-5.56710000",
    "wikiDataId": null
  },
  {
    "id": 37662,
    "name": "Tábara",
    "state_id": 1161,
    "state_code": "ZA",
    "country_id": 207,
    "country_code": "ES",
    "latitude": "41.82458000",
    "longitude": "-5.96420000",
    "wikiDataId": null
  },
  {
    "id": 37369,
    "name": "Tapioles",
    "state_id": 1161,
    "state_code": "ZA",
    "country_id": 207,
    "country_code": "ES",
    "latitude": "41.85741000",
    "longitude": "-5.49623000",
    "wikiDataId": null
  },
  {
    "id": 37476,
    "name": "Toro",
    "state_id": 1161,
    "state_code": "ZA",
    "country_id": 207,
    "country_code": "ES",
    "latitude": "41.52417000",
    "longitude": "-5.39534000",
    "wikiDataId": null
  },
  {
    "id": 37533,
    "name": "Torregamones",
    "state_id": 1161,
    "state_code": "ZA",
    "country_id": 207,
    "country_code": "ES",
    "latitude": "41.48700000",
    "longitude": "-6.18335000",
    "wikiDataId": null
  },
  {
    "id": 37578,
    "name": "Torres del Carrizal",
    "state_id": 1161,
    "state_code": "ZA",
    "country_id": 207,
    "country_code": "ES",
    "latitude": "41.61701000",
    "longitude": "-5.67173000",
    "wikiDataId": null
  },
  {
    "id": 37614,
    "name": "Trabazos",
    "state_id": 1161,
    "state_code": "ZA",
    "country_id": 207,
    "country_code": "ES",
    "latitude": "41.74793000",
    "longitude": "-6.49094000",
    "wikiDataId": null
  },
  {
    "id": 37626,
    "name": "Trefacio",
    "state_id": 1161,
    "state_code": "ZA",
    "country_id": 207,
    "country_code": "ES",
    "latitude": "42.12165000",
    "longitude": "-6.65407000",
    "wikiDataId": null
  },
  {
    "id": 37714,
    "name": "Uña de Quintana",
    "state_id": 1161,
    "state_code": "ZA",
    "country_id": 207,
    "country_code": "ES",
    "latitude": "42.08662000",
    "longitude": "-6.14475000",
    "wikiDataId": null
  },
  {
    "id": 37716,
    "name": "Vadillo de la Guareña",
    "state_id": 1161,
    "state_code": "ZA",
    "country_id": 207,
    "country_code": "ES",
    "latitude": "41.28242000",
    "longitude": "-5.35300000",
    "wikiDataId": null
  },
  {
    "id": 37725,
    "name": "Valcabado",
    "state_id": 1161,
    "state_code": "ZA",
    "country_id": 207,
    "country_code": "ES",
    "latitude": "41.54863000",
    "longitude": "-5.74916000",
    "wikiDataId": null
  },
  {
    "id": 37743,
    "name": "Valdefinjas",
    "state_id": 1161,
    "state_code": "ZA",
    "country_id": 207,
    "country_code": "ES",
    "latitude": "41.45172000",
    "longitude": "-5.45232000",
    "wikiDataId": null
  },
  {
    "id": 37800,
    "name": "Valdescorriel",
    "state_id": 1161,
    "state_code": "ZA",
    "country_id": 207,
    "country_code": "ES",
    "latitude": "42.02233000",
    "longitude": "-5.50998000",
    "wikiDataId": null
  },
  {
    "id": 37856,
    "name": "Vallesa de la Guareña",
    "state_id": 1161,
    "state_code": "ZA",
    "country_id": 207,
    "country_code": "ES",
    "latitude": "41.13532000",
    "longitude": "-5.32611000",
    "wikiDataId": null
  },
  {
    "id": 37909,
    "name": "Vega de Tera",
    "state_id": 1161,
    "state_code": "ZA",
    "country_id": 207,
    "country_code": "ES",
    "latitude": "41.99759000",
    "longitude": "-6.12500000",
    "wikiDataId": null
  },
  {
    "id": 37913,
    "name": "Vega de Villalobos",
    "state_id": 1161,
    "state_code": "ZA",
    "country_id": 207,
    "country_code": "ES",
    "latitude": "41.97057000",
    "longitude": "-5.46324000",
    "wikiDataId": null
  },
  {
    "id": 37916,
    "name": "Vegalatrave",
    "state_id": 1161,
    "state_code": "ZA",
    "country_id": 207,
    "country_code": "ES",
    "latitude": "41.70026000",
    "longitude": "-6.10675000",
    "wikiDataId": null
  },
  {
    "id": 37936,
    "name": "Venialbo",
    "state_id": 1161,
    "state_code": "ZA",
    "country_id": 207,
    "country_code": "ES",
    "latitude": "41.38957000",
    "longitude": "-5.53596000",
    "wikiDataId": null
  },
  {
    "id": 37956,
    "name": "Vezdemarbán",
    "state_id": 1161,
    "state_code": "ZA",
    "country_id": 207,
    "country_code": "ES",
    "latitude": "41.65480000",
    "longitude": "-5.36609000",
    "wikiDataId": null
  },
  {
    "id": 37964,
    "name": "Vidayanes",
    "state_id": 1161,
    "state_code": "ZA",
    "country_id": 207,
    "country_code": "ES",
    "latitude": "41.91011000",
    "longitude": "-5.57424000",
    "wikiDataId": null
  },
  {
    "id": 37965,
    "name": "Videmala",
    "state_id": 1161,
    "state_code": "ZA",
    "country_id": 207,
    "country_code": "ES",
    "latitude": "41.61299000",
    "longitude": "-6.04056000",
    "wikiDataId": null
  },
  {
    "id": 38021,
    "name": "Villabrázaro",
    "state_id": 1161,
    "state_code": "ZA",
    "country_id": 207,
    "country_code": "ES",
    "latitude": "42.05394000",
    "longitude": "-5.72748000",
    "wikiDataId": null
  },
  {
    "id": 38022,
    "name": "Villabuena del Puente",
    "state_id": 1161,
    "state_code": "ZA",
    "country_id": 207,
    "country_code": "ES",
    "latitude": "41.38074000",
    "longitude": "-5.40787000",
    "wikiDataId": null
  },
  {
    "id": 38040,
    "name": "Villadepera",
    "state_id": 1161,
    "state_code": "ZA",
    "country_id": 207,
    "country_code": "ES",
    "latitude": "41.54700000",
    "longitude": "-6.13305000",
    "wikiDataId": null
  },
  {
    "id": 38044,
    "name": "Villaescusa",
    "state_id": 1161,
    "state_code": "ZA",
    "country_id": 207,
    "country_code": "ES",
    "latitude": "41.20617000",
    "longitude": "-5.46406000",
    "wikiDataId": null
  },
  {
    "id": 38069,
    "name": "Villafáfila",
    "state_id": 1161,
    "state_code": "ZA",
    "country_id": 207,
    "country_code": "ES",
    "latitude": "41.84692000",
    "longitude": "-5.61527000",
    "wikiDataId": null
  },
  {
    "id": 38051,
    "name": "Villaferrueña",
    "state_id": 1161,
    "state_code": "ZA",
    "country_id": 207,
    "country_code": "ES",
    "latitude": "42.09830000",
    "longitude": "-5.85802000",
    "wikiDataId": null
  },
  {
    "id": 38075,
    "name": "Villageriz",
    "state_id": 1161,
    "state_code": "ZA",
    "country_id": 207,
    "country_code": "ES",
    "latitude": "42.11884000",
    "longitude": "-5.95554000",
    "wikiDataId": null
  },
  {
    "id": 38091,
    "name": "Villalazán",
    "state_id": 1161,
    "state_code": "ZA",
    "country_id": 207,
    "country_code": "ES",
    "latitude": "41.49414000",
    "longitude": "-5.58910000",
    "wikiDataId": null
  },
  {
    "id": 38096,
    "name": "Villalba de la Lampreana",
    "state_id": 1161,
    "state_code": "ZA",
    "country_id": 207,
    "country_code": "ES",
    "latitude": "41.74327000",
    "longitude": "-5.64094000",
    "wikiDataId": null
  },
  {
    "id": 38108,
    "name": "Villalcampo",
    "state_id": 1161,
    "state_code": "ZA",
    "country_id": 207,
    "country_code": "ES",
    "latitude": "41.52229000",
    "longitude": "-6.04801000",
    "wikiDataId": null
  },
  {
    "id": 38116,
    "name": "Villalobos",
    "state_id": 1161,
    "state_code": "ZA",
    "country_id": 207,
    "country_code": "ES",
    "latitude": "41.94567000",
    "longitude": "-5.47517000",
    "wikiDataId": null
  },
  {
    "id": 38119,
    "name": "Villalonso",
    "state_id": 1161,
    "state_code": "ZA",
    "country_id": 207,
    "country_code": "ES",
    "latitude": "41.59767000",
    "longitude": "-5.29769000",
    "wikiDataId": null
  },
  {
    "id": 38120,
    "name": "Villalpando",
    "state_id": 1161,
    "state_code": "ZA",
    "country_id": 207,
    "country_code": "ES",
    "latitude": "41.86517000",
    "longitude": "-5.41231000",
    "wikiDataId": null
  },
  {
    "id": 38122,
    "name": "Villalube",
    "state_id": 1161,
    "state_code": "ZA",
    "country_id": 207,
    "country_code": "ES",
    "latitude": "41.61005000",
    "longitude": "-5.54545000",
    "wikiDataId": null
  },
  {
    "id": 38141,
    "name": "Villamayor de Campos",
    "state_id": 1161,
    "state_code": "ZA",
    "country_id": 207,
    "country_code": "ES",
    "latitude": "41.89870000",
    "longitude": "-5.35963000",
    "wikiDataId": null
  },
  {
    "id": 38160,
    "name": "Villamor de los Escuderos",
    "state_id": 1161,
    "state_code": "ZA",
    "country_id": 207,
    "country_code": "ES",
    "latitude": "41.25244000",
    "longitude": "-5.57485000",
    "wikiDataId": null
  },
  {
    "id": 38226,
    "name": "Villanázar",
    "state_id": 1161,
    "state_code": "ZA",
    "country_id": 207,
    "country_code": "ES",
    "latitude": "41.97398000",
    "longitude": "-5.78043000",
    "wikiDataId": null
  },
  {
    "id": 38174,
    "name": "Villanueva de Azoague",
    "state_id": 1161,
    "state_code": "ZA",
    "country_id": 207,
    "country_code": "ES",
    "latitude": "41.97607000",
    "longitude": "-5.66400000",
    "wikiDataId": null
  },
  {
    "id": 38177,
    "name": "Villanueva de Campeán",
    "state_id": 1161,
    "state_code": "ZA",
    "country_id": 207,
    "country_code": "ES",
    "latitude": "41.35447000",
    "longitude": "-5.77020000",
    "wikiDataId": null
  },
  {
    "id": 38207,
    "name": "Villanueva de las Peras",
    "state_id": 1161,
    "state_code": "ZA",
    "country_id": 207,
    "country_code": "ES",
    "latitude": "41.93478000",
    "longitude": "-5.97942000",
    "wikiDataId": null
  },
  {
    "id": 38215,
    "name": "Villanueva del Campo",
    "state_id": 1161,
    "state_code": "ZA",
    "country_id": 207,
    "country_code": "ES",
    "latitude": "41.98492000",
    "longitude": "-5.40660000",
    "wikiDataId": null
  },
  {
    "id": 38239,
    "name": "Villar de Fallaves",
    "state_id": 1161,
    "state_code": "ZA",
    "country_id": 207,
    "country_code": "ES",
    "latitude": "41.92503000",
    "longitude": "-5.34039000",
    "wikiDataId": null
  },
  {
    "id": 38252,
    "name": "Villar del Buey",
    "state_id": 1161,
    "state_code": "ZA",
    "country_id": 207,
    "country_code": "ES",
    "latitude": "41.33024000",
    "longitude": "-6.18935000",
    "wikiDataId": null
  },
  {
    "id": 38263,
    "name": "Villaralbo",
    "state_id": 1161,
    "state_code": "ZA",
    "country_id": 207,
    "country_code": "ES",
    "latitude": "41.49224000",
    "longitude": "-5.68359000",
    "wikiDataId": null
  },
  {
    "id": 38265,
    "name": "Villardeciervos",
    "state_id": 1161,
    "state_code": "ZA",
    "country_id": 207,
    "country_code": "ES",
    "latitude": "41.94206000",
    "longitude": "-6.28647000",
    "wikiDataId": null
  },
  {
    "id": 38267,
    "name": "Villardiegua de la Ribera",
    "state_id": 1161,
    "state_code": "ZA",
    "country_id": 207,
    "country_code": "ES",
    "latitude": "41.53543000",
    "longitude": "-6.18327000",
    "wikiDataId": null
  },
  {
    "id": 38381,
    "name": "Villárdiga",
    "state_id": 1161,
    "state_code": "ZA",
    "country_id": 207,
    "country_code": "ES",
    "latitude": "41.81950000",
    "longitude": "-5.46439000",
    "wikiDataId": null
  },
  {
    "id": 38269,
    "name": "Villardondiego",
    "state_id": 1161,
    "state_code": "ZA",
    "country_id": 207,
    "country_code": "ES",
    "latitude": "41.58483000",
    "longitude": "-5.37707000",
    "wikiDataId": null
  },
  {
    "id": 38305,
    "name": "Villarrín de Campos",
    "state_id": 1161,
    "state_code": "ZA",
    "country_id": 207,
    "country_code": "ES",
    "latitude": "41.79522000",
    "longitude": "-5.63898000",
    "wikiDataId": null
  },
  {
    "id": 152675,
    "name": "Villaseco del Pan",
    "state_id": 1161,
    "state_code": "ZA",
    "country_id": 207,
    "country_code": "ES",
    "latitude": "41.46858500",
    "longitude": "-5.96541440",
    "wikiDataId": null
  },
  {
    "id": 38342,
    "name": "Villavendimio",
    "state_id": 1161,
    "state_code": "ZA",
    "country_id": 207,
    "country_code": "ES",
    "latitude": "41.57812000",
    "longitude": "-5.34287000",
    "wikiDataId": null
  },
  {
    "id": 38353,
    "name": "Villaveza de Valverde",
    "state_id": 1161,
    "state_code": "ZA",
    "country_id": 207,
    "country_code": "ES",
    "latitude": "41.94516000",
    "longitude": "-5.84849000",
    "wikiDataId": null
  },
  {
    "id": 38354,
    "name": "Villaveza del Agua",
    "state_id": 1161,
    "state_code": "ZA",
    "country_id": 207,
    "country_code": "ES",
    "latitude": "41.91922000",
    "longitude": "-5.67871000",
    "wikiDataId": null
  },
  {
    "id": 152676,
    "name": "Viñas",
    "state_id": 1161,
    "state_code": "ZA",
    "country_id": 207,
    "country_code": "ES",
    "latitude": "41.78778940",
    "longitude": "-6.46099980",
    "wikiDataId": null
  },
  {
    "id": 38465,
    "name": "Zamora",
    "state_id": 1161,
    "state_code": "ZA",
    "country_id": 207,
    "country_code": "ES",
    "latitude": "41.50633000",
    "longitude": "-5.74456000",
    "wikiDataId": null
  }
]