[
  {
    "id": 67827,
    "name": "Amaury",
    "state_id": 3261,
    "state_code": "RR",
    "country_id": 140,
    "country_code": "MU",
    "latitude": "-20.13083000",
    "longitude": "57.65917000",
    "wikiDataId": null
  },
  {
    "id": 153434,
    "name": "Amitié Gokoola",
    "state_id": 3261,
    "state_code": "RR",
    "country_id": 140,
    "country_code": "MU",
    "latitude": "-20.10688300",
    "longitude": "57.65472800",
    "wikiDataId": null
  },
  {
    "id": 67843,
    "name": "Cap Malheureux",
    "state_id": 3261,
    "state_code": "RR",
    "country_id": 140,
    "country_code": "MU",
    "latitude": "-19.98417000",
    "longitude": "57.61417000",
    "wikiDataId": null
  },
  {
    "id": 67852,
    "name": "Cottage",
    "state_id": 3261,
    "state_code": "RR",
    "country_id": 140,
    "country_code": "MU",
    "latitude": "-20.05972000",
    "longitude": "57.62917000",
    "wikiDataId": null
  },
  {
    "id": 67859,
    "name": "Espérance Trébuchet",
    "state_id": 3261,
    "state_code": "RR",
    "country_id": 140,
    "country_code": "MU",
    "latitude": "-20.06972000",
    "longitude": "57.64194000",
    "wikiDataId": null
  },
  {
    "id": 67862,
    "name": "Goodlands",
    "state_id": 3261,
    "state_code": "RR",
    "country_id": 140,
    "country_code": "MU",
    "latitude": "-20.03841000",
    "longitude": "57.65055000",
    "wikiDataId": null
  },
  {
    "id": 67863,
    "name": "Grand Baie",
    "state_id": 3261,
    "state_code": "RR",
    "country_id": 140,
    "country_code": "MU",
    "latitude": "-20.01816000",
    "longitude": "57.58015000",
    "wikiDataId": null
  },
  {
    "id": 67865,
    "name": "Grand Gaube",
    "state_id": 3261,
    "state_code": "RR",
    "country_id": 140,
    "country_code": "MU",
    "latitude": "-20.00639000",
    "longitude": "57.66083000",
    "wikiDataId": null
  },
  {
    "id": 67875,
    "name": "Mapou",
    "state_id": 3261,
    "state_code": "RR",
    "country_id": 140,
    "country_code": "MU",
    "latitude": "-20.07583000",
    "longitude": "57.60139000",
    "wikiDataId": null
  },
  {
    "id": 67887,
    "name": "Petit Raffray",
    "state_id": 3261,
    "state_code": "RR",
    "country_id": 140,
    "country_code": "MU",
    "latitude": "-20.02022000",
    "longitude": "57.62296000",
    "wikiDataId": null
  },
  {
    "id": 67890,
    "name": "Piton",
    "state_id": 3261,
    "state_code": "RR",
    "country_id": 140,
    "country_code": "MU",
    "latitude": "-20.09028000",
    "longitude": "57.63028000",
    "wikiDataId": null
  },
  {
    "id": 67893,
    "name": "Plaines des Roches",
    "state_id": 3261,
    "state_code": "RR",
    "country_id": 140,
    "country_code": "MU",
    "latitude": "-20.11167000",
    "longitude": "57.69083000",
    "wikiDataId": null
  },
  {
    "id": 153431,
    "name": "Poudre D'Or",
    "state_id": 3261,
    "state_code": "RR",
    "country_id": 140,
    "country_code": "MU",
    "latitude": "-20.06162700",
    "longitude": "57.68297100",
    "wikiDataId": null
  },
  {
    "id": 153432,
    "name": "Poudre D'Or Hamlet",
    "state_id": 3261,
    "state_code": "RR",
    "country_id": 140,
    "country_code": "MU",
    "latitude": "-20.08102400",
    "longitude": "57.65272600",
    "wikiDataId": null
  },
  {
    "id": 67905,
    "name": "Rivière du Rempart",
    "state_id": 3261,
    "state_code": "RR",
    "country_id": 140,
    "country_code": "MU",
    "latitude": "-20.10306000",
    "longitude": "57.68472000",
    "wikiDataId": null
  },
  {
    "id": 67906,
    "name": "Roche Terre",
    "state_id": 3261,
    "state_code": "RR",
    "country_id": 140,
    "country_code": "MU",
    "latitude": "-20.01861000",
    "longitude": "57.64472000",
    "wikiDataId": null
  },
  {
    "id": 67907,
    "name": "Roches Noire",
    "state_id": 3261,
    "state_code": "RR",
    "country_id": 140,
    "country_code": "MU",
    "latitude": "-20.11111000",
    "longitude": "57.71222000",
    "wikiDataId": null
  },
  {
    "id": 67918,
    "name": "The Vale",
    "state_id": 3261,
    "state_code": "RR",
    "country_id": 140,
    "country_code": "MU",
    "latitude": "-20.03018000",
    "longitude": "57.60219000",
    "wikiDataId": null
  }
]