[
  {
    "id": 129903,
    "name": "Beshariq",
    "state_id": 2538,
    "state_code": "FA",
    "country_id": 236,
    "country_code": "UZ",
    "latitude": "40.43583000",
    "longitude": "70.61028000",
    "wikiDataId": null
  },
  {
    "id": 129923,
    "name": "Fergana",
    "state_id": 2538,
    "state_code": "FA",
    "country_id": 236,
    "country_code": "UZ",
    "latitude": "40.38421000",
    "longitude": "71.78432000",
    "wikiDataId": null
  },
  {
    "id": 129932,
    "name": "Hamza",
    "state_id": 2538,
    "state_code": "FA",
    "country_id": 236,
    "country_code": "UZ",
    "latitude": "40.42762000",
    "longitude": "71.50534000",
    "wikiDataId": null
  },
  {
    "id": 129948,
    "name": "Kirguli",
    "state_id": 2538,
    "state_code": "FA",
    "country_id": 236,
    "country_code": "UZ",
    "latitude": "40.43553000",
    "longitude": "71.76721000",
    "wikiDataId": null
  },
  {
    "id": 129955,
    "name": "Marg‘ilon",
    "state_id": 2538,
    "state_code": "FA",
    "country_id": 236,
    "country_code": "UZ",
    "latitude": "40.47237000",
    "longitude": "71.72463000",
    "wikiDataId": null
  },
  {
    "id": 129969,
    "name": "Oltiariq",
    "state_id": 2538,
    "state_code": "FA",
    "country_id": 236,
    "country_code": "UZ",
    "latitude": "40.39194000",
    "longitude": "71.47417000",
    "wikiDataId": null
  },
  {
    "id": 129986,
    "name": "Qo‘qon",
    "state_id": 2538,
    "state_code": "FA",
    "country_id": 236,
    "country_code": "UZ",
    "latitude": "40.52861000",
    "longitude": "70.94250000",
    "wikiDataId": null
  },
  {
    "id": 129988,
    "name": "Quva",
    "state_id": 2538,
    "state_code": "FA",
    "country_id": 236,
    "country_code": "UZ",
    "latitude": "40.52204000",
    "longitude": "72.07292000",
    "wikiDataId": null
  },
  {
    "id": 129989,
    "name": "Quvasoy",
    "state_id": 2538,
    "state_code": "FA",
    "country_id": 236,
    "country_code": "UZ",
    "latitude": "40.29721000",
    "longitude": "71.98026000",
    "wikiDataId": null
  },
  {
    "id": 129992,
    "name": "Rishton",
    "state_id": 2538,
    "state_code": "FA",
    "country_id": 236,
    "country_code": "UZ",
    "latitude": "40.35667000",
    "longitude": "71.28472000",
    "wikiDataId": null
  },
  {
    "id": 130000,
    "name": "Shohimardon",
    "state_id": 2538,
    "state_code": "FA",
    "country_id": 236,
    "country_code": "UZ",
    "latitude": "39.98322000",
    "longitude": "71.80512000",
    "wikiDataId": null
  },
  {
    "id": 130004,
    "name": "So‘x Tumani",
    "state_id": 2538,
    "state_code": "FA",
    "country_id": 236,
    "country_code": "UZ",
    "latitude": "40.04417000",
    "longitude": "71.09417000",
    "wikiDataId": null
  },
  {
    "id": 130008,
    "name": "Toshloq",
    "state_id": 2538,
    "state_code": "FA",
    "country_id": 236,
    "country_code": "UZ",
    "latitude": "40.47722000",
    "longitude": "71.76778000",
    "wikiDataId": null
  },
  {
    "id": 130019,
    "name": "Yangi Marg‘ilon",
    "state_id": 2538,
    "state_code": "FA",
    "country_id": 236,
    "country_code": "UZ",
    "latitude": "40.42722000",
    "longitude": "71.71889000",
    "wikiDataId": null
  },
  {
    "id": 130025,
    "name": "Yaypan",
    "state_id": 2538,
    "state_code": "FA",
    "country_id": 236,
    "country_code": "UZ",
    "latitude": "40.37583000",
    "longitude": "70.81556000",
    "wikiDataId": null
  }
]