[
  {
    "id": 48477,
    "name": "Bere Regis",
    "state_id": 5459,
    "state_code": "BCP",
    "country_id": 232,
    "country_code": "GB",
    "latitude": "50.75371000",
    "longitude": "-2.21553000",
    "wikiDataId": null
  },
  {
    "id": 48561,
    "name": "Blandford Forum",
    "state_id": 5459,
    "state_code": "BCP",
    "country_id": 232,
    "country_code": "GB",
    "latitude": "50.86073000",
    "longitude": "-2.16174000",
    "wikiDataId": null
  },
  {
    "id": 48625,
    "name": "Bournemouth",
    "state_id": 5459,
    "state_code": "BCP",
    "country_id": 232,
    "country_code": "GB",
    "latitude": "50.71918000",
    "longitude": "-1.87806000",
    "wikiDataId": null
  },
  {
    "id": 48630,
    "name": "Bovington Camp",
    "state_id": 5459,
    "state_code": "BCP",
    "country_id": 232,
    "country_code": "GB",
    "latitude": "50.69782000",
    "longitude": "-2.23506000",
    "wikiDataId": null
  },
  {
    "id": 48713,
    "name": "Broadstone",
    "state_id": 5459,
    "state_code": "BCP",
    "country_id": 232,
    "country_code": "GB",
    "latitude": "50.75717000",
    "longitude": "-1.99406000",
    "wikiDataId": null
  },
  {
    "id": 48844,
    "name": "Canford Heath",
    "state_id": 5459,
    "state_code": "BCP",
    "country_id": 232,
    "country_code": "GB",
    "latitude": "50.75100000",
    "longitude": "-1.96862000",
    "wikiDataId": null
  },
  {
    "id": 48926,
    "name": "Charlton Marshall",
    "state_id": 5459,
    "state_code": "BCP",
    "country_id": 232,
    "country_code": "GB",
    "latitude": "50.83591000",
    "longitude": "-2.14231000",
    "wikiDataId": null
  },
  {
    "id": 48966,
    "name": "Child Okeford",
    "state_id": 5459,
    "state_code": "BCP",
    "country_id": 232,
    "country_code": "GB",
    "latitude": "50.91370000",
    "longitude": "-2.23679000",
    "wikiDataId": null
  },
  {
    "id": 48988,
    "name": "Christchurch",
    "state_id": 5459,
    "state_code": "BCP",
    "country_id": 232,
    "country_code": "GB",
    "latitude": "50.73583000",
    "longitude": "-1.78129000",
    "wikiDataId": null
  },
  {
    "id": 49105,
    "name": "Corfe Castle",
    "state_id": 5459,
    "state_code": "BCP",
    "country_id": 232,
    "country_code": "GB",
    "latitude": "50.63947000",
    "longitude": "-2.05672000",
    "wikiDataId": null
  },
  {
    "id": 49547,
    "name": "Ferndown",
    "state_id": 5459,
    "state_code": "BCP",
    "country_id": 232,
    "country_code": "GB",
    "latitude": "50.80743000",
    "longitude": "-1.89975000",
    "wikiDataId": null
  },
  {
    "id": 50455,
    "name": "Lytchett Matravers",
    "state_id": 5459,
    "state_code": "BCP",
    "country_id": 232,
    "country_code": "GB",
    "latitude": "50.75826000",
    "longitude": "-2.07806000",
    "wikiDataId": null
  },
  {
    "id": 50637,
    "name": "Motcombe",
    "state_id": 5459,
    "state_code": "BCP",
    "country_id": 232,
    "country_code": "GB",
    "latitude": "51.02929000",
    "longitude": "-2.21627000",
    "wikiDataId": null
  },
  {
    "id": 50855,
    "name": "Parkstone",
    "state_id": 5459,
    "state_code": "BCP",
    "country_id": 232,
    "country_code": "GB",
    "latitude": "50.72994000",
    "longitude": "-1.94492000",
    "wikiDataId": null
  },
  {
    "id": 50912,
    "name": "Pimperne",
    "state_id": 5459,
    "state_code": "BCP",
    "country_id": 232,
    "country_code": "GB",
    "latitude": "50.88374000",
    "longitude": "-2.13620000",
    "wikiDataId": null
  },
  {
    "id": 50949,
    "name": "Poole",
    "state_id": 5459,
    "state_code": "BCP",
    "country_id": 232,
    "country_code": "GB",
    "latitude": "50.73333000",
    "longitude": "-1.96667000",
    "wikiDataId": null
  },
  {
    "id": 51244,
    "name": "Shaftesbury",
    "state_id": 5459,
    "state_code": "BCP",
    "country_id": 232,
    "country_code": "GB",
    "latitude": "51.00528000",
    "longitude": "-2.19333000",
    "wikiDataId": null
  },
  {
    "id": 51280,
    "name": "Shillingstone",
    "state_id": 5459,
    "state_code": "BCP",
    "country_id": 232,
    "country_code": "GB",
    "latitude": "50.89567000",
    "longitude": "-2.24495000",
    "wikiDataId": null
  },
  {
    "id": 51400,
    "name": "St Leonards",
    "state_id": 5459,
    "state_code": "BCP",
    "country_id": 232,
    "country_code": "GB",
    "latitude": "50.83077000",
    "longitude": "-1.84377000",
    "wikiDataId": null
  },
  {
    "id": 51505,
    "name": "Sturminster Marshall",
    "state_id": 5459,
    "state_code": "BCP",
    "country_id": 232,
    "country_code": "GB",
    "latitude": "50.79968000",
    "longitude": "-2.07615000",
    "wikiDataId": null
  },
  {
    "id": 51528,
    "name": "Swanage",
    "state_id": 5459,
    "state_code": "BCP",
    "country_id": 232,
    "country_code": "GB",
    "latitude": "50.60923000",
    "longitude": "-1.96260000",
    "wikiDataId": null
  },
  {
    "id": 51612,
    "name": "Three Legged Cross",
    "state_id": 5459,
    "state_code": "BCP",
    "country_id": 232,
    "country_code": "GB",
    "latitude": "50.85000000",
    "longitude": "-1.88333000",
    "wikiDataId": null
  },
  {
    "id": 51716,
    "name": "Verwood",
    "state_id": 5459,
    "state_code": "BCP",
    "country_id": 232,
    "country_code": "GB",
    "latitude": "50.87575000",
    "longitude": "-1.87023000",
    "wikiDataId": null
  },
  {
    "id": 51749,
    "name": "Wareham",
    "state_id": 5459,
    "state_code": "BCP",
    "country_id": 232,
    "country_code": "GB",
    "latitude": "50.68792000",
    "longitude": "-2.11058000",
    "wikiDataId": null
  },
  {
    "id": 51917,
    "name": "Wimborne Minster",
    "state_id": 5459,
    "state_code": "BCP",
    "country_id": 232,
    "country_code": "GB",
    "latitude": "50.78333000",
    "longitude": "-1.98333000",
    "wikiDataId": null
  },
  {
    "id": 51978,
    "name": "Wool",
    "state_id": 5459,
    "state_code": "BCP",
    "country_id": 232,
    "country_code": "GB",
    "latitude": "50.67966000",
    "longitude": "-2.21890000",
    "wikiDataId": null
  }
]