[
  {
    "id": 329,
    "name": "Abim",
    "country_id": 229,
    "country_code": "UG",
    "state_code": "314",
    "type": "district",
    "latitude": "2.80475030",
    "longitude": "33.75097700",
    "iso3166_2": "UG-314",
    "native": "Abim",
    "timezone": "Africa/Kampala"
  },
  {
    "id": 361,
    "name": "Adjumani",
    "country_id": 229,
    "country_code": "UG",
    "state_code": "301",
    "type": "district",
    "latitude": "3.23712800",
    "longitude": "31.78582460",
    "iso3166_2": "UG-301",
    "native": "Adjumani",
    "timezone": "Africa/Kampala"
  },
  {
    "id": 392,
    "name": "Agago",
    "country_id": 229,
    "country_code": "UG",
    "state_code": "322",
    "type": "district",
    "latitude": "2.94765980",
    "longitude": "33.38610570",
    "iso3166_2": "UG-322",
    "native": "Agago",
    "timezone": "Africa/Kampala"
  },
  {
    "id": 344,
    "name": "Alebtong",
    "country_id": 229,
    "country_code": "UG",
    "state_code": "323",
    "type": "district",
    "latitude": "2.26740650",
    "longitude": "33.32002260",
    "iso3166_2": "UG-323",
    "native": "Alebtong",
    "timezone": "Africa/Kampala"
  },
  {
    "id": 416,
    "name": "Amolatar",
    "country_id": 229,
    "country_code": "UG",
    "state_code": "315",
    "type": "district",
    "latitude": "1.63745960",
    "longitude": "32.63282290",
    "iso3166_2": "UG-315",
    "native": "Amolatar",
    "timezone": "Africa/Kampala"
  },
  {
    "id": 353,
    "name": "Amudat",
    "country_id": 229,
    "country_code": "UG",
    "state_code": "324",
    "type": "district",
    "latitude": "1.82619580",
    "longitude": "34.93126980",
    "iso3166_2": "UG-324",
    "native": "Amudat",
    "timezone": "Africa/Kampala"
  },
  {
    "id": 352,
    "name": "Amuria",
    "country_id": 229,
    "country_code": "UG",
    "state_code": "216",
    "type": "district",
    "latitude": "1.98190770",
    "longitude": "33.65747190",
    "iso3166_2": "UG-216",
    "native": "Briefly",
    "timezone": "Africa/Kampala"
  },
  {
    "id": 335,
    "name": "Amuru",
    "country_id": 229,
    "country_code": "UG",
    "state_code": "316",
    "type": "district",
    "latitude": "3.12886550",
    "longitude": "32.10248330",
    "iso3166_2": "UG-316",
    "native": "Birth",
    "timezone": "Africa/Kampala"
  },
  {
    "id": 328,
    "name": "Apac",
    "country_id": 229,
    "country_code": "UG",
    "state_code": "302",
    "type": "district",
    "latitude": "1.93372580",
    "longitude": "32.50180280",
    "iso3166_2": "UG-302",
    "native": "Apac",
    "timezone": "Africa/Kampala"
  },
  {
    "id": 447,
    "name": "Arua",
    "country_id": 229,
    "country_code": "UG",
    "state_code": "303",
    "type": "district",
    "latitude": "3.00140960",
    "longitude": "31.00935270",
    "iso3166_2": "UG-303",
    "native": "Arua",
    "timezone": "Africa/Kampala"
  },
  {
    "id": 441,
    "name": "Budaka",
    "country_id": 229,
    "country_code": "UG",
    "state_code": "217",
    "type": "district",
    "latitude": "1.06581900",
    "longitude": "34.02089310",
    "iso3166_2": "UG-217",
    "native": "Budak",
    "timezone": "Africa/Kampala"
  },
  {
    "id": 349,
    "name": "Bududa",
    "country_id": 229,
    "country_code": "UG",
    "state_code": "218",
    "type": "district",
    "latitude": "1.02718130",
    "longitude": "34.39078450",
    "iso3166_2": "UG-218",
    "native": "Bududa",
    "timezone": "Africa/Kampala"
  },
  {
    "id": 387,
    "name": "Bugiri",
    "country_id": 229,
    "country_code": "UG",
    "state_code": "201",
    "type": "district",
    "latitude": "0.52072100",
    "longitude": "33.77506980",
    "iso3166_2": "UG-201",
    "native": "Bugiri",
    "timezone": "Africa/Kampala"
  },
  {
    "id": 5350,
    "name": "Bugweri",
    "country_id": 229,
    "country_code": "UG",
    "state_code": "235",
    "type": "district",
    "latitude": "0.62425640",
    "longitude": "33.61543830",
    "iso3166_2": "UG-235",
    "native": "Bugwy",
    "timezone": "Africa/Kampala"
  },
  {
    "id": 391,
    "name": "Buhweju",
    "country_id": 229,
    "country_code": "UG",
    "state_code": "420",
    "type": "district",
    "latitude": "-0.32032120",
    "longitude": "30.31620540",
    "iso3166_2": "UG-420",
    "native": "Buhwe",
    "timezone": "Africa/Kampala"
  },
  {
    "id": 377,
    "name": "Buikwe",
    "country_id": 229,
    "country_code": "UG",
    "state_code": "117",
    "type": "district",
    "latitude": "0.34057740",
    "longitude": "33.01077280",
    "iso3166_2": "UG-117",
    "native": "It has been given",
    "timezone": "Africa/Kampala"
  },
  {
    "id": 343,
    "name": "Bukedea",
    "country_id": 229,
    "country_code": "UG",
    "state_code": "219",
    "type": "district",
    "latitude": "1.37070480",
    "longitude": "34.14247620",
    "iso3166_2": "UG-219",
    "native": "Boule",
    "timezone": "Africa/Kampala"
  },
  {
    "id": 375,
    "name": "Bukomansimbi",
    "country_id": 229,
    "country_code": "UG",
    "state_code": "118",
    "type": "district",
    "latitude": "-0.12687030",
    "longitude": "31.62259520",
    "iso3166_2": "UG-118",
    "native": "Bukomansimbi",
    "timezone": "Africa/Kampala"
  },
  {
    "id": 385,
    "name": "Bukwo",
    "country_id": 229,
    "country_code": "UG",
    "state_code": "220",
    "type": "district",
    "latitude": "1.25498480",
    "longitude": "34.69243240",
    "iso3166_2": "UG-220",
    "native": "Bukyo",
    "timezone": "Africa/Kampala"
  },
  {
    "id": 428,
    "name": "Bulambuli",
    "country_id": 229,
    "country_code": "UG",
    "state_code": "225",
    "type": "district",
    "latitude": "1.34949890",
    "longitude": "34.27609490",
    "iso3166_2": "UG-225",
    "native": "Ram",
    "timezone": "Africa/Kampala"
  },
  {
    "id": 389,
    "name": "Buliisa",
    "country_id": 229,
    "country_code": "UG",
    "state_code": "416",
    "type": "district",
    "latitude": "1.92285630",
    "longitude": "31.39175650",
    "iso3166_2": "UG-416",
    "native": "Belies",
    "timezone": "Africa/Kampala"
  },
  {
    "id": 419,
    "name": "Bundibugyo",
    "country_id": 229,
    "country_code": "UG",
    "state_code": "401",
    "type": "district",
    "latitude": "0.66059360",
    "longitude": "30.04310080",
    "iso3166_2": "UG-401",
    "native": "Bundibugyo",
    "timezone": "Africa/Kampala"
  },
  {
    "id": 381,
    "name": "Bunyangabu",
    "country_id": 229,
    "country_code": "UG",
    "state_code": "430",
    "type": "district",
    "latitude": "0.48709180",
    "longitude": "30.20510960",
    "iso3166_2": "UG-430",
    "native": "Bunyangabu",
    "timezone": "Africa/Kampala"
  },
  {
    "id": 386,
    "name": "Bushenyi",
    "country_id": 229,
    "country_code": "UG",
    "state_code": "402",
    "type": "district",
    "latitude": "-0.48181320",
    "longitude": "30.16868510",
    "iso3166_2": "UG-402",
    "native": "Bushenyi",
    "timezone": "Africa/Kampala"
  },
  {
    "id": 431,
    "name": "Busia",
    "country_id": 229,
    "country_code": "UG",
    "state_code": "202",
    "type": "district",
    "latitude": "0.39171030",
    "longitude": "34.01601350",
    "iso3166_2": "UG-202",
    "native": "Busia",
    "timezone": "Africa/Kampala"
  },
  {
    "id": 365,
    "name": "Butaleja",
    "country_id": 229,
    "country_code": "UG",
    "state_code": "221",
    "type": "district",
    "latitude": "0.86124770",
    "longitude": "33.87796370",
    "iso3166_2": "UG-221",
    "native": "Business",
    "timezone": "Africa/Kampala"
  },
  {
    "id": 384,
    "name": "Butambala",
    "country_id": 229,
    "country_code": "UG",
    "state_code": "119",
    "type": "district",
    "latitude": "0.16426530",
    "longitude": "32.13523710",
    "iso3166_2": "UG-119",
    "native": "Get the",
    "timezone": "Africa/Kampala"
  },
  {
    "id": 388,
    "name": "Butebo",
    "country_id": 229,
    "country_code": "UG",
    "state_code": "233",
    "type": "district",
    "latitude": "1.19238610",
    "longitude": "33.89040920",
    "iso3166_2": "UG-233",
    "native": "Butebo",
    "timezone": "Africa/Kampala"
  },
  {
    "id": 414,
    "name": "Buvuma",
    "country_id": 229,
    "country_code": "UG",
    "state_code": "120",
    "type": "district",
    "latitude": "-0.31139270",
    "longitude": "33.19780600",
    "iso3166_2": "UG-120",
    "native": "Buvuma",
    "timezone": "Africa/Kampala"
  },
  {
    "id": 380,
    "name": "Buyende",
    "country_id": 229,
    "country_code": "UG",
    "state_code": "226",
    "type": "district",
    "latitude": "1.23523800",
    "longitude": "33.17035330",
    "iso3166_2": "UG-226",
    "native": "Ring",
    "timezone": "Africa/Kampala"
  },
  {
    "id": 396,
    "name": "Central",
    "country_id": 229,
    "country_code": "UG",
    "state_code": "C",
    "type": "region",
    "latitude": "2.23387120",
    "longitude": "32.90421390",
    "iso3166_2": "UG-C",
    "native": "Central",
    "timezone": "Africa/Kampala"
  },
  {
    "id": 341,
    "name": "Dokolo",
    "country_id": 229,
    "country_code": "UG",
    "state_code": "317",
    "type": "district",
    "latitude": "1.91008220",
    "longitude": "33.07963350",
    "iso3166_2": "UG-317",
    "native": "DOCTORY",
    "timezone": "Africa/Kampala"
  },
  {
    "id": 372,
    "name": "Eastern",
    "country_id": 229,
    "country_code": "UG",
    "state_code": "E",
    "type": "region",
    "latitude": "0.42323000",
    "longitude": "33.17126510",
    "iso3166_2": "UG-E",
    "native": "Eastern",
    "timezone": "Africa/Kampala"
  },
  {
    "id": 366,
    "name": "Gomba",
    "country_id": 229,
    "country_code": "UG",
    "state_code": "121",
    "type": "district",
    "latitude": "0.20426630",
    "longitude": "31.72917720",
    "iso3166_2": "UG-121",
    "native": "Mushroom",
    "timezone": "Africa/Kampala"
  },
  {
    "id": 413,
    "name": "Gulu",
    "country_id": 229,
    "country_code": "UG",
    "state_code": "304",
    "type": "district",
    "latitude": "2.77023900",
    "longitude": "32.30442730",
    "iso3166_2": "UG-304",
    "native": "Cavalry",
    "timezone": "Africa/Kampala"
  },
  {
    "id": 5358,
    "name": "Hoima",
    "country_id": 229,
    "country_code": "UG",
    "state_code": "403",
    "type": "district",
    "latitude": "1.56619270",
    "longitude": "31.14809680",
    "iso3166_2": "UG-403",
    "native": "Hoima",
    "timezone": "Africa/Kampala"
  },
  {
    "id": 339,
    "name": "Ibanda",
    "country_id": 229,
    "country_code": "UG",
    "state_code": "417",
    "type": "district",
    "latitude": "-0.06121830",
    "longitude": "30.49161600",
    "iso3166_2": "UG-417",
    "native": "Ibanda",
    "timezone": "Africa/Kampala"
  },
  {
    "id": 340,
    "name": "Iganga",
    "country_id": 229,
    "country_code": "UG",
    "state_code": "203",
    "type": "district",
    "latitude": "0.72219110",
    "longitude": "33.50169350",
    "iso3166_2": "UG-203",
    "native": "Iganga",
    "timezone": "Africa/Kampala"
  },
  {
    "id": 383,
    "name": "Isingiro",
    "country_id": 229,
    "country_code": "UG",
    "state_code": "418",
    "type": "district",
    "latitude": "-0.83886950",
    "longitude": "30.93565590",
    "iso3166_2": "UG-418",
    "native": "Isingiro",
    "timezone": "Africa/Kampala"
  },
  {
    "id": 367,
    "name": "Jinja",
    "country_id": 229,
    "country_code": "UG",
    "state_code": "204",
    "type": "district",
    "latitude": "0.57515670",
    "longitude": "33.28052990",
    "iso3166_2": "UG-204",
    "native": "Jinja",
    "timezone": "Africa/Kampala"
  },
  {
    "id": 434,
    "name": "Kaabong",
    "country_id": 229,
    "country_code": "UG",
    "state_code": "318",
    "type": "district",
    "latitude": "3.65820610",
    "longitude": "34.21112340",
    "iso3166_2": "UG-318",
    "native": "Kaabong",
    "timezone": "Africa/Kampala"
  },
  {
    "id": 426,
    "name": "Kabale",
    "country_id": 229,
    "country_code": "UG",
    "state_code": "404",
    "type": "district",
    "latitude": "-1.33596670",
    "longitude": "30.03688600",
    "iso3166_2": "UG-404",
    "native": "Cabal",
    "timezone": "Africa/Kampala"
  },
  {
    "id": 326,
    "name": "Kabarole",
    "country_id": 229,
    "country_code": "UG",
    "state_code": "405",
    "type": "district",
    "latitude": "0.62124920",
    "longitude": "30.35254470",
    "iso3166_2": "UG-405",
    "native": "Kabarole",
    "timezone": "Africa/Kampala"
  },
  {
    "id": 336,
    "name": "Kaberamaido",
    "country_id": 229,
    "country_code": "UG",
    "state_code": "213",
    "type": "district",
    "latitude": "1.68796740",
    "longitude": "33.11748880",
    "iso3166_2": "UG-213",
    "native": "Kaberamaido",
    "timezone": "Africa/Kampala"
  },
  {
    "id": 403,
    "name": "Kagadi",
    "country_id": 229,
    "country_code": "UG",
    "state_code": "427",
    "type": "district",
    "latitude": "1.02297720",
    "longitude": "30.83308910",
    "iso3166_2": "UG-427",
    "native": "Kagadi",
    "timezone": "Africa/Kampala"
  },
  {
    "id": 399,
    "name": "Kakumiro",
    "country_id": 229,
    "country_code": "UG",
    "state_code": "428",
    "type": "district",
    "latitude": "0.96249320",
    "longitude": "31.29037890",
    "iso3166_2": "UG-428",
    "native": "Kakumiro",
    "timezone": "Africa/Kampala"
  },
  {
    "id": 5352,
    "name": "Kalaki",
    "country_id": 229,
    "country_code": "UG",
    "state_code": "237",
    "type": "district",
    "latitude": "1.83271640",
    "longitude": "33.35404480",
    "iso3166_2": "UG-237",
    "native": "Kalaki",
    "timezone": "Africa/Kampala"
  },
  {
    "id": 405,
    "name": "Kalangala",
    "country_id": 229,
    "country_code": "UG",
    "state_code": "101",
    "type": "district",
    "latitude": "-0.61419080",
    "longitude": "32.37556500",
    "iso3166_2": "UG-101",
    "native": "Kalangala",
    "timezone": "Africa/Kampala"
  },
  {
    "id": 398,
    "name": "Kaliro",
    "country_id": 229,
    "country_code": "UG",
    "state_code": "222",
    "type": "district",
    "latitude": "1.08336770",
    "longitude": "33.48221710",
    "iso3166_2": "UG-222",
    "native": "Kaliro",
    "timezone": "Africa/Kampala"
  },
  {
    "id": 394,
    "name": "Kalungu",
    "country_id": 229,
    "country_code": "UG",
    "state_code": "122",
    "type": "district",
    "latitude": "-0.09131310",
    "longitude": "31.81064650",
    "iso3166_2": "UG-122",
    "native": "Kalungu",
    "timezone": "Africa/Kampala"
  },
  {
    "id": 382,
    "name": "Kampala",
    "country_id": 229,
    "country_code": "UG",
    "state_code": "102",
    "type": "city",
    "latitude": "0.31771370",
    "longitude": "32.58135390",
    "iso3166_2": "UG-102",
    "native": "Kampala",
    "timezone": "Africa/Kampala"
  },
  {
    "id": 334,
    "name": "Kamuli",
    "country_id": 229,
    "country_code": "UG",
    "state_code": "205",
    "type": "district",
    "latitude": "0.94224740",
    "longitude": "33.12630040",
    "iso3166_2": "UG-205",
    "native": "Kamuli",
    "timezone": "Africa/Kampala"
  },
  {
    "id": 360,
    "name": "Kamwenge",
    "country_id": 229,
    "country_code": "UG",
    "state_code": "413",
    "type": "district",
    "latitude": "0.33733170",
    "longitude": "30.61505550",
    "iso3166_2": "UG-413",
    "native": "Kamwenge",
    "timezone": "Africa/Kampala"
  },
  {
    "id": 373,
    "name": "Kanungu",
    "country_id": 229,
    "country_code": "UG",
    "state_code": "414",
    "type": "district",
    "latitude": "-0.70639140",
    "longitude": "29.71429070",
    "iso3166_2": "UG-414",
    "native": "Kanungu",
    "timezone": "Africa/Kampala"
  },
  {
    "id": 432,
    "name": "Kapchorwa",
    "country_id": 229,
    "country_code": "UG",
    "state_code": "206",
    "type": "district",
    "latitude": "1.33502050",
    "longitude": "34.39763560",
    "iso3166_2": "UG-206",
    "native": "Kapchorwa",
    "timezone": "Africa/Kampala"
  },
  {
    "id": 5351,
    "name": "Kapelebyong",
    "country_id": 229,
    "country_code": "UG",
    "state_code": "236",
    "type": "district",
    "latitude": "2.19708200",
    "longitude": "33.77726330",
    "iso3166_2": "UG-236",
    "native": "Kapelebong",
    "timezone": "Africa/Kampala"
  },
  {
    "id": 5355,
    "name": "Karenga",
    "country_id": 229,
    "country_code": "UG",
    "state_code": "335",
    "type": "district",
    "latitude": "3.70956830",
    "longitude": "33.77168320",
    "iso3166_2": "UG-335",
    "native": "Karenga",
    "timezone": "Africa/Kampala"
  },
  {
    "id": 5349,
    "name": "Kasanda",
    "country_id": 229,
    "country_code": "UG",
    "state_code": "126",
    "type": "district",
    "latitude": "0.55666700",
    "longitude": "31.80222200",
    "iso3166_2": "UG-126",
    "native": "Kasanda",
    "timezone": "Africa/Kampala"
  },
  {
    "id": 440,
    "name": "Kasese",
    "country_id": 229,
    "country_code": "UG",
    "state_code": "406",
    "type": "district",
    "latitude": "0.13104120",
    "longitude": "30.00479680",
    "iso3166_2": "UG-406",
    "native": "Kasese",
    "timezone": "Africa/Kampala"
  },
  {
    "id": 420,
    "name": "Katakwi",
    "country_id": 229,
    "country_code": "UG",
    "state_code": "207",
    "type": "district",
    "latitude": "1.97310300",
    "longitude": "34.06414190",
    "iso3166_2": "UG-207",
    "native": "Katakwi",
    "timezone": "Africa/Kampala"
  },
  {
    "id": 368,
    "name": "Kayunga",
    "country_id": 229,
    "country_code": "UG",
    "state_code": "112",
    "type": "district",
    "latitude": "0.98601820",
    "longitude": "32.85357550",
    "iso3166_2": "UG-112",
    "native": "Kayunga",
    "timezone": "Africa/Kampala"
  },
  {
    "id": 5360,
    "name": "Kazo",
    "country_id": 229,
    "country_code": "UG",
    "state_code": "433",
    "type": "district",
    "latitude": "0.02560550",
    "longitude": "30.77762000",
    "iso3166_2": "UG-433",
    "native": "A tree",
    "timezone": "Africa/Kampala"
  },
  {
    "id": 436,
    "name": "Kibaale",
    "country_id": 229,
    "country_code": "UG",
    "state_code": "407",
    "type": "district",
    "latitude": "0.79083300",
    "longitude": "31.06333300",
    "iso3166_2": "UG-407",
    "native": "Kibaale",
    "timezone": "Africa/Kampala"
  },
  {
    "id": 347,
    "name": "Kiboga",
    "country_id": 229,
    "country_code": "UG",
    "state_code": "103",
    "type": "district",
    "latitude": "0.91485180",
    "longitude": "31.75089580",
    "iso3166_2": "UG-103",
    "native": "Kiboga",
    "timezone": "Africa/Kampala"
  },
  {
    "id": 338,
    "name": "Kibuku",
    "country_id": 229,
    "country_code": "UG",
    "state_code": "227",
    "type": "district",
    "latitude": "1.05737540",
    "longitude": "33.80561520",
    "iso3166_2": "UG-227",
    "native": "Kibuku",
    "timezone": "Africa/Kampala"
  },
  {
    "id": 5359,
    "name": "Kikuube",
    "country_id": 229,
    "country_code": "UG",
    "state_code": "432",
    "type": "district",
    "latitude": "1.31028750",
    "longitude": "31.00017240",
    "iso3166_2": "UG-432",
    "native": "It's 100%",
    "timezone": "Africa/Kampala"
  },
  {
    "id": 355,
    "name": "Kiruhura",
    "country_id": 229,
    "country_code": "UG",
    "state_code": "419",
    "type": "district",
    "latitude": "-0.32509080",
    "longitude": "30.87345990",
    "iso3166_2": "UG-419",
    "native": "KirUhura",
    "timezone": "Africa/Kampala"
  },
  {
    "id": 346,
    "name": "Kiryandongo",
    "country_id": 229,
    "country_code": "UG",
    "state_code": "421",
    "type": "district",
    "latitude": "1.99357990",
    "longitude": "32.04981790",
    "iso3166_2": "UG-421",
    "native": "Kiryandongo",
    "timezone": "Africa/Kampala"
  },
  {
    "id": 409,
    "name": "Kisoro",
    "country_id": 229,
    "country_code": "UG",
    "state_code": "408",
    "type": "district",
    "latitude": "-1.19896120",
    "longitude": "29.67169750",
    "iso3166_2": "UG-408",
    "native": "Kisoro",
    "timezone": "Africa/Kampala"
  },
  {
    "id": 5361,
    "name": "Kitagwenda",
    "country_id": 229,
    "country_code": "UG",
    "state_code": "434",
    "type": "district",
    "latitude": "0.01366530",
    "longitude": "30.32179080",
    "iso3166_2": "UG-434",
    "native": "Kitagwenda",
    "timezone": "Africa/Kampala"
  },
  {
    "id": 348,
    "name": "Kitgum",
    "country_id": 229,
    "country_code": "UG",
    "state_code": "305",
    "type": "district",
    "latitude": "3.44388450",
    "longitude": "33.48411720",
    "iso3166_2": "UG-305",
    "native": "Kitgum",
    "timezone": "Africa/Kampala"
  },
  {
    "id": 345,
    "name": "Koboko",
    "country_id": 229,
    "country_code": "UG",
    "state_code": "319",
    "type": "district",
    "latitude": "3.53511140",
    "longitude": "30.98482070",
    "iso3166_2": "UG-319",
    "native": "Koboko",
    "timezone": "Africa/Kampala"
  },
  {
    "id": 401,
    "name": "Kole",
    "country_id": 229,
    "country_code": "UG",
    "state_code": "325",
    "type": "district",
    "latitude": "2.29881580",
    "longitude": "32.73595220",
    "iso3166_2": "UG-325",
    "native": "Kole",
    "timezone": "Africa/Kampala"
  },
  {
    "id": 443,
    "name": "Kotido",
    "country_id": 229,
    "country_code": "UG",
    "state_code": "306",
    "type": "district",
    "latitude": "2.99518390",
    "longitude": "34.03421280",
    "iso3166_2": "UG-306",
    "native": "Cotido",
    "timezone": "Africa/Kampala"
  },
  {
    "id": 425,
    "name": "Kumi",
    "country_id": 229,
    "country_code": "UG",
    "state_code": "208",
    "type": "district",
    "latitude": "1.45654010",
    "longitude": "33.92191270",
    "iso3166_2": "UG-208",
    "native": "Kumi",
    "timezone": "Africa/Kampala"
  },
  {
    "id": 5353,
    "name": "Kwania",
    "country_id": 229,
    "country_code": "UG",
    "state_code": "333",
    "type": "district",
    "latitude": "1.90055310",
    "longitude": "32.77419860",
    "iso3166_2": "UG-333",
    "native": "For",
    "timezone": "Africa/Kampala"
  },
  {
    "id": 369,
    "name": "Kween",
    "country_id": 229,
    "country_code": "UG",
    "state_code": "228",
    "type": "district",
    "latitude": "1.35166490",
    "longitude": "34.56358070",
    "iso3166_2": "UG-228",
    "native": "Kween",
    "timezone": "Africa/Kampala"
  },
  {
    "id": 325,
    "name": "Kyankwanzi",
    "country_id": 229,
    "country_code": "UG",
    "state_code": "123",
    "type": "district",
    "latitude": "1.09334700",
    "longitude": "31.68139240",
    "iso3166_2": "UG-123",
    "native": "Clean",
    "timezone": "Africa/Kampala"
  },
  {
    "id": 437,
    "name": "Kyegegwa",
    "country_id": 229,
    "country_code": "UG",
    "state_code": "422",
    "type": "district",
    "latitude": "0.48221320",
    "longitude": "31.00020480",
    "iso3166_2": "UG-422",
    "native": "Kyegegwa",
    "timezone": "Africa/Kampala"
  },
  {
    "id": 402,
    "name": "Kyenjojo",
    "country_id": 229,
    "country_code": "UG",
    "state_code": "415",
    "type": "district",
    "latitude": "0.64409780",
    "longitude": "30.65651180",
    "iso3166_2": "UG-415",
    "native": "KYANJOJO",
    "timezone": "Africa/Kampala"
  },
  {
    "id": 448,
    "name": "Kyotera",
    "country_id": 229,
    "country_code": "UG",
    "state_code": "125",
    "type": "district",
    "latitude": "-0.71447020",
    "longitude": "31.62221370",
    "iso3166_2": "UG-125",
    "native": "Kyotera",
    "timezone": "Africa/Kampala"
  },
  {
    "id": 411,
    "name": "Lamwo",
    "country_id": 229,
    "country_code": "UG",
    "state_code": "326",
    "type": "district",
    "latitude": "3.52481250",
    "longitude": "32.65762730",
    "iso3166_2": "UG-326",
    "native": "Lamwo",
    "timezone": "Africa/Kampala"
  },
  {
    "id": 342,
    "name": "Lira",
    "country_id": 229,
    "country_code": "UG",
    "state_code": "307",
    "type": "district",
    "latitude": "2.24569180",
    "longitude": "32.89624400",
    "iso3166_2": "UG-307",
    "native": "Lira",
    "timezone": "Africa/Kampala"
  },
  {
    "id": 445,
    "name": "Luuka",
    "country_id": 229,
    "country_code": "UG",
    "state_code": "229",
    "type": "district",
    "latitude": "0.81993410",
    "longitude": "33.32689410",
    "iso3166_2": "UG-229",
    "native": "Bone",
    "timezone": "Africa/Kampala"
  },
  {
    "id": 433,
    "name": "Luwero",
    "country_id": 229,
    "country_code": "UG",
    "state_code": "104",
    "type": "district",
    "latitude": "0.84093560",
    "longitude": "32.49352730",
    "iso3166_2": "UG-104",
    "native": "Seaweed",
    "timezone": "Africa/Kampala"
  },
  {
    "id": 417,
    "name": "Lwengo",
    "country_id": 229,
    "country_code": "UG",
    "state_code": "124",
    "type": "district",
    "latitude": "-0.44411810",
    "longitude": "31.39901870",
    "iso3166_2": "UG-124",
    "native": "Lwengo",
    "timezone": "Africa/Kampala"
  },
  {
    "id": 376,
    "name": "Lyantonde",
    "country_id": 229,
    "country_code": "UG",
    "state_code": "114",
    "type": "district",
    "latitude": "-0.25959830",
    "longitude": "31.18363760",
    "iso3166_2": "UG-114",
    "native": "Lyantonde",
    "timezone": "Africa/Kampala"
  },
  {
    "id": 5356,
    "name": "Madi-Okollo",
    "country_id": 229,
    "country_code": "UG",
    "state_code": "336",
    "type": "district",
    "latitude": "2.86745110",
    "longitude": "31.23830880",
    "iso3166_2": "UG-336",
    "native": "Madi-Ooklo",
    "timezone": "Africa/Kampala"
  },
  {
    "id": 438,
    "name": "Manafwa",
    "country_id": 229,
    "country_code": "UG",
    "state_code": "223",
    "type": "district",
    "latitude": "0.88134680",
    "longitude": "34.26955070",
    "iso3166_2": "UG-223",
    "native": "Inhanish",
    "timezone": "Africa/Kampala"
  },
  {
    "id": 421,
    "name": "Maracha",
    "country_id": 229,
    "country_code": "UG",
    "state_code": "320",
    "type": "district",
    "latitude": "3.24784170",
    "longitude": "30.92791480",
    "iso3166_2": "UG-320",
    "native": "Maracha",
    "timezone": "Africa/Kampala"
  },
  {
    "id": 356,
    "name": "Masaka",
    "country_id": 229,
    "country_code": "UG",
    "state_code": "105",
    "type": "district",
    "latitude": "-0.48314200",
    "longitude": "31.83188950",
    "iso3166_2": "UG-105",
    "native": "Masaka",
    "timezone": "Africa/Kampala"
  },
  {
    "id": 354,
    "name": "Masindi",
    "country_id": 229,
    "country_code": "UG",
    "state_code": "409",
    "type": "district",
    "latitude": "1.69175340",
    "longitude": "31.77375240",
    "iso3166_2": "UG-409",
    "native": "Masindi",
    "timezone": "Africa/Kampala"
  },
  {
    "id": 418,
    "name": "Mayuge",
    "country_id": 229,
    "country_code": "UG",
    "state_code": "214",
    "type": "district",
    "latitude": "-0.20582930",
    "longitude": "33.58943760",
    "iso3166_2": "UG-214",
    "native": "Mayuge",
    "timezone": "Africa/Kampala"
  },
  {
    "id": 350,
    "name": "Mbale",
    "country_id": 229,
    "country_code": "UG",
    "state_code": "209",
    "type": "district",
    "latitude": "0.97657050",
    "longitude": "34.20218690",
    "iso3166_2": "UG-209",
    "native": "Dish",
    "timezone": "Africa/Kampala"
  },
  {
    "id": 415,
    "name": "Mbarara",
    "country_id": 229,
    "country_code": "UG",
    "state_code": "410",
    "type": "district",
    "latitude": "-0.60715960",
    "longitude": "30.65450220",
    "iso3166_2": "UG-410",
    "native": "Robbery",
    "timezone": "Africa/Kampala"
  },
  {
    "id": 435,
    "name": "Mitooma",
    "country_id": 229,
    "country_code": "UG",
    "state_code": "423",
    "type": "district",
    "latitude": "-0.60594640",
    "longitude": "30.00773450",
    "iso3166_2": "UG-423",
    "native": "Micooma",
    "timezone": "Africa/Kampala"
  },
  {
    "id": 364,
    "name": "Mityana",
    "country_id": 229,
    "country_code": "UG",
    "state_code": "115",
    "type": "district",
    "latitude": "0.45606860",
    "longitude": "32.07680240",
    "iso3166_2": "UG-115",
    "native": "Mityana",
    "timezone": "Africa/Kampala"
  },
  {
    "id": 395,
    "name": "Moroto",
    "country_id": 229,
    "country_code": "UG",
    "state_code": "308",
    "type": "district",
    "latitude": "2.61564540",
    "longitude": "34.63998170",
    "iso3166_2": "UG-308",
    "native": "Moroto",
    "timezone": "Africa/Kampala"
  },
  {
    "id": 363,
    "name": "Moyo",
    "country_id": 229,
    "country_code": "UG",
    "state_code": "309",
    "type": "district",
    "latitude": "3.66646650",
    "longitude": "31.75795110",
    "iso3166_2": "UG-309",
    "native": "Moyo",
    "timezone": "Africa/Kampala"
  },
  {
    "id": 327,
    "name": "Mpigi",
    "country_id": 229,
    "country_code": "UG",
    "state_code": "106",
    "type": "district",
    "latitude": "0.12739550",
    "longitude": "32.25275170",
    "iso3166_2": "UG-106",
    "native": "Mpigi",
    "timezone": "Africa/Kampala"
  },
  {
    "id": 371,
    "name": "Mubende",
    "country_id": 229,
    "country_code": "UG",
    "state_code": "107",
    "type": "district",
    "latitude": "0.51542790",
    "longitude": "31.40954760",
    "iso3166_2": "UG-107",
    "native": "The Valley",
    "timezone": "Africa/Kampala"
  },
  {
    "id": 410,
    "name": "Mukono",
    "country_id": 229,
    "country_code": "UG",
    "state_code": "108",
    "type": "district",
    "latitude": "0.36089910",
    "longitude": "32.74465990",
    "iso3166_2": "UG-108",
    "native": "Mukono",
    "timezone": "Africa/Kampala"
  },
  {
    "id": 5354,
    "name": "Nabilatuk",
    "country_id": 229,
    "country_code": "UG",
    "state_code": "334",
    "type": "district",
    "latitude": "2.03836660",
    "longitude": "34.58471250",
    "iso3166_2": "UG-334",
    "native": "Nabilatuk",
    "timezone": "Africa/Kampala"
  },
  {
    "id": 393,
    "name": "Nakapiripirit",
    "country_id": 229,
    "country_code": "UG",
    "state_code": "311",
    "type": "district",
    "latitude": "1.84899130",
    "longitude": "34.64254780",
    "iso3166_2": "UG-311",
    "native": "Nakapiripirit Nakapiripirit",
    "timezone": "Africa/Kampala"
  },
  {
    "id": 423,
    "name": "Nakaseke",
    "country_id": 229,
    "country_code": "UG",
    "state_code": "116",
    "type": "district",
    "latitude": "1.00223730",
    "longitude": "32.17580870",
    "iso3166_2": "UG-116",
    "native": "Nakaseke",
    "timezone": "Africa/Kampala"
  },
  {
    "id": 406,
    "name": "Nakasongola",
    "country_id": 229,
    "country_code": "UG",
    "state_code": "109",
    "type": "district",
    "latitude": "1.32043580",
    "longitude": "32.48943470",
    "iso3166_2": "UG-109",
    "native": "Nakasongola",
    "timezone": "Africa/Kampala"
  },
  {
    "id": 351,
    "name": "Namayingo",
    "country_id": 229,
    "country_code": "UG",
    "state_code": "230",
    "type": "district",
    "latitude": "-0.24787870",
    "longitude": "33.81148020",
    "iso3166_2": "UG-230",
    "native": "Namayingo",
    "timezone": "Africa/Kampala"
  },
  {
    "id": 400,
    "name": "Namisindwa",
    "country_id": 229,
    "country_code": "UG",
    "state_code": "234",
    "type": "district",
    "latitude": "0.86783960",
    "longitude": "34.38314070",
    "iso3166_2": "UG-234",
    "native": "Namisindwa",
    "timezone": "Africa/Kampala"
  },
  {
    "id": 337,
    "name": "Namutumba",
    "country_id": 229,
    "country_code": "UG",
    "state_code": "224",
    "type": "district",
    "latitude": "0.88698520",
    "longitude": "33.66534940",
    "iso3166_2": "UG-224",
    "native": "Namutumba",
    "timezone": "Africa/Kampala"
  },
  {
    "id": 430,
    "name": "Napak",
    "country_id": 229,
    "country_code": "UG",
    "state_code": "327",
    "type": "district",
    "latitude": "2.39817270",
    "longitude": "34.17187850",
    "iso3166_2": "UG-327",
    "native": "Mistakes",
    "timezone": "Africa/Kampala"
  },
  {
    "id": 446,
    "name": "Nebbi",
    "country_id": 229,
    "country_code": "UG",
    "state_code": "310",
    "type": "district",
    "latitude": "2.43294060",
    "longitude": "31.16198880",
    "iso3166_2": "UG-310",
    "native": "Nebbi",
    "timezone": "Africa/Kampala"
  },
  {
    "id": 424,
    "name": "Ngora",
    "country_id": 229,
    "country_code": "UG",
    "state_code": "231",
    "type": "district",
    "latitude": "1.49888370",
    "longitude": "33.77292980",
    "iso3166_2": "UG-231",
    "native": "Ngora",
    "timezone": "Africa/Kampala"
  },
  {
    "id": 332,
    "name": "Northern",
    "country_id": 229,
    "country_code": "UG",
    "state_code": "N",
    "type": "region",
    "latitude": "2.79719800",
    "longitude": "32.26439490",
    "iso3166_2": "UG-N",
    "native": "Northern",
    "timezone": "Africa/Kampala"
  },
  {
    "id": 422,
    "name": "Ntoroko",
    "country_id": 229,
    "country_code": "UG",
    "state_code": "424",
    "type": "district",
    "latitude": "0.99157400",
    "longitude": "30.38495720",
    "iso3166_2": "UG-424",
    "native": "Nghoroko",
    "timezone": "Africa/Kampala"
  },
  {
    "id": 404,
    "name": "Ntungamo",
    "country_id": 229,
    "country_code": "UG",
    "state_code": "411",
    "type": "district",
    "latitude": "-0.95509300",
    "longitude": "30.30239280",
    "iso3166_2": "UG-411",
    "native": "Ntungamo",
    "timezone": "Africa/Kampala"
  },
  {
    "id": 378,
    "name": "Nwoya",
    "country_id": 229,
    "country_code": "UG",
    "state_code": "328",
    "type": "district",
    "latitude": "2.52762480",
    "longitude": "31.87003560",
    "iso3166_2": "UG-328",
    "native": "Nwoya",
    "timezone": "Africa/Kampala"
  },
  {
    "id": 5357,
    "name": "Obongi",
    "country_id": 229,
    "country_code": "UG",
    "state_code": "337",
    "type": "district",
    "latitude": "3.36355940",
    "longitude": "31.53682640",
    "iso3166_2": "UG-337",
    "native": "You are right",
    "timezone": "Africa/Kampala"
  },
  {
    "id": 374,
    "name": "Omoro",
    "country_id": 229,
    "country_code": "UG",
    "state_code": "331",
    "type": "district",
    "latitude": "2.64434480",
    "longitude": "32.49753420",
    "iso3166_2": "UG-331",
    "native": "Omoro",
    "timezone": "Africa/Kampala"
  },
  {
    "id": 390,
    "name": "Otuke",
    "country_id": 229,
    "country_code": "UG",
    "state_code": "329",
    "type": "district",
    "latitude": "2.47843340",
    "longitude": "33.39335630",
    "iso3166_2": "UG-329",
    "native": "Otuke",
    "timezone": "Africa/Kampala"
  },
  {
    "id": 397,
    "name": "Oyam",
    "country_id": 229,
    "country_code": "UG",
    "state_code": "321",
    "type": "district",
    "latitude": "2.34893450",
    "longitude": "32.42338600",
    "iso3166_2": "UG-321",
    "native": "Oyam",
    "timezone": "Africa/Kampala"
  },
  {
    "id": 408,
    "name": "Pader",
    "country_id": 229,
    "country_code": "UG",
    "state_code": "312",
    "type": "district",
    "latitude": "2.88760240",
    "longitude": "32.89628560",
    "iso3166_2": "UG-312",
    "native": "Wall",
    "timezone": "Africa/Kampala"
  },
  {
    "id": 357,
    "name": "Pakwach",
    "country_id": 229,
    "country_code": "UG",
    "state_code": "332",
    "type": "district",
    "latitude": "2.46071410",
    "longitude": "31.49417380",
    "iso3166_2": "UG-332",
    "native": "Pakwach",
    "timezone": "Africa/Kampala"
  },
  {
    "id": 412,
    "name": "Pallisa",
    "country_id": 229,
    "country_code": "UG",
    "state_code": "210",
    "type": "district",
    "latitude": "1.22007240",
    "longitude": "33.69148700",
    "iso3166_2": "UG-210",
    "native": "Pallisa",
    "timezone": "Africa/Kampala"
  },
  {
    "id": 439,
    "name": "Rakai",
    "country_id": 229,
    "country_code": "UG",
    "state_code": "110",
    "type": "district",
    "latitude": "-0.72641630",
    "longitude": "31.34008350",
    "iso3166_2": "UG-110",
    "native": "Rakai",
    "timezone": "Africa/Kampala"
  },
  {
    "id": 358,
    "name": "Rubanda",
    "country_id": 229,
    "country_code": "UG",
    "state_code": "429",
    "type": "district",
    "latitude": "-1.17320210",
    "longitude": "29.90033800",
    "iso3166_2": "UG-429",
    "native": "Public",
    "timezone": "Africa/Kampala"
  },
  {
    "id": 442,
    "name": "Rubirizi",
    "country_id": 229,
    "country_code": "UG",
    "state_code": "425",
    "type": "district",
    "latitude": "-0.25579130",
    "longitude": "29.93650000",
    "iso3166_2": "UG-425",
    "native": "Rubirizi",
    "timezone": "Africa/Kampala"
  },
  {
    "id": 331,
    "name": "Rukiga",
    "country_id": 229,
    "country_code": "UG",
    "state_code": "431",
    "type": "district",
    "latitude": "-1.14548070",
    "longitude": "30.05248500",
    "iso3166_2": "UG-431",
    "native": "Rukiga",
    "timezone": "Africa/Kampala"
  },
  {
    "id": 324,
    "name": "Rukungiri",
    "country_id": 229,
    "country_code": "UG",
    "state_code": "412",
    "type": "district",
    "latitude": "-0.69740300",
    "longitude": "29.89173640",
    "iso3166_2": "UG-412",
    "native": "Rukungiri",
    "timezone": "Africa/Kampala"
  },
  {
    "id": 5362,
    "name": "Rwampara",
    "country_id": 229,
    "country_code": "UG",
    "state_code": "435",
    "type": "district",
    "latitude": "-0.73503090",
    "longitude": "30.46091310",
    "iso3166_2": "UG-435",
    "native": "Rwampara",
    "timezone": "Africa/Kampala"
  },
  {
    "id": 427,
    "name": "Sembabule",
    "country_id": 229,
    "country_code": "UG",
    "state_code": "111",
    "type": "district",
    "latitude": "-0.05367920",
    "longitude": "31.41014590",
    "iso3166_2": "UG-111",
    "native": "Sembabule",
    "timezone": "Africa/Kampala"
  },
  {
    "id": 333,
    "name": "Serere",
    "country_id": 229,
    "country_code": "UG",
    "state_code": "232",
    "type": "district",
    "latitude": "1.49169890",
    "longitude": "33.35683680",
    "iso3166_2": "UG-232",
    "native": "Serene",
    "timezone": "Africa/Kampala"
  },
  {
    "id": 407,
    "name": "Sheema",
    "country_id": 229,
    "country_code": "UG",
    "state_code": "426",
    "type": "district",
    "latitude": "-0.59187200",
    "longitude": "30.37404170",
    "iso3166_2": "UG-426",
    "native": "Sheema",
    "timezone": "Africa/Kampala"
  },
  {
    "id": 429,
    "name": "Sironko",
    "country_id": 229,
    "country_code": "UG",
    "state_code": "215",
    "type": "district",
    "latitude": "1.18855350",
    "longitude": "34.29506740",
    "iso3166_2": "UG-215",
    "native": "Sironko",
    "timezone": "Africa/Kampala"
  },
  {
    "id": 444,
    "name": "Soroti",
    "country_id": 229,
    "country_code": "UG",
    "state_code": "211",
    "type": "district",
    "latitude": "1.78790590",
    "longitude": "33.50073140",
    "iso3166_2": "UG-211",
    "native": "Soroti",
    "timezone": "Africa/Kampala"
  },
  {
    "id": 359,
    "name": "Tororo",
    "country_id": 229,
    "country_code": "UG",
    "state_code": "212",
    "type": "district",
    "latitude": "0.74074210",
    "longitude": "34.10268620",
    "iso3166_2": "UG-212",
    "native": "Tororo",
    "timezone": "Africa/Kampala"
  },
  {
    "id": 362,
    "name": "Wakiso",
    "country_id": 229,
    "country_code": "UG",
    "state_code": "113",
    "type": "district",
    "latitude": "0.37609280",
    "longitude": "32.45612650",
    "iso3166_2": "UG-113",
    "native": "Wakiso",
    "timezone": "Africa/Kampala"
  },
  {
    "id": 370,
    "name": "Western",
    "country_id": 229,
    "country_code": "UG",
    "state_code": "W",
    "type": "region",
    "latitude": "-0.35615210",
    "longitude": "31.55025600",
    "iso3166_2": "UG-W",
    "native": "Western",
    "timezone": "Africa/Kampala"
  },
  {
    "id": 330,
    "name": "Yumbe",
    "country_id": 229,
    "country_code": "UG",
    "state_code": "313",
    "type": "district",
    "latitude": "3.49141060",
    "longitude": "31.28591490",
    "iso3166_2": "UG-313",
    "native": "Hello",
    "timezone": "Africa/Kampala"
  },
  {
    "id": 379,
    "name": "Zombo",
    "country_id": 229,
    "country_code": "UG",
    "state_code": "330",
    "type": "district",
    "latitude": "2.52511640",
    "longitude": "30.88973230",
    "iso3166_2": "UG-330",
    "native": "Vertical",
    "timezone": "Africa/Kampala"
  }
]