[
  {
    "id": 55046,
    "name": "Anse Rouge",
    "state_id": 4123,
    "state_code": "AR",
    "country_id": 95,
    "country_code": "HT",
    "latitude": "19.63382000",
    "longitude": "-73.05530000",
    "wikiDataId": null
  },
  {
    "id": 55064,
    "name": "Arrondissement de Saint-Marc",
    "state_id": 4123,
    "state_code": "AR",
    "country_id": 95,
    "country_code": "HT",
    "latitude": "19.00000000",
    "longitude": "-72.50000000",
    "wikiDataId": null
  },
  {
    "id": 55094,
    "name": "Désarmes",
    "state_id": 4123,
    "state_code": "AR",
    "country_id": 95,
    "country_code": "HT",
    "latitude": "18.99345000",
    "longitude": "-72.39058000",
    "wikiDataId": null
  },
  {
    "id": 55091,
    "name": "Dessalines",
    "state_id": 4123,
    "state_code": "AR",
    "country_id": 95,
    "country_code": "HT",
    "latitude": "19.26177000",
    "longitude": "-72.51611000",
    "wikiDataId": null
  },
  {
    "id": 55095,
    "name": "Ennery",
    "state_id": 4123,
    "state_code": "AR",
    "country_id": 95,
    "country_code": "HT",
    "latitude": "19.48342000",
    "longitude": "-72.48537000",
    "wikiDataId": null
  },
  {
    "id": 55102,
    "name": "Gonaïves",
    "state_id": 4123,
    "state_code": "AR",
    "country_id": 95,
    "country_code": "HT",
    "latitude": "19.44755000",
    "longitude": "-72.68928000",
    "wikiDataId": null
  },
  {
    "id": 55104,
    "name": "Grande Saline",
    "state_id": 4123,
    "state_code": "AR",
    "country_id": 95,
    "country_code": "HT",
    "latitude": "19.26513000",
    "longitude": "-72.76897000",
    "wikiDataId": null
  },
  {
    "id": 55107,
    "name": "Gros Morne",
    "state_id": 4123,
    "state_code": "AR",
    "country_id": 95,
    "country_code": "HT",
    "latitude": "19.67080000",
    "longitude": "-72.67808000",
    "wikiDataId": null
  },
  {
    "id": 55126,
    "name": "Marmelade",
    "state_id": 4123,
    "state_code": "AR",
    "country_id": 95,
    "country_code": "HT",
    "latitude": "19.51736000",
    "longitude": "-72.36133000",
    "wikiDataId": null
  },
  {
    "id": 55155,
    "name": "Saint-Marc",
    "state_id": 4123,
    "state_code": "AR",
    "country_id": 95,
    "country_code": "HT",
    "latitude": "19.10819000",
    "longitude": "-72.69379000",
    "wikiDataId": null
  },
  {
    "id": 55166,
    "name": "Verrettes",
    "state_id": 4123,
    "state_code": "AR",
    "country_id": 95,
    "country_code": "HT",
    "latitude": "19.05050000",
    "longitude": "-72.46585000",
    "wikiDataId": null
  }
]