[
  {
    "id": 52041,
    "name": "Akhalgori",
    "state_id": 902,
    "state_code": "MM",
    "country_id": 81,
    "country_code": "GE",
    "latitude": "42.12597000",
    "longitude": "44.48333000",
    "wikiDataId": null
  },
  {
    "id": 52064,
    "name": "Dzegvi",
    "state_id": 902,
    "state_code": "MM",
    "country_id": 81,
    "country_code": "GE",
    "latitude": "41.84569000",
    "longitude": "44.60097000",
    "wikiDataId": null
  },
  {
    "id": 52072,
    "name": "Gudauri",
    "state_id": 902,
    "state_code": "MM",
    "country_id": 81,
    "country_code": "GE",
    "latitude": "42.47797000",
    "longitude": "44.47616000",
    "wikiDataId": null
  },
  {
    "id": 52075,
    "name": "Java",
    "state_id": 902,
    "state_code": "MM",
    "country_id": 81,
    "country_code": "GE",
    "latitude": "42.39972000",
    "longitude": "43.93667000",
    "wikiDataId": null
  },
  {
    "id": 52100,
    "name": "Mtskheta",
    "state_id": 902,
    "state_code": "MM",
    "country_id": 81,
    "country_code": "GE",
    "latitude": "41.84514000",
    "longitude": "44.71875000",
    "wikiDataId": null
  },
  {
    "id": 52109,
    "name": "P’asanauri",
    "state_id": 902,
    "state_code": "MM",
    "country_id": 81,
    "country_code": "GE",
    "latitude": "42.35060000",
    "longitude": "44.68912000",
    "wikiDataId": null
  },
  {
    "id": 52124,
    "name": "Step’antsminda",
    "state_id": 902,
    "state_code": "MM",
    "country_id": 81,
    "country_code": "GE",
    "latitude": "42.65667000",
    "longitude": "44.64333000",
    "wikiDataId": null
  },
  {
    "id": 52145,
    "name": "Zhinvali",
    "state_id": 902,
    "state_code": "MM",
    "country_id": 81,
    "country_code": "GE",
    "latitude": "42.13181000",
    "longitude": "44.77264000",
    "wikiDataId": null
  }
]