[
  {
    "id": 3172,
    "name": "Azad Kashmir",
    "country_id": 167,
    "country_code": "PK",
    "state_code": "JK",
    "type": "administered area",
    "latitude": "33.84412000",
    "longitude": "73.79664200",
    "iso3166_2": "PK-JK",
    "native": "آزاد کشمیر",
    "timezone": "Asia/Karachi"
  },
  {
    "id": 3174,
    "name": "Balochistan",
    "country_id": 167,
    "country_code": "PK",
    "state_code": "BA",
    "type": "province",
    "latitude": "28.00000000",
    "longitude": "66.00000000",
    "iso3166_2": "PK-BA",
    "native": "بلوچستان",
    "timezone": "Asia/Karachi"
  },
  {
    "id": 3173,
    "name": "Federally Administered Tribal Areas",
    "country_id": 167,
    "country_code": "PK",
    "state_code": "TA",
    "type": "administered area",
    "latitude": "33.02169390",
    "longitude": "70.00844000",
    "iso3166_2": "PK-TA",
    "native": "وفاقی طور پر زیر انتظام قبائلی علاقوں",
    "timezone": "Asia/Karachi"
  },
  {
    "id": 3170,
    "name": "Gilgit-Baltistan",
    "country_id": 167,
    "country_code": "PK",
    "state_code": "GB",
    "type": "administered area",
    "latitude": "35.99999720",
    "longitude": "75.00000230",
    "iso3166_2": "PK-GB",
    "native": "گلگٹ بلتستان",
    "timezone": "Asia/Karachi"
  },
  {
    "id": 3169,
    "name": "Islamabad",
    "country_id": 167,
    "country_code": "PK",
    "state_code": "IS",
    "type": "federal capital territory",
    "latitude": "33.69381180",
    "longitude": "73.06515110",
    "iso3166_2": "PK-IS",
    "native": "اسلام آباد",
    "timezone": "Asia/Karachi"
  },
  {
    "id": 3171,
    "name": "Khyber Pakhtunkhwa",
    "country_id": 167,
    "country_code": "PK",
    "state_code": "KP",
    "type": "province",
    "latitude": "33.71280200",
    "longitude": "71.26788050",
    "iso3166_2": "PK-KP",
    "native": "خیبر پختوننہوا",
    "timezone": "Asia/Karachi"
  },
  {
    "id": 3176,
    "name": "Punjab",
    "country_id": 167,
    "country_code": "PK",
    "state_code": "PB",
    "type": "province",
    "latitude": "31.00000000",
    "longitude": "72.00000000",
    "iso3166_2": "PK-PB",
    "native": "پنجاب",
    "timezone": "Asia/Karachi"
  },
  {
    "id": 3175,
    "name": "Sindh",
    "country_id": 167,
    "country_code": "PK",
    "state_code": "SD",
    "type": "province",
    "latitude": "25.50000000",
    "longitude": "69.00000000",
    "iso3166_2": "PK-SD",
    "native": "سندھ",
    "timezone": "Asia/Karachi"
  }
]