[
  {
    "id": 30993,
    "name": "Aarhus",
    "state_id": 1531,
    "state_code": "82",
    "country_id": 59,
    "country_code": "DK",
    "latitude": "56.15674000",
    "longitude": "10.21076000",
    "wikiDataId": null
  },
  {
    "id": 30994,
    "name": "Aarhus Kommune",
    "state_id": 1531,
    "state_code": "82",
    "country_id": 59,
    "country_code": "DK",
    "latitude": "56.16317000",
    "longitude": "10.16897000",
    "wikiDataId": null
  },
  {
    "id": 30580,
    "name": "Allingåbro",
    "state_id": 1531,
    "state_code": "82",
    "country_id": 59,
    "country_code": "DK",
    "latitude": "56.46432000",
    "longitude": "10.31957000",
    "wikiDataId": null
  },
  {
    "id": 30585,
    "name": "Assentoft",
    "state_id": 1531,
    "state_code": "82",
    "country_id": 59,
    "country_code": "DK",
    "latitude": "56.44210000",
    "longitude": "10.15170000",
    "wikiDataId": null
  },
  {
    "id": 30587,
    "name": "Auning",
    "state_id": 1531,
    "state_code": "82",
    "country_id": 59,
    "country_code": "DK",
    "latitude": "56.43079000",
    "longitude": "10.37818000",
    "wikiDataId": null
  },
  {
    "id": 30588,
    "name": "Avlum",
    "state_id": 1531,
    "state_code": "82",
    "country_id": 59,
    "country_code": "DK",
    "latitude": "56.26539000",
    "longitude": "8.79256000",
    "wikiDataId": null
  },
  {
    "id": 30591,
    "name": "Beder",
    "state_id": 1531,
    "state_code": "82",
    "country_id": 59,
    "country_code": "DK",
    "latitude": "56.06025000",
    "longitude": "10.21179000",
    "wikiDataId": null
  },
  {
    "id": 30596,
    "name": "Bjerringbro",
    "state_id": 1531,
    "state_code": "82",
    "country_id": 59,
    "country_code": "DK",
    "latitude": "56.37797000",
    "longitude": "9.66065000",
    "wikiDataId": null
  },
  {
    "id": 30600,
    "name": "Bording Kirkeby",
    "state_id": 1531,
    "state_code": "82",
    "country_id": 59,
    "country_code": "DK",
    "latitude": "56.16871000",
    "longitude": "9.24384000",
    "wikiDataId": null
  },
  {
    "id": 30604,
    "name": "Brande",
    "state_id": 1531,
    "state_code": "82",
    "country_id": 59,
    "country_code": "DK",
    "latitude": "55.94316000",
    "longitude": "9.12798000",
    "wikiDataId": null
  },
  {
    "id": 30609,
    "name": "Brædstrup",
    "state_id": 1531,
    "state_code": "82",
    "country_id": 59,
    "country_code": "DK",
    "latitude": "55.97153000",
    "longitude": "9.61129000",
    "wikiDataId": null
  },
  {
    "id": 30626,
    "name": "Ebeltoft",
    "state_id": 1531,
    "state_code": "82",
    "country_id": 59,
    "country_code": "DK",
    "latitude": "56.19442000",
    "longitude": "10.68210000",
    "wikiDataId": null
  },
  {
    "id": 30639,
    "name": "Favrskov Kommune",
    "state_id": 1531,
    "state_code": "82",
    "country_id": 59,
    "country_code": "DK",
    "latitude": "56.31667000",
    "longitude": "9.94000000",
    "wikiDataId": null
  },
  {
    "id": 30647,
    "name": "Framlev",
    "state_id": 1531,
    "state_code": "82",
    "country_id": 59,
    "country_code": "DK",
    "latitude": "56.15664000",
    "longitude": "10.01318000",
    "wikiDataId": null
  },
  {
    "id": 30663,
    "name": "Galten",
    "state_id": 1531,
    "state_code": "82",
    "country_id": 59,
    "country_code": "DK",
    "latitude": "56.15902000",
    "longitude": "9.91691000",
    "wikiDataId": null
  },
  {
    "id": 30669,
    "name": "Gjellerup",
    "state_id": 1531,
    "state_code": "82",
    "country_id": 59,
    "country_code": "DK",
    "latitude": "56.14616000",
    "longitude": "9.05467000",
    "wikiDataId": null
  },
  {
    "id": 30675,
    "name": "Grenaa",
    "state_id": 1531,
    "state_code": "82",
    "country_id": 59,
    "country_code": "DK",
    "latitude": "56.41578000",
    "longitude": "10.87825000",
    "wikiDataId": null
  },
  {
    "id": 30688,
    "name": "Hadsten",
    "state_id": 1531,
    "state_code": "82",
    "country_id": 59,
    "country_code": "DK",
    "latitude": "56.32819000",
    "longitude": "10.04931000",
    "wikiDataId": null
  },
  {
    "id": 30692,
    "name": "Hammel",
    "state_id": 1531,
    "state_code": "82",
    "country_id": 59,
    "country_code": "DK",
    "latitude": "56.25762000",
    "longitude": "9.86316000",
    "wikiDataId": null
  },
  {
    "id": 30693,
    "name": "Hammerum",
    "state_id": 1531,
    "state_code": "82",
    "country_id": 59,
    "country_code": "DK",
    "latitude": "56.13361000",
    "longitude": "9.06121000",
    "wikiDataId": null
  },
  {
    "id": 30695,
    "name": "Harboøre",
    "state_id": 1531,
    "state_code": "82",
    "country_id": 59,
    "country_code": "DK",
    "latitude": "56.61752000",
    "longitude": "8.18069000",
    "wikiDataId": null
  },
  {
    "id": 30698,
    "name": "Hedensted",
    "state_id": 1531,
    "state_code": "82",
    "country_id": 59,
    "country_code": "DK",
    "latitude": "55.77043000",
    "longitude": "9.70110000",
    "wikiDataId": null
  },
  {
    "id": 30699,
    "name": "Hedensted Kommune",
    "state_id": 1531,
    "state_code": "82",
    "country_id": 59,
    "country_code": "DK",
    "latitude": "55.79680000",
    "longitude": "9.74400000",
    "wikiDataId": null
  },
  {
    "id": 30705,
    "name": "Herning",
    "state_id": 1531,
    "state_code": "82",
    "country_id": 59,
    "country_code": "DK",
    "latitude": "56.13615000",
    "longitude": "8.97662000",
    "wikiDataId": null
  },
  {
    "id": 30706,
    "name": "Herning Kommune",
    "state_id": 1531,
    "state_code": "82",
    "country_id": 59,
    "country_code": "DK",
    "latitude": "56.14997000",
    "longitude": "8.89712000",
    "wikiDataId": null
  },
  {
    "id": 30709,
    "name": "Hinnerup",
    "state_id": 1531,
    "state_code": "82",
    "country_id": 59,
    "country_code": "DK",
    "latitude": "56.26608000",
    "longitude": "10.06299000",
    "wikiDataId": null
  },
  {
    "id": 30712,
    "name": "Hjortshøj",
    "state_id": 1531,
    "state_code": "82",
    "country_id": 59,
    "country_code": "DK",
    "latitude": "56.24811000",
    "longitude": "10.26533000",
    "wikiDataId": null
  },
  {
    "id": 30719,
    "name": "Holstebro",
    "state_id": 1531,
    "state_code": "82",
    "country_id": 59,
    "country_code": "DK",
    "latitude": "56.36009000",
    "longitude": "8.61607000",
    "wikiDataId": null
  },
  {
    "id": 30720,
    "name": "Holstebro Kommune",
    "state_id": 1531,
    "state_code": "82",
    "country_id": 59,
    "country_code": "DK",
    "latitude": "56.35916000",
    "longitude": "8.59631000",
    "wikiDataId": null
  },
  {
    "id": 30723,
    "name": "Hornslet",
    "state_id": 1531,
    "state_code": "82",
    "country_id": 59,
    "country_code": "DK",
    "latitude": "56.31550000",
    "longitude": "10.32041000",
    "wikiDataId": null
  },
  {
    "id": 30724,
    "name": "Hornsyld",
    "state_id": 1531,
    "state_code": "82",
    "country_id": 59,
    "country_code": "DK",
    "latitude": "55.75621000",
    "longitude": "9.85643000",
    "wikiDataId": null
  },
  {
    "id": 30725,
    "name": "Horsens",
    "state_id": 1531,
    "state_code": "82",
    "country_id": 59,
    "country_code": "DK",
    "latitude": "55.86066000",
    "longitude": "9.85034000",
    "wikiDataId": null
  },
  {
    "id": 30726,
    "name": "Horsens Kommune",
    "state_id": 1531,
    "state_code": "82",
    "country_id": 59,
    "country_code": "DK",
    "latitude": "55.92740000",
    "longitude": "9.77377000",
    "wikiDataId": null
  },
  {
    "id": 30738,
    "name": "Hørning",
    "state_id": 1531,
    "state_code": "82",
    "country_id": 59,
    "country_code": "DK",
    "latitude": "56.08701000",
    "longitude": "10.03716000",
    "wikiDataId": null
  },
  {
    "id": 30730,
    "name": "Hvide Sande",
    "state_id": 1531,
    "state_code": "82",
    "country_id": 59,
    "country_code": "DK",
    "latitude": "55.99866000",
    "longitude": "8.12605000",
    "wikiDataId": null
  },
  {
    "id": 30743,
    "name": "Ikast",
    "state_id": 1531,
    "state_code": "82",
    "country_id": 59,
    "country_code": "DK",
    "latitude": "56.13883000",
    "longitude": "9.15768000",
    "wikiDataId": null
  },
  {
    "id": 30744,
    "name": "Ikast-Brande Kommune",
    "state_id": 1531,
    "state_code": "82",
    "country_id": 59,
    "country_code": "DK",
    "latitude": "55.98333000",
    "longitude": "9.21667000",
    "wikiDataId": null
  },
  {
    "id": 30749,
    "name": "Juelsminde",
    "state_id": 1531,
    "state_code": "82",
    "country_id": 59,
    "country_code": "DK",
    "latitude": "55.70876000",
    "longitude": "10.01668000",
    "wikiDataId": null
  },
  {
    "id": 30755,
    "name": "Karup",
    "state_id": 1531,
    "state_code": "82",
    "country_id": 59,
    "country_code": "DK",
    "latitude": "56.30673000",
    "longitude": "9.16835000",
    "wikiDataId": null
  },
  {
    "id": 30758,
    "name": "Kibæk",
    "state_id": 1531,
    "state_code": "82",
    "country_id": 59,
    "country_code": "DK",
    "latitude": "56.03170000",
    "longitude": "8.85697000",
    "wikiDataId": null
  },
  {
    "id": 30760,
    "name": "Kjellerup",
    "state_id": 1531,
    "state_code": "82",
    "country_id": 59,
    "country_code": "DK",
    "latitude": "56.28581000",
    "longitude": "9.43528000",
    "wikiDataId": null
  },
  {
    "id": 30765,
    "name": "Kolt",
    "state_id": 1531,
    "state_code": "82",
    "country_id": 59,
    "country_code": "DK",
    "latitude": "56.10845000",
    "longitude": "10.06986000",
    "wikiDataId": null
  },
  {
    "id": 30775,
    "name": "Langå",
    "state_id": 1531,
    "state_code": "82",
    "country_id": 59,
    "country_code": "DK",
    "latitude": "56.39026000",
    "longitude": "9.89486000",
    "wikiDataId": null
  },
  {
    "id": 30778,
    "name": "Lemvig",
    "state_id": 1531,
    "state_code": "82",
    "country_id": 59,
    "country_code": "DK",
    "latitude": "56.54856000",
    "longitude": "8.31019000",
    "wikiDataId": null
  },
  {
    "id": 30779,
    "name": "Lemvig Kommune",
    "state_id": 1531,
    "state_code": "82",
    "country_id": 59,
    "country_code": "DK",
    "latitude": "56.49136000",
    "longitude": "8.29927000",
    "wikiDataId": null
  },
  {
    "id": 30781,
    "name": "Lind",
    "state_id": 1531,
    "state_code": "82",
    "country_id": 59,
    "country_code": "DK",
    "latitude": "56.10600000",
    "longitude": "8.97915000",
    "wikiDataId": null
  },
  {
    "id": 30790,
    "name": "Løgten",
    "state_id": 1531,
    "state_code": "82",
    "country_id": 59,
    "country_code": "DK",
    "latitude": "56.27459000",
    "longitude": "10.31181000",
    "wikiDataId": null
  },
  {
    "id": 30787,
    "name": "Lystrup",
    "state_id": 1531,
    "state_code": "82",
    "country_id": 59,
    "country_code": "DK",
    "latitude": "56.23750000",
    "longitude": "10.23778000",
    "wikiDataId": null
  },
  {
    "id": 30794,
    "name": "Malling",
    "state_id": 1531,
    "state_code": "82",
    "country_id": 59,
    "country_code": "DK",
    "latitude": "56.03632000",
    "longitude": "10.19632000",
    "wikiDataId": null
  },
  {
    "id": 30804,
    "name": "Mårslet",
    "state_id": 1531,
    "state_code": "82",
    "country_id": 59,
    "country_code": "DK",
    "latitude": "56.06690000",
    "longitude": "10.16112000",
    "wikiDataId": null
  },
  {
    "id": 30813,
    "name": "Norddjurs Kommune",
    "state_id": 1531,
    "state_code": "82",
    "country_id": 59,
    "country_code": "DK",
    "latitude": "56.44124000",
    "longitude": "10.76660000",
    "wikiDataId": null
  },
  {
    "id": 30827,
    "name": "Odder",
    "state_id": 1531,
    "state_code": "82",
    "country_id": 59,
    "country_code": "DK",
    "latitude": "55.97313000",
    "longitude": "10.15300000",
    "wikiDataId": null
  },
  {
    "id": 30828,
    "name": "Odder Kommune",
    "state_id": 1531,
    "state_code": "82",
    "country_id": 59,
    "country_code": "DK",
    "latitude": "55.92967000",
    "longitude": "10.15304000",
    "wikiDataId": null
  },
  {
    "id": 30838,
    "name": "Randers",
    "state_id": 1531,
    "state_code": "82",
    "country_id": 59,
    "country_code": "DK",
    "latitude": "56.46070000",
    "longitude": "10.03639000",
    "wikiDataId": null
  },
  {
    "id": 30839,
    "name": "Randers Kommune",
    "state_id": 1531,
    "state_code": "82",
    "country_id": 59,
    "country_code": "DK",
    "latitude": "56.51561000",
    "longitude": "10.06901000",
    "wikiDataId": null
  },
  {
    "id": 30843,
    "name": "Ringkøbing",
    "state_id": 1531,
    "state_code": "82",
    "country_id": 59,
    "country_code": "DK",
    "latitude": "56.09006000",
    "longitude": "8.24402000",
    "wikiDataId": null
  },
  {
    "id": 30844,
    "name": "Ringkøbing-Skjern Kommune",
    "state_id": 1531,
    "state_code": "82",
    "country_id": 59,
    "country_code": "DK",
    "latitude": "56.01000000",
    "longitude": "8.39667000",
    "wikiDataId": null
  },
  {
    "id": 30860,
    "name": "Rønde",
    "state_id": 1531,
    "state_code": "82",
    "country_id": 59,
    "country_code": "DK",
    "latitude": "56.30145000",
    "longitude": "10.47505000",
    "wikiDataId": null
  },
  {
    "id": 30851,
    "name": "Ry",
    "state_id": 1531,
    "state_code": "82",
    "country_id": 59,
    "country_code": "DK",
    "latitude": "56.09038000",
    "longitude": "9.76505000",
    "wikiDataId": null
  },
  {
    "id": 30852,
    "name": "Ryomgård",
    "state_id": 1531,
    "state_code": "82",
    "country_id": 59,
    "country_code": "DK",
    "latitude": "56.38430000",
    "longitude": "10.50295000",
    "wikiDataId": null
  },
  {
    "id": 30863,
    "name": "Sabro",
    "state_id": 1531,
    "state_code": "82",
    "country_id": 59,
    "country_code": "DK",
    "latitude": "56.21333000",
    "longitude": "10.03441000",
    "wikiDataId": null
  },
  {
    "id": 30865,
    "name": "Samsø Kommune",
    "state_id": 1531,
    "state_code": "82",
    "country_id": 59,
    "country_code": "DK",
    "latitude": "55.85245000",
    "longitude": "10.60045000",
    "wikiDataId": null
  },
  {
    "id": 30867,
    "name": "Silkeborg",
    "state_id": 1531,
    "state_code": "82",
    "country_id": 59,
    "country_code": "DK",
    "latitude": "56.16970000",
    "longitude": "9.54508000",
    "wikiDataId": null
  },
  {
    "id": 30868,
    "name": "Silkeborg Kommune",
    "state_id": 1531,
    "state_code": "82",
    "country_id": 59,
    "country_code": "DK",
    "latitude": "56.17495000",
    "longitude": "9.54666000",
    "wikiDataId": null
  },
  {
    "id": 30872,
    "name": "Skanderborg",
    "state_id": 1531,
    "state_code": "82",
    "country_id": 59,
    "country_code": "DK",
    "latitude": "56.03434000",
    "longitude": "9.93177000",
    "wikiDataId": null
  },
  {
    "id": 30873,
    "name": "Skanderborg Kommune",
    "state_id": 1531,
    "state_code": "82",
    "country_id": 59,
    "country_code": "DK",
    "latitude": "56.07956000",
    "longitude": "9.89868000",
    "wikiDataId": null
  },
  {
    "id": 30875,
    "name": "Skive",
    "state_id": 1531,
    "state_code": "82",
    "country_id": 59,
    "country_code": "DK",
    "latitude": "56.56699000",
    "longitude": "9.02707000",
    "wikiDataId": null
  },
  {
    "id": 30876,
    "name": "Skive Kommune",
    "state_id": 1531,
    "state_code": "82",
    "country_id": 59,
    "country_code": "DK",
    "latitude": "56.64478000",
    "longitude": "8.97660000",
    "wikiDataId": null
  },
  {
    "id": 30877,
    "name": "Skjern",
    "state_id": 1531,
    "state_code": "82",
    "country_id": 59,
    "country_code": "DK",
    "latitude": "55.95000000",
    "longitude": "8.50000000",
    "wikiDataId": null
  },
  {
    "id": 30878,
    "name": "Skovby",
    "state_id": 1531,
    "state_code": "82",
    "country_id": 59,
    "country_code": "DK",
    "latitude": "56.15672000",
    "longitude": "9.94523000",
    "wikiDataId": null
  },
  {
    "id": 30886,
    "name": "Snejbjerg",
    "state_id": 1531,
    "state_code": "82",
    "country_id": 59,
    "country_code": "DK",
    "latitude": "56.13291000",
    "longitude": "8.90353000",
    "wikiDataId": null
  },
  {
    "id": 30888,
    "name": "Solbjerg",
    "state_id": 1531,
    "state_code": "82",
    "country_id": 59,
    "country_code": "DK",
    "latitude": "56.04271000",
    "longitude": "10.08631000",
    "wikiDataId": null
  },
  {
    "id": 30925,
    "name": "Søften",
    "state_id": 1531,
    "state_code": "82",
    "country_id": 59,
    "country_code": "DK",
    "latitude": "56.23801000",
    "longitude": "10.08510000",
    "wikiDataId": null
  },
  {
    "id": 30894,
    "name": "Spentrup",
    "state_id": 1531,
    "state_code": "82",
    "country_id": 59,
    "country_code": "DK",
    "latitude": "56.53703000",
    "longitude": "10.03792000",
    "wikiDataId": null
  },
  {
    "id": 30897,
    "name": "Stavtrup",
    "state_id": 1531,
    "state_code": "82",
    "country_id": 59,
    "country_code": "DK",
    "latitude": "56.13124000",
    "longitude": "10.11987000",
    "wikiDataId": null
  },
  {
    "id": 30903,
    "name": "Stilling",
    "state_id": 1531,
    "state_code": "82",
    "country_id": 59,
    "country_code": "DK",
    "latitude": "56.06224000",
    "longitude": "9.98822000",
    "wikiDataId": null
  },
  {
    "id": 30904,
    "name": "Stoholm",
    "state_id": 1531,
    "state_code": "82",
    "country_id": 59,
    "country_code": "DK",
    "latitude": "56.48454000",
    "longitude": "9.14617000",
    "wikiDataId": null
  },
  {
    "id": 30909,
    "name": "Struer",
    "state_id": 1531,
    "state_code": "82",
    "country_id": 59,
    "country_code": "DK",
    "latitude": "56.49205000",
    "longitude": "8.59397000",
    "wikiDataId": null
  },
  {
    "id": 30910,
    "name": "Struer Kommune",
    "state_id": 1531,
    "state_code": "82",
    "country_id": 59,
    "country_code": "DK",
    "latitude": "56.46667000",
    "longitude": "8.58333000",
    "wikiDataId": null
  },
  {
    "id": 30915,
    "name": "Sunds",
    "state_id": 1531,
    "state_code": "82",
    "country_id": 59,
    "country_code": "DK",
    "latitude": "56.20743000",
    "longitude": "9.01386000",
    "wikiDataId": null
  },
  {
    "id": 30917,
    "name": "Svejbæk",
    "state_id": 1531,
    "state_code": "82",
    "country_id": 59,
    "country_code": "DK",
    "latitude": "56.13255000",
    "longitude": "9.63289000",
    "wikiDataId": null
  },
  {
    "id": 30923,
    "name": "Syddjurs Kommune",
    "state_id": 1531,
    "state_code": "82",
    "country_id": 59,
    "country_code": "DK",
    "latitude": "56.31250000",
    "longitude": "10.52083000",
    "wikiDataId": null
  },
  {
    "id": 30931,
    "name": "Tarm",
    "state_id": 1531,
    "state_code": "82",
    "country_id": 59,
    "country_code": "DK",
    "latitude": "55.90861000",
    "longitude": "8.53041000",
    "wikiDataId": null
  },
  {
    "id": 30936,
    "name": "Thyborøn",
    "state_id": 1531,
    "state_code": "82",
    "country_id": 59,
    "country_code": "DK",
    "latitude": "56.69846000",
    "longitude": "8.21238000",
    "wikiDataId": null
  },
  {
    "id": 30952,
    "name": "Tørring",
    "state_id": 1531,
    "state_code": "82",
    "country_id": 59,
    "country_code": "DK",
    "latitude": "55.85000000",
    "longitude": "9.48333000",
    "wikiDataId": null
  },
  {
    "id": 30942,
    "name": "Tranbjerg",
    "state_id": 1531,
    "state_code": "82",
    "country_id": 59,
    "country_code": "DK",
    "latitude": "56.09519000",
    "longitude": "10.13605000",
    "wikiDataId": null
  },
  {
    "id": 30943,
    "name": "Trige",
    "state_id": 1531,
    "state_code": "82",
    "country_id": 59,
    "country_code": "DK",
    "latitude": "56.25291000",
    "longitude": "10.14840000",
    "wikiDataId": null
  },
  {
    "id": 30953,
    "name": "Ulfborg",
    "state_id": 1531,
    "state_code": "82",
    "country_id": 59,
    "country_code": "DK",
    "latitude": "56.26725000",
    "longitude": "8.32167000",
    "wikiDataId": null
  },
  {
    "id": 30955,
    "name": "Ulstrup",
    "state_id": 1531,
    "state_code": "82",
    "country_id": 59,
    "country_code": "DK",
    "latitude": "56.38994000",
    "longitude": "9.79354000",
    "wikiDataId": null
  },
  {
    "id": 30972,
    "name": "Viborg",
    "state_id": 1531,
    "state_code": "82",
    "country_id": 59,
    "country_code": "DK",
    "latitude": "56.45319000",
    "longitude": "9.40201000",
    "wikiDataId": null
  },
  {
    "id": 30973,
    "name": "Viborg Kommune",
    "state_id": 1531,
    "state_code": "82",
    "country_id": 59,
    "country_code": "DK",
    "latitude": "56.45000000",
    "longitude": "9.36667000",
    "wikiDataId": null
  },
  {
    "id": 30975,
    "name": "Videbæk",
    "state_id": 1531,
    "state_code": "82",
    "country_id": 59,
    "country_code": "DK",
    "latitude": "56.08760000",
    "longitude": "8.62852000",
    "wikiDataId": null
  },
  {
    "id": 30976,
    "name": "Vildbjerg",
    "state_id": 1531,
    "state_code": "82",
    "country_id": 59,
    "country_code": "DK",
    "latitude": "56.20000000",
    "longitude": "8.76667000",
    "wikiDataId": null
  },
  {
    "id": 30978,
    "name": "Vinderup",
    "state_id": 1531,
    "state_code": "82",
    "country_id": 59,
    "country_code": "DK",
    "latitude": "56.48176000",
    "longitude": "8.77991000",
    "wikiDataId": null
  },
  {
    "id": 30981,
    "name": "Virklund",
    "state_id": 1531,
    "state_code": "82",
    "country_id": 59,
    "country_code": "DK",
    "latitude": "56.13218000",
    "longitude": "9.55582000",
    "wikiDataId": null
  }
]