[
  {
    "id": 109318,
    "name": "Amvrosiivka Raion",
    "state_id": 4691,
    "state_code": "14",
    "country_id": 230,
    "country_code": "UA",
    "latitude": "47.75000000",
    "longitude": "38.50000000",
    "wikiDataId": null
  },
  {
    "id": 109319,
    "name": "Amvrosiyivka",
    "state_id": 4691,
    "state_code": "14",
    "country_id": 230,
    "country_code": "UA",
    "latitude": "47.79348000",
    "longitude": "38.47768000",
    "wikiDataId": null
  },
  {
    "id": 109333,
    "name": "Avdiyivka",
    "state_id": 4691,
    "state_code": "14",
    "country_id": 230,
    "country_code": "UA",
    "latitude": "48.13989000",
    "longitude": "37.74255000",
    "wikiDataId": null
  },
  {
    "id": 109342,
    "name": "Bakhmut",
    "state_id": 4691,
    "state_code": "14",
    "country_id": 230,
    "country_code": "UA",
    "latitude": "48.59559000",
    "longitude": "37.99987000",
    "wikiDataId": null
  },
  {
    "id": 109343,
    "name": "Bakhmut Raion",
    "state_id": 4691,
    "state_code": "14",
    "country_id": 230,
    "country_code": "UA",
    "latitude": "48.58333000",
    "longitude": "38.00000000",
    "wikiDataId": null
  },
  {
    "id": 109389,
    "name": "Bezimenne",
    "state_id": 4691,
    "state_code": "14",
    "country_id": 230,
    "country_code": "UA",
    "latitude": "47.10716000",
    "longitude": "37.93815000",
    "wikiDataId": null
  },
  {
    "id": 109407,
    "name": "Bilyts’ke",
    "state_id": 4691,
    "state_code": "14",
    "country_id": 230,
    "country_code": "UA",
    "latitude": "48.40642000",
    "longitude": "37.18111000",
    "wikiDataId": null
  },
  {
    "id": 109410,
    "name": "Blahodatne",
    "state_id": 4691,
    "state_code": "14",
    "country_id": 230,
    "country_code": "UA",
    "latitude": "47.87928000",
    "longitude": "38.48492000",
    "wikiDataId": null
  },
  {
    "id": 109441,
    "name": "Boykivske",
    "state_id": 4691,
    "state_code": "14",
    "country_id": 230,
    "country_code": "UA",
    "latitude": "47.40994000",
    "longitude": "38.02476000",
    "wikiDataId": null
  },
  {
    "id": 109442,
    "name": "Boykivske Raion",
    "state_id": 4691,
    "state_code": "14",
    "country_id": 230,
    "country_code": "UA",
    "latitude": "47.41667000",
    "longitude": "38.00000000",
    "wikiDataId": null
  },
  {
    "id": 109473,
    "name": "Chasiv Yar",
    "state_id": 4691,
    "state_code": "14",
    "country_id": 230,
    "country_code": "UA",
    "latitude": "48.59348000",
    "longitude": "37.85724000",
    "wikiDataId": null
  },
  {
    "id": 109526,
    "name": "Chystyakove",
    "state_id": 4691,
    "state_code": "14",
    "country_id": 230,
    "country_code": "UA",
    "latitude": "48.03876000",
    "longitude": "38.59685000",
    "wikiDataId": null
  },
  {
    "id": 109532,
    "name": "Debal’tseve",
    "state_id": 4691,
    "state_code": "14",
    "country_id": 230,
    "country_code": "UA",
    "latitude": "48.34072000",
    "longitude": "38.40490000",
    "wikiDataId": null
  },
  {
    "id": 109546,
    "name": "Dmytrivka",
    "state_id": 4691,
    "state_code": "14",
    "country_id": 230,
    "country_code": "UA",
    "latitude": "47.93611000",
    "longitude": "38.93661000",
    "wikiDataId": null
  },
  {
    "id": 109556,
    "name": "Dobropillia Raion",
    "state_id": 4691,
    "state_code": "14",
    "country_id": 230,
    "country_code": "UA",
    "latitude": "48.41667000",
    "longitude": "37.16667000",
    "wikiDataId": null
  },
  {
    "id": 109557,
    "name": "Dobropillya",
    "state_id": 4691,
    "state_code": "14",
    "country_id": 230,
    "country_code": "UA",
    "latitude": "48.46147000",
    "longitude": "37.08524000",
    "wikiDataId": null
  },
  {
    "id": 109563,
    "name": "Dokuchayevs’k",
    "state_id": 4691,
    "state_code": "14",
    "country_id": 230,
    "country_code": "UA",
    "latitude": "47.75046000",
    "longitude": "37.67936000",
    "wikiDataId": null
  },
  {
    "id": 109570,
    "name": "Donetsk",
    "state_id": 4691,
    "state_code": "14",
    "country_id": 230,
    "country_code": "UA",
    "latitude": "48.02300000",
    "longitude": "37.80224000",
    "wikiDataId": null
  },
  {
    "id": 109581,
    "name": "Druzhkivka",
    "state_id": 4691,
    "state_code": "14",
    "country_id": 230,
    "country_code": "UA",
    "latitude": "48.63013000",
    "longitude": "37.55259000",
    "wikiDataId": null
  },
  {
    "id": 109641,
    "name": "Horlivka",
    "state_id": 4691,
    "state_code": "14",
    "country_id": 230,
    "country_code": "UA",
    "latitude": "48.33576000",
    "longitude": "38.05325000",
    "wikiDataId": null
  },
  {
    "id": 109668,
    "name": "Ilovays’k",
    "state_id": 4691,
    "state_code": "14",
    "country_id": 230,
    "country_code": "UA",
    "latitude": "47.92498000",
    "longitude": "38.20235000",
    "wikiDataId": null
  },
  {
    "id": 109728,
    "name": "Khartsyz’k",
    "state_id": 4691,
    "state_code": "14",
    "country_id": 230,
    "country_code": "UA",
    "latitude": "48.04243000",
    "longitude": "38.14728000",
    "wikiDataId": null
  },
  {
    "id": 109811,
    "name": "Kostiantynivka Raion",
    "state_id": 4691,
    "state_code": "14",
    "country_id": 230,
    "country_code": "UA",
    "latitude": "48.50000000",
    "longitude": "37.75000000",
    "wikiDataId": null
  },
  {
    "id": 109817,
    "name": "Kostyantynivka",
    "state_id": 4691,
    "state_code": "14",
    "country_id": 230,
    "country_code": "UA",
    "latitude": "48.52770000",
    "longitude": "37.70690000",
    "wikiDataId": null
  },
  {
    "id": 109828,
    "name": "Kramators’k",
    "state_id": 4691,
    "state_code": "14",
    "country_id": 230,
    "country_code": "UA",
    "latitude": "48.72305000",
    "longitude": "37.55629000",
    "wikiDataId": null
  },
  {
    "id": 109848,
    "name": "Krasnotorka",
    "state_id": 4691,
    "state_code": "14",
    "country_id": 230,
    "country_code": "UA",
    "latitude": "48.68204000",
    "longitude": "37.53266000",
    "wikiDataId": null
  },
  {
    "id": 109862,
    "name": "Krinichnaya",
    "state_id": 4691,
    "state_code": "14",
    "country_id": 230,
    "country_code": "UA",
    "latitude": "48.12899000",
    "longitude": "38.02597000",
    "wikiDataId": null
  },
  {
    "id": 109888,
    "name": "Kurakhovo",
    "state_id": 4691,
    "state_code": "14",
    "country_id": 230,
    "country_code": "UA",
    "latitude": "47.98522000",
    "longitude": "37.28210000",
    "wikiDataId": null
  },
  {
    "id": 109893,
    "name": "Kuteynykove",
    "state_id": 4691,
    "state_code": "14",
    "country_id": 230,
    "country_code": "UA",
    "latitude": "47.81227000",
    "longitude": "38.28822000",
    "wikiDataId": null
  },
  {
    "id": 109940,
    "name": "Luhans’ke",
    "state_id": 4691,
    "state_code": "14",
    "country_id": 230,
    "country_code": "UA",
    "latitude": "48.44574000",
    "longitude": "38.26153000",
    "wikiDataId": null
  },
  {
    "id": 109950,
    "name": "Lyman",
    "state_id": 4691,
    "state_code": "14",
    "country_id": 230,
    "country_code": "UA",
    "latitude": "48.98837000",
    "longitude": "37.80225000",
    "wikiDataId": null
  },
  {
    "id": 109952,
    "name": "Lyman Raion",
    "state_id": 4691,
    "state_code": "14",
    "country_id": 230,
    "country_code": "UA",
    "latitude": "49.00000000",
    "longitude": "37.83333000",
    "wikiDataId": null
  },
  {
    "id": 109976,
    "name": "Makiyivka",
    "state_id": 4691,
    "state_code": "14",
    "country_id": 230,
    "country_code": "UA",
    "latitude": "48.04782000",
    "longitude": "37.92576000",
    "wikiDataId": null
  },
  {
    "id": 109977,
    "name": "Makiyivs’ka Mis’krada",
    "state_id": 4691,
    "state_code": "14",
    "country_id": 230,
    "country_code": "UA",
    "latitude": "48.06287000",
    "longitude": "38.03075000",
    "wikiDataId": null
  },
  {
    "id": 109994,
    "name": "Manhush",
    "state_id": 4691,
    "state_code": "14",
    "country_id": 230,
    "country_code": "UA",
    "latitude": "47.05582000",
    "longitude": "37.31068000",
    "wikiDataId": null
  },
  {
    "id": 109997,
    "name": "Mar'yinka",
    "state_id": 4691,
    "state_code": "14",
    "country_id": 230,
    "country_code": "UA",
    "latitude": "47.94527000",
    "longitude": "37.50544000",
    "wikiDataId": null
  },
  {
    "id": 110000,
    "name": "Mariupol",
    "state_id": 4691,
    "state_code": "14",
    "country_id": 230,
    "country_code": "UA",
    "latitude": "47.09514000",
    "longitude": "37.54131000",
    "wikiDataId": null
  },
  {
    "id": 110016,
    "name": "Melekyne",
    "state_id": 4691,
    "state_code": "14",
    "country_id": 230,
    "country_code": "UA",
    "latitude": "46.95957000",
    "longitude": "37.39981000",
    "wikiDataId": null
  },
  {
    "id": 110055,
    "name": "Mospyne",
    "state_id": 4691,
    "state_code": "14",
    "country_id": 230,
    "country_code": "UA",
    "latitude": "47.89081000",
    "longitude": "38.06395000",
    "wikiDataId": null
  },
  {
    "id": 110075,
    "name": "Myrnohrad",
    "state_id": 4691,
    "state_code": "14",
    "country_id": 230,
    "country_code": "UA",
    "latitude": "48.30523000",
    "longitude": "37.26091000",
    "wikiDataId": null
  },
  {
    "id": 110097,
    "name": "Nikolske Raion",
    "state_id": 4691,
    "state_code": "14",
    "country_id": 230,
    "country_code": "UA",
    "latitude": "47.25000000",
    "longitude": "37.25000000",
    "wikiDataId": null
  },
  {
    "id": 110120,
    "name": "Novoazovs'k",
    "state_id": 4691,
    "state_code": "14",
    "country_id": 230,
    "country_code": "UA",
    "latitude": "47.11389000",
    "longitude": "38.08599000",
    "wikiDataId": null
  },
  {
    "id": 110123,
    "name": "Novodonets’ke",
    "state_id": 4691,
    "state_code": "14",
    "country_id": 230,
    "country_code": "UA",
    "latitude": "48.63526000",
    "longitude": "36.98477000",
    "wikiDataId": null
  },
  {
    "id": 110161,
    "name": "Novyy Svit",
    "state_id": 4691,
    "state_code": "14",
    "country_id": 230,
    "country_code": "UA",
    "latitude": "47.80591000",
    "longitude": "38.02112000",
    "wikiDataId": null
  },
  {
    "id": 110167,
    "name": "Nyzhnya Krynka",
    "state_id": 4691,
    "state_code": "14",
    "country_id": 230,
    "country_code": "UA",
    "latitude": "48.11350000",
    "longitude": "38.16064000",
    "wikiDataId": null
  },
  {
    "id": 110219,
    "name": "P'yatypill'ya",
    "state_id": 4691,
    "state_code": "14",
    "country_id": 230,
    "country_code": "UA",
    "latitude": "48.01590000",
    "longitude": "38.09979000",
    "wikiDataId": null
  },
  {
    "id": 110291,
    "name": "Pokrovsk",
    "state_id": 4691,
    "state_code": "14",
    "country_id": 230,
    "country_code": "UA",
    "latitude": "48.28198000",
    "longitude": "37.17585000",
    "wikiDataId": null
  },
  {
    "id": 110292,
    "name": "Pokrovsk Raion",
    "state_id": 4691,
    "state_code": "14",
    "country_id": 230,
    "country_code": "UA",
    "latitude": "48.25000000",
    "longitude": "37.16667000",
    "wikiDataId": null
  },
  {
    "id": 110359,
    "name": "Rodyns’ke",
    "state_id": 4691,
    "state_code": "14",
    "country_id": 230,
    "country_code": "UA",
    "latitude": "48.35199000",
    "longitude": "37.20602000",
    "wikiDataId": null
  },
  {
    "id": 110385,
    "name": "Rozsypne",
    "state_id": 4691,
    "state_code": "14",
    "country_id": 230,
    "country_code": "UA",
    "latitude": "48.14966000",
    "longitude": "38.57619000",
    "wikiDataId": null
  },
  {
    "id": 110408,
    "name": "Sartana",
    "state_id": 4691,
    "state_code": "14",
    "country_id": 230,
    "country_code": "UA",
    "latitude": "47.17436000",
    "longitude": "37.69266000",
    "wikiDataId": null
  },
  {
    "id": 110413,
    "name": "Selydivs’ka Mis’krada",
    "state_id": 4691,
    "state_code": "14",
    "country_id": 230,
    "country_code": "UA",
    "latitude": "48.14530000",
    "longitude": "37.29962000",
    "wikiDataId": null
  },
  {
    "id": 110414,
    "name": "Selydove",
    "state_id": 4691,
    "state_code": "14",
    "country_id": 230,
    "country_code": "UA",
    "latitude": "48.14708000",
    "longitude": "37.30032000",
    "wikiDataId": null
  },
  {
    "id": 110420,
    "name": "Serebryanka",
    "state_id": 4691,
    "state_code": "14",
    "country_id": 230,
    "country_code": "UA",
    "latitude": "48.91917000",
    "longitude": "38.13494000",
    "wikiDataId": null
  },
  {
    "id": 110428,
    "name": "Shakhtars’k",
    "state_id": 4691,
    "state_code": "14",
    "country_id": 230,
    "country_code": "UA",
    "latitude": "48.05657000",
    "longitude": "38.43826000",
    "wikiDataId": null
  },
  {
    "id": 110435,
    "name": "Shcherbynivka",
    "state_id": 4691,
    "state_code": "14",
    "country_id": 230,
    "country_code": "UA",
    "latitude": "48.39489000",
    "longitude": "37.79102000",
    "wikiDataId": null
  },
  {
    "id": 110454,
    "name": "Shyroke",
    "state_id": 4691,
    "state_code": "14",
    "country_id": 230,
    "country_code": "UA",
    "latitude": "47.95711000",
    "longitude": "38.23160000",
    "wikiDataId": null
  },
  {
    "id": 110464,
    "name": "Sivers’k",
    "state_id": 4691,
    "state_code": "14",
    "country_id": 230,
    "country_code": "UA",
    "latitude": "48.86699000",
    "longitude": "38.10007000",
    "wikiDataId": null
  },
  {
    "id": 110486,
    "name": "Sloviansk",
    "state_id": 4691,
    "state_code": "14",
    "country_id": 230,
    "country_code": "UA",
    "latitude": "48.86667000",
    "longitude": "37.61667000",
    "wikiDataId": null
  },
  {
    "id": 110487,
    "name": "Sloviansk Raion",
    "state_id": 4691,
    "state_code": "14",
    "country_id": 230,
    "country_code": "UA",
    "latitude": "48.91667000",
    "longitude": "37.50000000",
    "wikiDataId": null
  },
  {
    "id": 110493,
    "name": "Snizhne",
    "state_id": 4691,
    "state_code": "14",
    "country_id": 230,
    "country_code": "UA",
    "latitude": "48.02612000",
    "longitude": "38.77225000",
    "wikiDataId": null
  },
  {
    "id": 110503,
    "name": "Soledar",
    "state_id": 4691,
    "state_code": "14",
    "country_id": 230,
    "country_code": "UA",
    "latitude": "48.67935000",
    "longitude": "38.08902000",
    "wikiDataId": null
  },
  {
    "id": 110531,
    "name": "Starobesheve",
    "state_id": 4691,
    "state_code": "14",
    "country_id": 230,
    "country_code": "UA",
    "latitude": "47.75038000",
    "longitude": "38.03051000",
    "wikiDataId": null
  },
  {
    "id": 110539,
    "name": "Staryy Krym",
    "state_id": 4691,
    "state_code": "14",
    "country_id": 230,
    "country_code": "UA",
    "latitude": "47.16146000",
    "longitude": "37.48934000",
    "wikiDataId": null
  },
  {
    "id": 110552,
    "name": "Stizhkivs’ke",
    "state_id": 4691,
    "state_code": "14",
    "country_id": 230,
    "country_code": "UA",
    "latitude": "48.11333000",
    "longitude": "38.49250000",
    "wikiDataId": null
  },
  {
    "id": 110575,
    "name": "Svetlodarsk",
    "state_id": 4691,
    "state_code": "14",
    "country_id": 230,
    "country_code": "UA",
    "latitude": "48.43374000",
    "longitude": "38.22331000",
    "wikiDataId": null
  },
  {
    "id": 110579,
    "name": "Svyatogorsk",
    "state_id": 4691,
    "state_code": "14",
    "country_id": 230,
    "country_code": "UA",
    "latitude": "49.03333000",
    "longitude": "37.56667000",
    "wikiDataId": null
  },
  {
    "id": 110581,
    "name": "Syedove",
    "state_id": 4691,
    "state_code": "14",
    "country_id": 230,
    "country_code": "UA",
    "latitude": "47.07678000",
    "longitude": "38.15602000",
    "wikiDataId": null
  },
  {
    "id": 110595,
    "name": "Temriuk",
    "state_id": 4691,
    "state_code": "14",
    "country_id": 230,
    "country_code": "UA",
    "latitude": "47.26857000",
    "longitude": "36.98115000",
    "wikiDataId": null
  },
  {
    "id": 110616,
    "name": "Toretsk",
    "state_id": 4691,
    "state_code": "14",
    "country_id": 230,
    "country_code": "UA",
    "latitude": "48.39869000",
    "longitude": "37.84787000",
    "wikiDataId": null
  },
  {
    "id": 110659,
    "name": "Urzuf",
    "state_id": 4691,
    "state_code": "14",
    "country_id": 230,
    "country_code": "UA",
    "latitude": "46.91562000",
    "longitude": "37.09961000",
    "wikiDataId": null
  },
  {
    "id": 110732,
    "name": "Volnovakha",
    "state_id": 4691,
    "state_code": "14",
    "country_id": 230,
    "country_code": "UA",
    "latitude": "47.60103000",
    "longitude": "37.49674000",
    "wikiDataId": null
  },
  {
    "id": 110753,
    "name": "Vuhlehirs’k",
    "state_id": 4691,
    "state_code": "14",
    "country_id": 230,
    "country_code": "UA",
    "latitude": "48.31474000",
    "longitude": "38.27423000",
    "wikiDataId": null
  },
  {
    "id": 110777,
    "name": "Yalta",
    "state_id": 4691,
    "state_code": "14",
    "country_id": 230,
    "country_code": "UA",
    "latitude": "46.96279000",
    "longitude": "37.27365000",
    "wikiDataId": null
  },
  {
    "id": 110790,
    "name": "Yasynuvata",
    "state_id": 4691,
    "state_code": "14",
    "country_id": 230,
    "country_code": "UA",
    "latitude": "48.12980000",
    "longitude": "37.85940000",
    "wikiDataId": null
  },
  {
    "id": 110791,
    "name": "Yasynuvata Raion",
    "state_id": 4691,
    "state_code": "14",
    "country_id": 230,
    "country_code": "UA",
    "latitude": "48.16667000",
    "longitude": "37.83333000",
    "wikiDataId": null
  },
  {
    "id": 110796,
    "name": "Yenakiyeve",
    "state_id": 4691,
    "state_code": "14",
    "country_id": 230,
    "country_code": "UA",
    "latitude": "48.23331000",
    "longitude": "38.21137000",
    "wikiDataId": null
  },
  {
    "id": 110867,
    "name": "Zuhres",
    "state_id": 4691,
    "state_code": "14",
    "country_id": 230,
    "country_code": "UA",
    "latitude": "48.01140000",
    "longitude": "38.26444000",
    "wikiDataId": null
  }
]