[
  {
    "id": 43,
    "name": "Erongo",
    "country_id": 152,
    "country_code": "NA",
    "state_code": "ER",
    "type": "region",
    "latitude": "-22.02781470",
    "longitude": "15.38935800",
    "iso3166_2": "NA-ER",
    "native": "Erongo",
    "timezone": "Africa/Windhoek"
  },
  {
    "id": 38,
    "name": "Hardap",
    "country_id": 152,
    "country_code": "NA",
    "state_code": "HA",
    "type": "region",
    "latitude": "-24.41409440",
    "longitude": "17.41340510",
    "iso3166_2": "NA-HA",
    "native": "Hardap",
    "timezone": "Africa/Windhoek"
  },
  {
    "id": 45,
    "name": "Karas",
    "country_id": 152,
    "country_code": "NA",
    "state_code": "KA",
    "type": "region",
    "latitude": "-26.87520940",
    "longitude": "17.76348180",
    "iso3166_2": "NA-KA",
    "native": "Karas",
    "timezone": "Africa/Windhoek"
  },
  {
    "id": 36,
    "name": "Kavango East",
    "country_id": 152,
    "country_code": "NA",
    "state_code": "KE",
    "type": "region",
    "latitude": "-18.39823550",
    "longitude": "20.72468000",
    "iso3166_2": "NA-KE",
    "native": "Kavango East",
    "timezone": "Africa/Windhoek"
  },
  {
    "id": 35,
    "name": "Kavango West",
    "country_id": 152,
    "country_code": "NA",
    "state_code": "KW",
    "type": "region",
    "latitude": "-18.25611100",
    "longitude": "18.97020100",
    "iso3166_2": "NA-KW",
    "native": "Kavango West",
    "timezone": "Africa/Windhoek"
  },
  {
    "id": 44,
    "name": "Khomas",
    "country_id": 152,
    "country_code": "NA",
    "state_code": "KH",
    "type": "region",
    "latitude": "-22.90825530",
    "longitude": "17.09198000",
    "iso3166_2": "NA-KH",
    "native": "Khomas",
    "timezone": "Africa/Windhoek"
  },
  {
    "id": 34,
    "name": "Kunene",
    "country_id": 152,
    "country_code": "NA",
    "state_code": "KU",
    "type": "region",
    "latitude": "-19.67928090",
    "longitude": "13.97565640",
    "iso3166_2": "NA-KU",
    "native": "Kunene",
    "timezone": "Africa/Windhoek"
  },
  {
    "id": 40,
    "name": "Ohangwena",
    "country_id": 152,
    "country_code": "NA",
    "state_code": "OW",
    "type": "region",
    "latitude": "-17.58773690",
    "longitude": "16.77379550",
    "iso3166_2": "NA-OW",
    "native": "Ohangwena",
    "timezone": "Africa/Windhoek"
  },
  {
    "id": 41,
    "name": "Omaheke",
    "country_id": 152,
    "country_code": "NA",
    "state_code": "OH",
    "type": "region",
    "latitude": "-21.90746760",
    "longitude": "19.39296610",
    "iso3166_2": "NA-OH",
    "native": "Omaheke",
    "timezone": "Africa/Windhoek"
  },
  {
    "id": 39,
    "name": "Omusati",
    "country_id": 152,
    "country_code": "NA",
    "state_code": "OS",
    "type": "region",
    "latitude": "-18.28623140",
    "longitude": "14.88566790",
    "iso3166_2": "NA-OS",
    "native": "Omusati",
    "timezone": "Africa/Windhoek"
  },
  {
    "id": 37,
    "name": "Oshana",
    "country_id": 152,
    "country_code": "NA",
    "state_code": "ON",
    "type": "region",
    "latitude": "-18.47023080",
    "longitude": "15.74344190",
    "iso3166_2": "NA-ON",
    "native": "Oshana",
    "timezone": "Africa/Windhoek"
  },
  {
    "id": 42,
    "name": "Oshikoto",
    "country_id": 152,
    "country_code": "NA",
    "state_code": "OT",
    "type": "region",
    "latitude": "-18.54640460",
    "longitude": "17.10196060",
    "iso3166_2": "NA-OT",
    "native": "Oshikoto",
    "timezone": "Africa/Windhoek"
  },
  {
    "id": 46,
    "name": "Otjozondjupa",
    "country_id": 152,
    "country_code": "NA",
    "state_code": "OD",
    "type": "region",
    "latitude": "-19.94249620",
    "longitude": "18.39588600",
    "iso3166_2": "NA-OD",
    "native": "Otjozondjupa",
    "timezone": "Africa/Windhoek"
  },
  {
    "id": 47,
    "name": "Zambezi",
    "country_id": 152,
    "country_code": "NA",
    "state_code": "CA",
    "type": "region",
    "latitude": "-17.69129220",
    "longitude": "24.13773710",
    "iso3166_2": "NA-CA",
    "native": "Zambezi",
    "timezone": "Africa/Windhoek"
  }
]