[
  {
    "id": 52045,
    "name": "Akhmeta",
    "state_id": 910,
    "state_code": "KA",
    "country_id": 81,
    "country_code": "GE",
    "latitude": "42.03111000",
    "longitude": "45.20750000",
    "wikiDataId": null
  },
  {
    "id": 52074,
    "name": "Gurjaani",
    "state_id": 910,
    "state_code": "KA",
    "country_id": 81,
    "country_code": "GE",
    "latitude": "41.74292000",
    "longitude": "45.80111000",
    "wikiDataId": null
  },
  {
    "id": 52090,
    "name": "Lagodekhi",
    "state_id": 910,
    "state_code": "KA",
    "country_id": 81,
    "country_code": "GE",
    "latitude": "41.82681000",
    "longitude": "46.27667000",
    "wikiDataId": null
  },
  {
    "id": 52112,
    "name": "Qvareli",
    "state_id": 910,
    "state_code": "KA",
    "country_id": 81,
    "country_code": "GE",
    "latitude": "41.95493000",
    "longitude": "45.81716000",
    "wikiDataId": null
  },
  {
    "id": 52115,
    "name": "Sagarejo",
    "state_id": 910,
    "state_code": "KA",
    "country_id": 81,
    "country_code": "GE",
    "latitude": "41.73397000",
    "longitude": "45.33149000",
    "wikiDataId": null
  },
  {
    "id": 52120,
    "name": "Sighnaghi",
    "state_id": 910,
    "state_code": "KA",
    "country_id": 81,
    "country_code": "GE",
    "latitude": "41.62046000",
    "longitude": "45.92198000",
    "wikiDataId": null
  },
  {
    "id": 52127,
    "name": "Telavi",
    "state_id": 910,
    "state_code": "KA",
    "country_id": 81,
    "country_code": "GE",
    "latitude": "41.91978000",
    "longitude": "45.47315000",
    "wikiDataId": null
  },
  {
    "id": 52135,
    "name": "Tsinandali",
    "state_id": 910,
    "state_code": "KA",
    "country_id": 81,
    "country_code": "GE",
    "latitude": "41.89315000",
    "longitude": "45.57129000",
    "wikiDataId": null
  },
  {
    "id": 52136,
    "name": "Tsnori",
    "state_id": 910,
    "state_code": "KA",
    "country_id": 81,
    "country_code": "GE",
    "latitude": "41.62088000",
    "longitude": "45.96943000",
    "wikiDataId": null
  }
]