[
  {
    "id": 57590,
    "name": "Achhnera",
    "state_id": 4022,
    "state_code": "UP",
    "country_id": 101,
    "country_code": "IN",
    "latitude": "27.17826000",
    "longitude": "77.75674000",
    "wikiDataId": null
  },
  {
    "id": 57597,
    "name": "Afzalgarh",
    "state_id": 4022,
    "state_code": "UP",
    "country_id": 101,
    "country_code": "IN",
    "latitude": "29.39370000",
    "longitude": "78.67393000",
    "wikiDataId": null
  },
  {
    "id": 57601,
    "name": "Agra",
    "state_id": 4022,
    "state_code": "UP",
    "country_id": 101,
    "country_code": "IN",
    "latitude": "27.18333000",
    "longitude": "78.01667000",
    "wikiDataId": null
  },
  {
    "id": 57607,
    "name": "Ahraura",
    "state_id": 4022,
    "state_code": "UP",
    "country_id": 101,
    "country_code": "IN",
    "latitude": "25.01579000",
    "longitude": "83.03294000",
    "wikiDataId": null
  },
  {
    "id": 147426,
    "name": "Aidalpur",
    "state_id": 4022,
    "state_code": "UP",
    "country_id": 101,
    "country_code": "IN",
    "latitude": "26.13333333",
    "longitude": "79.45000000",
    "wikiDataId": null
  },
  {
    "id": 147427,
    "name": "Airwa",
    "state_id": 4022,
    "state_code": "UP",
    "country_id": 101,
    "country_code": "IN",
    "latitude": "26.90000000",
    "longitude": "79.43333333",
    "wikiDataId": null
  },
  {
    "id": 57621,
    "name": "Akbarpur",
    "state_id": 4022,
    "state_code": "UP",
    "country_id": 101,
    "country_code": "IN",
    "latitude": "26.42953000",
    "longitude": "82.53431000",
    "wikiDataId": null
  },
  {
    "id": 147428,
    "name": "Akola",
    "state_id": 4022,
    "state_code": "UP",
    "country_id": 101,
    "country_code": "IN",
    "latitude": "27.06547000",
    "longitude": "77.88084000",
    "wikiDataId": null
  },
  {
    "id": 57653,
    "name": "Aliganj",
    "state_id": 4022,
    "state_code": "UP",
    "country_id": 101,
    "country_code": "IN",
    "latitude": "27.49358000",
    "longitude": "79.17127000",
    "wikiDataId": null
  },
  {
    "id": 57654,
    "name": "Aligarh",
    "state_id": 4022,
    "state_code": "UP",
    "country_id": 101,
    "country_code": "IN",
    "latitude": "27.83333000",
    "longitude": "78.16667000",
    "wikiDataId": null
  },
  {
    "id": 147429,
    "name": "Allahabad",
    "state_id": 4022,
    "state_code": "UP",
    "country_id": 101,
    "country_code": "IN",
    "latitude": "25.45000000",
    "longitude": "81.85000000",
    "wikiDataId": null
  },
  {
    "id": 57641,
    "name": "Allahganj",
    "state_id": 4022,
    "state_code": "UP",
    "country_id": 101,
    "country_code": "IN",
    "latitude": "27.54540000",
    "longitude": "79.68715000",
    "wikiDataId": null
  },
  {
    "id": 57692,
    "name": "Amanpur",
    "state_id": 4022,
    "state_code": "UP",
    "country_id": 101,
    "country_code": "IN",
    "latitude": "27.71222000",
    "longitude": "78.73788000",
    "wikiDataId": null
  },
  {
    "id": 147430,
    "name": "Amauli",
    "state_id": 4022,
    "state_code": "UP",
    "country_id": 101,
    "country_code": "IN",
    "latitude": "26.01666667",
    "longitude": "80.30000000",
    "wikiDataId": null
  },
  {
    "id": 57666,
    "name": "Ambahta",
    "state_id": 4022,
    "state_code": "UP",
    "country_id": 101,
    "country_code": "IN",
    "latitude": "29.85706000",
    "longitude": "77.33583000",
    "wikiDataId": null
  },
  {
    "id": 57669,
    "name": "Ambedkar Nagar",
    "state_id": 4022,
    "state_code": "UP",
    "country_id": 101,
    "country_code": "IN",
    "latitude": "26.40544000",
    "longitude": "82.69762000",
    "wikiDataId": null
  },
  {
    "id": 57677,
    "name": "Amethi",
    "state_id": 4022,
    "state_code": "UP",
    "country_id": 101,
    "country_code": "IN",
    "latitude": "28.01667000",
    "longitude": "81.05000000",
    "wikiDataId": null
  },
  {
    "id": 57687,
    "name": "Amroha",
    "state_id": 4022,
    "state_code": "UP",
    "country_id": 101,
    "country_code": "IN",
    "latitude": "28.90314000",
    "longitude": "78.46984000",
    "wikiDataId": null
  },
  {
    "id": 57696,
    "name": "Anandnagar",
    "state_id": 4022,
    "state_code": "UP",
    "country_id": 101,
    "country_code": "IN",
    "latitude": "27.10062000",
    "longitude": "83.27156000",
    "wikiDataId": null
  },
  {
    "id": 57720,
    "name": "Antu",
    "state_id": 4022,
    "state_code": "UP",
    "country_id": 101,
    "country_code": "IN",
    "latitude": "26.05654000",
    "longitude": "81.90267000",
    "wikiDataId": null
  },
  {
    "id": 57724,
    "name": "Anupshahr",
    "state_id": 4022,
    "state_code": "UP",
    "country_id": 101,
    "country_code": "IN",
    "latitude": "28.35748000",
    "longitude": "78.26914000",
    "wikiDataId": null
  },
  {
    "id": 57725,
    "name": "Aonla",
    "state_id": 4022,
    "state_code": "UP",
    "country_id": 101,
    "country_code": "IN",
    "latitude": "28.27402000",
    "longitude": "79.16521000",
    "wikiDataId": null
  },
  {
    "id": 147431,
    "name": "Araul",
    "state_id": 4022,
    "state_code": "UP",
    "country_id": 101,
    "country_code": "IN",
    "latitude": "26.91700000",
    "longitude": "80.03300000",
    "wikiDataId": null
  },
  {
    "id": 147432,
    "name": "Asalatganj",
    "state_id": 4022,
    "state_code": "UP",
    "country_id": 101,
    "country_code": "IN",
    "latitude": "26.68333333",
    "longitude": "79.85000000",
    "wikiDataId": null
  },
  {
    "id": 57755,
    "name": "Atarra",
    "state_id": 4022,
    "state_code": "UP",
    "country_id": 101,
    "country_code": "IN",
    "latitude": "25.28618000",
    "longitude": "80.57155000",
    "wikiDataId": null
  },
  {
    "id": 57760,
    "name": "Atrauli",
    "state_id": 4022,
    "state_code": "UP",
    "country_id": 101,
    "country_code": "IN",
    "latitude": "28.02964000",
    "longitude": "78.28571000",
    "wikiDataId": null
  },
  {
    "id": 57759,
    "name": "Atraulia",
    "state_id": 4022,
    "state_code": "UP",
    "country_id": 101,
    "country_code": "IN",
    "latitude": "26.33330000",
    "longitude": "82.94727000",
    "wikiDataId": null
  },
  {
    "id": 57764,
    "name": "Auraiya",
    "state_id": 4022,
    "state_code": "UP",
    "country_id": 101,
    "country_code": "IN",
    "latitude": "26.64692000",
    "longitude": "79.42858000",
    "wikiDataId": null
  },
  {
    "id": 57769,
    "name": "Auras",
    "state_id": 4022,
    "state_code": "UP",
    "country_id": 101,
    "country_code": "IN",
    "latitude": "26.91414000",
    "longitude": "80.50792000",
    "wikiDataId": null
  },
  {
    "id": 57616,
    "name": "Ayodhya",
    "state_id": 4022,
    "state_code": "UP",
    "country_id": 101,
    "country_code": "IN",
    "latitude": "26.79909000",
    "longitude": "82.20470000",
    "wikiDataId": null
  },
  {
    "id": 57777,
    "name": "Azamgarh",
    "state_id": 4022,
    "state_code": "UP",
    "country_id": 101,
    "country_code": "IN",
    "latitude": "26.06832000",
    "longitude": "83.18358000",
    "wikiDataId": null
  },
  {
    "id": 147433,
    "name": "Azizpur",
    "state_id": 4022,
    "state_code": "UP",
    "country_id": 101,
    "country_code": "IN",
    "latitude": "26.97638889",
    "longitude": "79.22138889",
    "wikiDataId": null
  },
  {
    "id": 57779,
    "name": "Baberu",
    "state_id": 4022,
    "state_code": "UP",
    "country_id": 101,
    "country_code": "IN",
    "latitude": "25.54711000",
    "longitude": "80.70443000",
    "wikiDataId": null
  },
  {
    "id": 57782,
    "name": "Babina",
    "state_id": 4022,
    "state_code": "UP",
    "country_id": 101,
    "country_code": "IN",
    "latitude": "25.23947000",
    "longitude": "78.47028000",
    "wikiDataId": null
  },
  {
    "id": 57780,
    "name": "Babrala",
    "state_id": 4022,
    "state_code": "UP",
    "country_id": 101,
    "country_code": "IN",
    "latitude": "28.26419000",
    "longitude": "78.40560000",
    "wikiDataId": null
  },
  {
    "id": 57781,
    "name": "Babugarh",
    "state_id": 4022,
    "state_code": "UP",
    "country_id": 101,
    "country_code": "IN",
    "latitude": "28.72353000",
    "longitude": "77.84677000",
    "wikiDataId": null
  },
  {
    "id": 57783,
    "name": "Bachhraon",
    "state_id": 4022,
    "state_code": "UP",
    "country_id": 101,
    "country_code": "IN",
    "latitude": "28.92694000",
    "longitude": "78.23456000",
    "wikiDataId": null
  },
  {
    "id": 57784,
    "name": "Bachhrawan",
    "state_id": 4022,
    "state_code": "UP",
    "country_id": 101,
    "country_code": "IN",
    "latitude": "26.47090000",
    "longitude": "81.11580000",
    "wikiDataId": null
  },
  {
    "id": 57801,
    "name": "Baghpat",
    "state_id": 4022,
    "state_code": "UP",
    "country_id": 101,
    "country_code": "IN",
    "latitude": "28.95000000",
    "longitude": "77.21670000",
    "wikiDataId": null
  },
  {
    "id": 147434,
    "name": "Baghra",
    "state_id": 4022,
    "state_code": "UP",
    "country_id": 101,
    "country_code": "IN",
    "latitude": "29.46666667",
    "longitude": "77.58333333",
    "wikiDataId": null
  },
  {
    "id": 58112,
    "name": "Bah",
    "state_id": 4022,
    "state_code": "UP",
    "country_id": 101,
    "country_code": "IN",
    "latitude": "26.86912000",
    "longitude": "78.59385000",
    "wikiDataId": null
  },
  {
    "id": 57803,
    "name": "Baheri",
    "state_id": 4022,
    "state_code": "UP",
    "country_id": 101,
    "country_code": "IN",
    "latitude": "28.77416000",
    "longitude": "79.49740000",
    "wikiDataId": null
  },
  {
    "id": 57804,
    "name": "Bahjoi",
    "state_id": 4022,
    "state_code": "UP",
    "country_id": 101,
    "country_code": "IN",
    "latitude": "28.39502000",
    "longitude": "78.62659000",
    "wikiDataId": null
  },
  {
    "id": 57805,
    "name": "Bahraich",
    "state_id": 4022,
    "state_code": "UP",
    "country_id": 101,
    "country_code": "IN",
    "latitude": "27.80021000",
    "longitude": "81.51855000",
    "wikiDataId": null
  },
  {
    "id": 57806,
    "name": "Bahraigh",
    "state_id": 4022,
    "state_code": "UP",
    "country_id": 101,
    "country_code": "IN",
    "latitude": "27.57429000",
    "longitude": "81.59474000",
    "wikiDataId": null
  },
  {
    "id": 57807,
    "name": "Bahsuma",
    "state_id": 4022,
    "state_code": "UP",
    "country_id": 101,
    "country_code": "IN",
    "latitude": "29.20063000",
    "longitude": "77.97221000",
    "wikiDataId": null
  },
  {
    "id": 57808,
    "name": "Bahua",
    "state_id": 4022,
    "state_code": "UP",
    "country_id": 101,
    "country_code": "IN",
    "latitude": "25.83942000",
    "longitude": "80.62255000",
    "wikiDataId": null
  },
  {
    "id": 58113,
    "name": "Bajna",
    "state_id": 4022,
    "state_code": "UP",
    "country_id": 101,
    "country_code": "IN",
    "latitude": "27.89793000",
    "longitude": "77.67836000",
    "wikiDataId": null
  },
  {
    "id": 57817,
    "name": "Bakewar",
    "state_id": 4022,
    "state_code": "UP",
    "country_id": 101,
    "country_code": "IN",
    "latitude": "26.66226000",
    "longitude": "79.17625000",
    "wikiDataId": null
  },
  {
    "id": 147435,
    "name": "Baksar",
    "state_id": 4022,
    "state_code": "UP",
    "country_id": 101,
    "country_code": "IN",
    "latitude": "28.76666667",
    "longitude": "78.01666667",
    "wikiDataId": null
  },
  {
    "id": 147436,
    "name": "Balamau",
    "state_id": 4022,
    "state_code": "UP",
    "country_id": 101,
    "country_code": "IN",
    "latitude": "27.16666667",
    "longitude": "80.35000000",
    "wikiDataId": null
  },
  {
    "id": 147437,
    "name": "Baldeo",
    "state_id": 4022,
    "state_code": "UP",
    "country_id": 101,
    "country_code": "IN",
    "latitude": "27.41666667",
    "longitude": "77.81666667",
    "wikiDataId": null
  },
  {
    "id": 57825,
    "name": "Baldev",
    "state_id": 4022,
    "state_code": "UP",
    "country_id": 101,
    "country_code": "IN",
    "latitude": "27.40684000",
    "longitude": "77.82214000",
    "wikiDataId": null
  },
  {
    "id": 57828,
    "name": "Ballia",
    "state_id": 4022,
    "state_code": "UP",
    "country_id": 101,
    "country_code": "IN",
    "latitude": "25.83333000",
    "longitude": "84.16667000",
    "wikiDataId": null
  },
  {
    "id": 57833,
    "name": "Balrampur",
    "state_id": 4022,
    "state_code": "UP",
    "country_id": 101,
    "country_code": "IN",
    "latitude": "27.43449000",
    "longitude": "82.40281000",
    "wikiDataId": null
  },
  {
    "id": 57840,
    "name": "Banat",
    "state_id": 4022,
    "state_code": "UP",
    "country_id": 101,
    "country_code": "IN",
    "latitude": "29.46355000",
    "longitude": "77.35478000",
    "wikiDataId": null
  },
  {
    "id": 58124,
    "name": "Banda",
    "state_id": 4022,
    "state_code": "UP",
    "country_id": 101,
    "country_code": "IN",
    "latitude": "25.50000000",
    "longitude": "80.50000000",
    "wikiDataId": null
  },
  {
    "id": 58126,
    "name": "Bangarmau",
    "state_id": 4022,
    "state_code": "UP",
    "country_id": 101,
    "country_code": "IN",
    "latitude": "26.89120000",
    "longitude": "80.21149000",
    "wikiDataId": null
  },
  {
    "id": 58130,
    "name": "Bansdih",
    "state_id": 4022,
    "state_code": "UP",
    "country_id": 101,
    "country_code": "IN",
    "latitude": "25.88377000",
    "longitude": "84.21827000",
    "wikiDataId": null
  },
  {
    "id": 58131,
    "name": "Bansgaon",
    "state_id": 4022,
    "state_code": "UP",
    "country_id": 101,
    "country_code": "IN",
    "latitude": "26.55032000",
    "longitude": "83.34503000",
    "wikiDataId": null
  },
  {
    "id": 58132,
    "name": "Bansi",
    "state_id": 4022,
    "state_code": "UP",
    "country_id": 101,
    "country_code": "IN",
    "latitude": "27.17749000",
    "longitude": "82.93442000",
    "wikiDataId": null
  },
  {
    "id": 147438,
    "name": "Banthra",
    "state_id": 4022,
    "state_code": "UP",
    "country_id": 101,
    "country_code": "IN",
    "latitude": "27.91720000",
    "longitude": "79.81740000",
    "wikiDataId": null
  },
  {
    "id": 58138,
    "name": "Bara Banki",
    "state_id": 4022,
    "state_code": "UP",
    "country_id": 101,
    "country_code": "IN",
    "latitude": "26.93864000",
    "longitude": "81.32740000",
    "wikiDataId": null
  },
  {
    "id": 57892,
    "name": "Baragaon",
    "state_id": 4022,
    "state_code": "UP",
    "country_id": 101,
    "country_code": "IN",
    "latitude": "25.47554000",
    "longitude": "78.71224000",
    "wikiDataId": null
  },
  {
    "id": 57865,
    "name": "Baraut",
    "state_id": 4022,
    "state_code": "UP",
    "country_id": 101,
    "country_code": "IN",
    "latitude": "29.10199000",
    "longitude": "77.26334000",
    "wikiDataId": null
  },
  {
    "id": 57867,
    "name": "Bareilly",
    "state_id": 4022,
    "state_code": "UP",
    "country_id": 101,
    "country_code": "IN",
    "latitude": "28.41667000",
    "longitude": "79.38333000",
    "wikiDataId": null
  },
  {
    "id": 147439,
    "name": "Barhalganj",
    "state_id": 4022,
    "state_code": "UP",
    "country_id": 101,
    "country_code": "IN",
    "latitude": "26.28333333",
    "longitude": "83.50000000",
    "wikiDataId": null
  },
  {
    "id": 147440,
    "name": "Barkhera",
    "state_id": 4022,
    "state_code": "UP",
    "country_id": 101,
    "country_code": "IN",
    "latitude": "28.45000000",
    "longitude": "79.80000000",
    "wikiDataId": null
  },
  {
    "id": 57877,
    "name": "Barkhera Kalan",
    "state_id": 4022,
    "state_code": "UP",
    "country_id": 101,
    "country_code": "IN",
    "latitude": "28.45209000",
    "longitude": "79.80655000",
    "wikiDataId": null
  },
  {
    "id": 147441,
    "name": "Barokhar",
    "state_id": 4022,
    "state_code": "UP",
    "country_id": 101,
    "country_code": "IN",
    "latitude": "24.91666667",
    "longitude": "81.96666667",
    "wikiDataId": null
  },
  {
    "id": 57887,
    "name": "Barsana",
    "state_id": 4022,
    "state_code": "UP",
    "country_id": 101,
    "country_code": "IN",
    "latitude": "27.64802000",
    "longitude": "77.37640000",
    "wikiDataId": null
  },
  {
    "id": 147442,
    "name": "Barwar (Lakhimpur Kheri)",
    "state_id": 4022,
    "state_code": "UP",
    "country_id": 101,
    "country_code": "IN",
    "latitude": "25.50583333",
    "longitude": "79.13972222",
    "wikiDataId": null
  },
  {
    "id": 57901,
    "name": "Basti",
    "state_id": 4022,
    "state_code": "UP",
    "country_id": 101,
    "country_code": "IN",
    "latitude": "26.82816000",
    "longitude": "82.77924000",
    "wikiDataId": null
  },
  {
    "id": 57918,
    "name": "Behat",
    "state_id": 4022,
    "state_code": "UP",
    "country_id": 101,
    "country_code": "IN",
    "latitude": "30.17180000",
    "longitude": "77.61390000",
    "wikiDataId": null
  },
  {
    "id": 57920,
    "name": "Bela",
    "state_id": 4022,
    "state_code": "UP",
    "country_id": 101,
    "country_code": "IN",
    "latitude": "25.92058000",
    "longitude": "81.99629000",
    "wikiDataId": null
  },
  {
    "id": 147443,
    "name": "Belthara",
    "state_id": 4022,
    "state_code": "UP",
    "country_id": 101,
    "country_code": "IN",
    "latitude": "26.12694444",
    "longitude": "83.89138889",
    "wikiDataId": null
  },
  {
    "id": 57934,
    "name": "Beniganj",
    "state_id": 4022,
    "state_code": "UP",
    "country_id": 101,
    "country_code": "IN",
    "latitude": "27.29293000",
    "longitude": "80.44364000",
    "wikiDataId": null
  },
  {
    "id": 57938,
    "name": "Beswan",
    "state_id": 4022,
    "state_code": "UP",
    "country_id": 101,
    "country_code": "IN",
    "latitude": "27.63792000",
    "longitude": "77.88019000",
    "wikiDataId": null
  },
  {
    "id": 57944,
    "name": "Bewar",
    "state_id": 4022,
    "state_code": "UP",
    "country_id": 101,
    "country_code": "IN",
    "latitude": "27.21869000",
    "longitude": "79.29761000",
    "wikiDataId": null
  },
  {
    "id": 147444,
    "name": "Bhadarsa",
    "state_id": 4022,
    "state_code": "UP",
    "country_id": 101,
    "country_code": "IN",
    "latitude": "26.66027778",
    "longitude": "82.12416667",
    "wikiDataId": null
  },
  {
    "id": 57951,
    "name": "Bhadohi",
    "state_id": 4022,
    "state_code": "UP",
    "country_id": 101,
    "country_code": "IN",
    "latitude": "25.39526000",
    "longitude": "82.57030000",
    "wikiDataId": null
  },
  {
    "id": 57958,
    "name": "Bhagwantnagar",
    "state_id": 4022,
    "state_code": "UP",
    "country_id": 101,
    "country_code": "IN",
    "latitude": "26.22383000",
    "longitude": "80.75750000",
    "wikiDataId": null
  },
  {
    "id": 147445,
    "name": "Bharatpura",
    "state_id": 4022,
    "state_code": "UP",
    "country_id": 101,
    "country_code": "IN",
    "latitude": "25.23333333",
    "longitude": "78.96666667",
    "wikiDataId": null
  },
  {
    "id": 147446,
    "name": "Bhargain",
    "state_id": 4022,
    "state_code": "UP",
    "country_id": 101,
    "country_code": "IN",
    "latitude": "27.61500000",
    "longitude": "79.14416667",
    "wikiDataId": null
  },
  {
    "id": 57965,
    "name": "Bharthana",
    "state_id": 4022,
    "state_code": "UP",
    "country_id": 101,
    "country_code": "IN",
    "latitude": "26.75231000",
    "longitude": "79.22180000",
    "wikiDataId": null
  },
  {
    "id": 57966,
    "name": "Bharwari",
    "state_id": 4022,
    "state_code": "UP",
    "country_id": 101,
    "country_code": "IN",
    "latitude": "25.56078000",
    "longitude": "81.49164000",
    "wikiDataId": null
  },
  {
    "id": 147447,
    "name": "Bhaupur",
    "state_id": 4022,
    "state_code": "UP",
    "country_id": 101,
    "country_code": "IN",
    "latitude": "26.91666667",
    "longitude": "79.21666667",
    "wikiDataId": null
  },
  {
    "id": 147448,
    "name": "Bhimtal",
    "state_id": 4022,
    "state_code": "UP",
    "country_id": 101,
    "country_code": "IN",
    "latitude": "29.34444444",
    "longitude": "79.56305556",
    "wikiDataId": null
  },
  {
    "id": 57984,
    "name": "Bhinga",
    "state_id": 4022,
    "state_code": "UP",
    "country_id": 101,
    "country_code": "IN",
    "latitude": "27.70283000",
    "longitude": "81.93430000",
    "wikiDataId": null
  },
  {
    "id": 147449,
    "name": "Bhognipur",
    "state_id": 4022,
    "state_code": "UP",
    "country_id": 101,
    "country_code": "IN",
    "latitude": "26.24000000",
    "longitude": "79.80000000",
    "wikiDataId": null
  },
  {
    "id": 57993,
    "name": "Bhongaon",
    "state_id": 4022,
    "state_code": "UP",
    "country_id": 101,
    "country_code": "IN",
    "latitude": "27.25515000",
    "longitude": "79.18118000",
    "wikiDataId": null
  },
  {
    "id": 147450,
    "name": "Bidhnu",
    "state_id": 4022,
    "state_code": "UP",
    "country_id": 101,
    "country_code": "IN",
    "latitude": "26.33333333",
    "longitude": "80.28333333",
    "wikiDataId": null
  },
  {
    "id": 58027,
    "name": "Bidhuna",
    "state_id": 4022,
    "state_code": "UP",
    "country_id": 101,
    "country_code": "IN",
    "latitude": "26.80172000",
    "longitude": "79.50829000",
    "wikiDataId": null
  },
  {
    "id": 147451,
    "name": "Bighapur",
    "state_id": 4022,
    "state_code": "UP",
    "country_id": 101,
    "country_code": "IN",
    "latitude": "26.35000000",
    "longitude": "80.68000000",
    "wikiDataId": null
  },
  {
    "id": 58155,
    "name": "Bighapur Khurd",
    "state_id": 4022,
    "state_code": "UP",
    "country_id": 101,
    "country_code": "IN",
    "latitude": "26.34734000",
    "longitude": "80.65698000",
    "wikiDataId": null
  },
  {
    "id": 58035,
    "name": "Bijnor",
    "state_id": 4022,
    "state_code": "UP",
    "country_id": 101,
    "country_code": "IN",
    "latitude": "29.41667000",
    "longitude": "78.51667000",
    "wikiDataId": null
  },
  {
    "id": 58158,
    "name": "Bikapur",
    "state_id": 4022,
    "state_code": "UP",
    "country_id": 101,
    "country_code": "IN",
    "latitude": "26.59534000",
    "longitude": "82.13272000",
    "wikiDataId": null
  },
  {
    "id": 58052,
    "name": "Bilari",
    "state_id": 4022,
    "state_code": "UP",
    "country_id": 101,
    "country_code": "IN",
    "latitude": "28.62146000",
    "longitude": "78.80361000",
    "wikiDataId": null
  },
  {
    "id": 58040,
    "name": "Bilariaganj",
    "state_id": 4022,
    "state_code": "UP",
    "country_id": 101,
    "country_code": "IN",
    "latitude": "26.19593000",
    "longitude": "83.22690000",
    "wikiDataId": null
  },
  {
    "id": 58159,
    "name": "Bilaspur",
    "state_id": 4022,
    "state_code": "UP",
    "country_id": 101,
    "country_code": "IN",
    "latitude": "28.88655000",
    "longitude": "79.27030000",
    "wikiDataId": null
  },
  {
    "id": 58043,
    "name": "Bilgram",
    "state_id": 4022,
    "state_code": "UP",
    "country_id": 101,
    "country_code": "IN",
    "latitude": "27.17509000",
    "longitude": "80.03201000",
    "wikiDataId": null
  },
  {
    "id": 58044,
    "name": "Bilhaur",
    "state_id": 4022,
    "state_code": "UP",
    "country_id": 101,
    "country_code": "IN",
    "latitude": "26.84345000",
    "longitude": "80.06388000",
    "wikiDataId": null
  },
  {
    "id": 58048,
    "name": "Bilsanda",
    "state_id": 4022,
    "state_code": "UP",
    "country_id": 101,
    "country_code": "IN",
    "latitude": "28.24341000",
    "longitude": "79.95135000",
    "wikiDataId": null
  },
  {
    "id": 58049,
    "name": "Bilsi",
    "state_id": 4022,
    "state_code": "UP",
    "country_id": 101,
    "country_code": "IN",
    "latitude": "28.12941000",
    "longitude": "78.91090000",
    "wikiDataId": null
  },
  {
    "id": 58050,
    "name": "Bilthra",
    "state_id": 4022,
    "state_code": "UP",
    "country_id": 101,
    "country_code": "IN",
    "latitude": "26.12705000",
    "longitude": "83.89148000",
    "wikiDataId": null
  },
  {
    "id": 147452,
    "name": "Binauli",
    "state_id": 4022,
    "state_code": "UP",
    "country_id": 101,
    "country_code": "IN",
    "latitude": "29.09416667",
    "longitude": "77.40083333",
    "wikiDataId": null
  },
  {
    "id": 147453,
    "name": "Binaur",
    "state_id": 4022,
    "state_code": "UP",
    "country_id": 101,
    "country_code": "IN",
    "latitude": "26.38333333",
    "longitude": "80.16666667",
    "wikiDataId": null
  },
  {
    "id": 58057,
    "name": "Bindki",
    "state_id": 4022,
    "state_code": "UP",
    "country_id": 101,
    "country_code": "IN",
    "latitude": "26.03613000",
    "longitude": "80.57617000",
    "wikiDataId": null
  },
  {
    "id": 147454,
    "name": "Birdpur",
    "state_id": 4022,
    "state_code": "UP",
    "country_id": 101,
    "country_code": "IN",
    "latitude": "27.38330000",
    "longitude": "83.11670000",
    "wikiDataId": null
  },
  {
    "id": 147455,
    "name": "Birpur",
    "state_id": 4022,
    "state_code": "UP",
    "country_id": 101,
    "country_code": "IN",
    "latitude": "26.53000000",
    "longitude": "86.25000000",
    "wikiDataId": null
  },
  {
    "id": 58161,
    "name": "Bisalpur",
    "state_id": 4022,
    "state_code": "UP",
    "country_id": 101,
    "country_code": "IN",
    "latitude": "28.29253000",
    "longitude": "79.80472000",
    "wikiDataId": null
  },
  {
    "id": 147456,
    "name": "Bisanda Buzurg",
    "state_id": 4022,
    "state_code": "UP",
    "country_id": 101,
    "country_code": "IN",
    "latitude": "25.41666667",
    "longitude": "80.61666667",
    "wikiDataId": null
  },
  {
    "id": 58062,
    "name": "Bisauli",
    "state_id": 4022,
    "state_code": "UP",
    "country_id": 101,
    "country_code": "IN",
    "latitude": "28.30772000",
    "longitude": "78.93678000",
    "wikiDataId": null
  },
  {
    "id": 58063,
    "name": "Bisenda Buzurg",
    "state_id": 4022,
    "state_code": "UP",
    "country_id": 101,
    "country_code": "IN",
    "latitude": "25.40350000",
    "longitude": "80.61889000",
    "wikiDataId": null
  },
  {
    "id": 58066,
    "name": "Bishunpur Urf Maharajganj",
    "state_id": 4022,
    "state_code": "UP",
    "country_id": 101,
    "country_code": "IN",
    "latitude": "26.25914000",
    "longitude": "83.11643000",
    "wikiDataId": null
  },
  {
    "id": 58068,
    "name": "Biswan",
    "state_id": 4022,
    "state_code": "UP",
    "country_id": 101,
    "country_code": "IN",
    "latitude": "27.49581000",
    "longitude": "80.99618000",
    "wikiDataId": null
  },
  {
    "id": 58069,
    "name": "Bithur",
    "state_id": 4022,
    "state_code": "UP",
    "country_id": 101,
    "country_code": "IN",
    "latitude": "26.60664000",
    "longitude": "80.27098000",
    "wikiDataId": null
  },
  {
    "id": 58088,
    "name": "Budaun",
    "state_id": 4022,
    "state_code": "UP",
    "country_id": 101,
    "country_code": "IN",
    "latitude": "28.11667000",
    "longitude": "78.98333000",
    "wikiDataId": null
  },
  {
    "id": 58091,
    "name": "Budhana",
    "state_id": 4022,
    "state_code": "UP",
    "country_id": 101,
    "country_code": "IN",
    "latitude": "29.28805000",
    "longitude": "77.47534000",
    "wikiDataId": null
  },
  {
    "id": 58093,
    "name": "Bulandshahr",
    "state_id": 4022,
    "state_code": "UP",
    "country_id": 101,
    "country_code": "IN",
    "latitude": "28.41667000",
    "longitude": "77.83333000",
    "wikiDataId": null
  },
  {
    "id": 58168,
    "name": "Captainganj",
    "state_id": 4022,
    "state_code": "UP",
    "country_id": 101,
    "country_code": "IN",
    "latitude": "26.92640000",
    "longitude": "83.71334000",
    "wikiDataId": null
  },
  {
    "id": 58172,
    "name": "Chail",
    "state_id": 4022,
    "state_code": "UP",
    "country_id": 101,
    "country_code": "IN",
    "latitude": "25.42654000",
    "longitude": "81.63198000",
    "wikiDataId": null
  },
  {
    "id": 58173,
    "name": "Chakia",
    "state_id": 4022,
    "state_code": "UP",
    "country_id": 101,
    "country_code": "IN",
    "latitude": "25.04891000",
    "longitude": "83.22155000",
    "wikiDataId": null
  },
  {
    "id": 58186,
    "name": "Chandauli",
    "state_id": 4022,
    "state_code": "UP",
    "country_id": 101,
    "country_code": "IN",
    "latitude": "25.25803000",
    "longitude": "83.26825000",
    "wikiDataId": null
  },
  {
    "id": 58187,
    "name": "Chandauli District",
    "state_id": 4022,
    "state_code": "UP",
    "country_id": 101,
    "country_code": "IN",
    "latitude": "25.26134000",
    "longitude": "83.26408000",
    "wikiDataId": null
  },
  {
    "id": 147457,
    "name": "Chandausi",
    "state_id": 4022,
    "state_code": "UP",
    "country_id": 101,
    "country_code": "IN",
    "latitude": "28.45000000",
    "longitude": "78.77000000",
    "wikiDataId": null
  },
  {
    "id": 131600,
    "name": "Chandpur",
    "state_id": 4022,
    "state_code": "UP",
    "country_id": 101,
    "country_code": "IN",
    "latitude": "29.13489000",
    "longitude": "78.27187000",
    "wikiDataId": null
  },
  {
    "id": 58193,
    "name": "Chanduasi",
    "state_id": 4022,
    "state_code": "UP",
    "country_id": 101,
    "country_code": "IN",
    "latitude": "28.45178000",
    "longitude": "78.78277000",
    "wikiDataId": null
  },
  {
    "id": 58201,
    "name": "Charkhari",
    "state_id": 4022,
    "state_code": "UP",
    "country_id": 101,
    "country_code": "IN",
    "latitude": "25.40304000",
    "longitude": "79.74877000",
    "wikiDataId": null
  },
  {
    "id": 131509,
    "name": "Charthawal",
    "state_id": 4022,
    "state_code": "UP",
    "country_id": 101,
    "country_code": "IN",
    "latitude": "29.54687000",
    "longitude": "77.59438000",
    "wikiDataId": null
  },
  {
    "id": 131530,
    "name": "Chhaprauli",
    "state_id": 4022,
    "state_code": "UP",
    "country_id": 101,
    "country_code": "IN",
    "latitude": "29.20989000",
    "longitude": "77.17454000",
    "wikiDataId": null
  },
  {
    "id": 131531,
    "name": "Chharra",
    "state_id": 4022,
    "state_code": "UP",
    "country_id": 101,
    "country_code": "IN",
    "latitude": "27.92470000",
    "longitude": "78.40102000",
    "wikiDataId": null
  },
  {
    "id": 131540,
    "name": "Chhata",
    "state_id": 4022,
    "state_code": "UP",
    "country_id": 101,
    "country_code": "IN",
    "latitude": "27.72374000",
    "longitude": "77.50810000",
    "wikiDataId": null
  },
  {
    "id": 131533,
    "name": "Chhibramau",
    "state_id": 4022,
    "state_code": "UP",
    "country_id": 101,
    "country_code": "IN",
    "latitude": "27.14872000",
    "longitude": "79.50078000",
    "wikiDataId": null
  },
  {
    "id": 147458,
    "name": "Chhitauni",
    "state_id": 4022,
    "state_code": "UP",
    "country_id": 101,
    "country_code": "IN",
    "latitude": "27.11666667",
    "longitude": "83.98333333",
    "wikiDataId": null
  },
  {
    "id": 131537,
    "name": "Chhutmalpur",
    "state_id": 4022,
    "state_code": "UP",
    "country_id": 101,
    "country_code": "IN",
    "latitude": "30.03209000",
    "longitude": "77.75329000",
    "wikiDataId": null
  },
  {
    "id": 131557,
    "name": "Chillupar",
    "state_id": 4022,
    "state_code": "UP",
    "country_id": 101,
    "country_code": "IN",
    "latitude": "26.28221000",
    "longitude": "83.50640000",
    "wikiDataId": null
  },
  {
    "id": 131569,
    "name": "Chirgaon",
    "state_id": 4022,
    "state_code": "UP",
    "country_id": 101,
    "country_code": "IN",
    "latitude": "25.57198000",
    "longitude": "78.81432000",
    "wikiDataId": null
  },
  {
    "id": 131572,
    "name": "Chitrakoot",
    "state_id": 4022,
    "state_code": "UP",
    "country_id": 101,
    "country_code": "IN",
    "latitude": "25.20511000",
    "longitude": "81.08962000",
    "wikiDataId": null
  },
  {
    "id": 147459,
    "name": "Chitrakoot Dham",
    "state_id": 4022,
    "state_code": "UP",
    "country_id": 101,
    "country_code": "IN",
    "latitude": "25.20000000",
    "longitude": "80.90000000",
    "wikiDataId": null
  },
  {
    "id": 131579,
    "name": "Chopan",
    "state_id": 4022,
    "state_code": "UP",
    "country_id": 101,
    "country_code": "IN",
    "latitude": "24.51954000",
    "longitude": "83.02287000",
    "wikiDataId": null
  },
  {
    "id": 131584,
    "name": "Chunar",
    "state_id": 4022,
    "state_code": "UP",
    "country_id": 101,
    "country_code": "IN",
    "latitude": "25.12776000",
    "longitude": "82.88210000",
    "wikiDataId": null
  },
  {
    "id": 147460,
    "name": "Churk",
    "state_id": 4022,
    "state_code": "UP",
    "country_id": 101,
    "country_code": "IN",
    "latitude": "24.65000000",
    "longitude": "83.10000000",
    "wikiDataId": null
  },
  {
    "id": 131621,
    "name": "Colonelganj",
    "state_id": 4022,
    "state_code": "UP",
    "country_id": 101,
    "country_code": "IN",
    "latitude": "27.13432000",
    "longitude": "81.69868000",
    "wikiDataId": null
  },
  {
    "id": 131806,
    "name": "Dadri",
    "state_id": 4022,
    "state_code": "UP",
    "country_id": 101,
    "country_code": "IN",
    "latitude": "28.55257000",
    "longitude": "77.55403000",
    "wikiDataId": null
  },
  {
    "id": 131646,
    "name": "Dalmau",
    "state_id": 4022,
    "state_code": "UP",
    "country_id": 101,
    "country_code": "IN",
    "latitude": "26.06477000",
    "longitude": "81.02980000",
    "wikiDataId": null
  },
  {
    "id": 131653,
    "name": "Dankaur",
    "state_id": 4022,
    "state_code": "UP",
    "country_id": 101,
    "country_code": "IN",
    "latitude": "28.35121000",
    "longitude": "77.55508000",
    "wikiDataId": null
  },
  {
    "id": 147461,
    "name": "Daraganj",
    "state_id": 4022,
    "state_code": "UP",
    "country_id": 101,
    "country_code": "IN",
    "latitude": "25.43333333",
    "longitude": "81.88333333",
    "wikiDataId": null
  },
  {
    "id": 147462,
    "name": "Daranagar",
    "state_id": 4022,
    "state_code": "UP",
    "country_id": 101,
    "country_code": "IN",
    "latitude": "25.68162080",
    "longitude": "81.34975790",
    "wikiDataId": null
  },
  {
    "id": 131811,
    "name": "Dasna",
    "state_id": 4022,
    "state_code": "UP",
    "country_id": 101,
    "country_code": "IN",
    "latitude": "28.67736000",
    "longitude": "77.52252000",
    "wikiDataId": null
  },
  {
    "id": 131812,
    "name": "Dataganj",
    "state_id": 4022,
    "state_code": "UP",
    "country_id": 101,
    "country_code": "IN",
    "latitude": "28.02530000",
    "longitude": "79.40819000",
    "wikiDataId": null
  },
  {
    "id": 131668,
    "name": "Daurala",
    "state_id": 4022,
    "state_code": "UP",
    "country_id": 101,
    "country_code": "IN",
    "latitude": "29.11344000",
    "longitude": "77.70467000",
    "wikiDataId": null
  },
  {
    "id": 131674,
    "name": "Dayal Bagh",
    "state_id": 4022,
    "state_code": "UP",
    "country_id": 101,
    "country_code": "IN",
    "latitude": "27.22122000",
    "longitude": "78.01095000",
    "wikiDataId": null
  },
  {
    "id": 131682,
    "name": "Deoband",
    "state_id": 4022,
    "state_code": "UP",
    "country_id": 101,
    "country_code": "IN",
    "latitude": "29.69505000",
    "longitude": "77.67964000",
    "wikiDataId": null
  },
  {
    "id": 147463,
    "name": "Deogarh",
    "state_id": 4022,
    "state_code": "UP",
    "country_id": 101,
    "country_code": "IN",
    "latitude": "24.52600000",
    "longitude": "78.23800000",
    "wikiDataId": null
  },
  {
    "id": 131689,
    "name": "Deoranian",
    "state_id": 4022,
    "state_code": "UP",
    "country_id": 101,
    "country_code": "IN",
    "latitude": "28.62989000",
    "longitude": "79.47648000",
    "wikiDataId": null
  },
  {
    "id": 131692,
    "name": "Deoria",
    "state_id": 4022,
    "state_code": "UP",
    "country_id": 101,
    "country_code": "IN",
    "latitude": "26.66667000",
    "longitude": "83.75000000",
    "wikiDataId": null
  },
  {
    "id": 147464,
    "name": "Derapur",
    "state_id": 4022,
    "state_code": "UP",
    "country_id": 101,
    "country_code": "IN",
    "latitude": "26.41666667",
    "longitude": "79.80000000",
    "wikiDataId": null
  },
  {
    "id": 131708,
    "name": "Dewa",
    "state_id": 4022,
    "state_code": "UP",
    "country_id": 101,
    "country_code": "IN",
    "latitude": "27.03621000",
    "longitude": "81.16692000",
    "wikiDataId": null
  },
  {
    "id": 131750,
    "name": "Dhampur",
    "state_id": 4022,
    "state_code": "UP",
    "country_id": 101,
    "country_code": "IN",
    "latitude": "29.30883000",
    "longitude": "78.51083000",
    "wikiDataId": null
  },
  {
    "id": 131714,
    "name": "Dhanaura",
    "state_id": 4022,
    "state_code": "UP",
    "country_id": 101,
    "country_code": "IN",
    "latitude": "28.95912000",
    "longitude": "78.25629000",
    "wikiDataId": null
  },
  {
    "id": 147465,
    "name": "Dhanghata",
    "state_id": 4022,
    "state_code": "UP",
    "country_id": 101,
    "country_code": "IN",
    "latitude": "26.55419444",
    "longitude": "83.00806111",
    "wikiDataId": null
  },
  {
    "id": 147466,
    "name": "Dharau",
    "state_id": 4022,
    "state_code": "UP",
    "country_id": 101,
    "country_code": "IN",
    "latitude": "26.38333333",
    "longitude": "79.96666667",
    "wikiDataId": null
  },
  {
    "id": 131731,
    "name": "Dhaurahra",
    "state_id": 4022,
    "state_code": "UP",
    "country_id": 101,
    "country_code": "IN",
    "latitude": "27.99814000",
    "longitude": "81.08975000",
    "wikiDataId": null
  },
  {
    "id": 131761,
    "name": "Dibai",
    "state_id": 4022,
    "state_code": "UP",
    "country_id": 101,
    "country_code": "IN",
    "latitude": "28.20849000",
    "longitude": "78.26173000",
    "wikiDataId": null
  },
  {
    "id": 147467,
    "name": "Divrasai",
    "state_id": 4022,
    "state_code": "UP",
    "country_id": 101,
    "country_code": "IN",
    "latitude": "26.81900000",
    "longitude": "79.14900000",
    "wikiDataId": null
  },
  {
    "id": 131783,
    "name": "Dohrighat",
    "state_id": 4022,
    "state_code": "UP",
    "country_id": 101,
    "country_code": "IN",
    "latitude": "26.27217000",
    "longitude": "83.50916000",
    "wikiDataId": null
  },
  {
    "id": 147468,
    "name": "Domariaganj",
    "state_id": 4022,
    "state_code": "UP",
    "country_id": 101,
    "country_code": "IN",
    "latitude": "27.22000000",
    "longitude": "82.67000000",
    "wikiDataId": null
  },
  {
    "id": 131791,
    "name": "Dostpur",
    "state_id": 4022,
    "state_code": "UP",
    "country_id": 101,
    "country_code": "IN",
    "latitude": "26.27486000",
    "longitude": "82.47091000",
    "wikiDataId": null
  },
  {
    "id": 131818,
    "name": "Dudhi",
    "state_id": 4022,
    "state_code": "UP",
    "country_id": 101,
    "country_code": "IN",
    "latitude": "24.21357000",
    "longitude": "83.24067000",
    "wikiDataId": null
  },
  {
    "id": 131845,
    "name": "Etah",
    "state_id": 4022,
    "state_code": "UP",
    "country_id": 101,
    "country_code": "IN",
    "latitude": "27.50000000",
    "longitude": "78.75000000",
    "wikiDataId": null
  },
  {
    "id": 131849,
    "name": "Etawah",
    "state_id": 4022,
    "state_code": "UP",
    "country_id": 101,
    "country_code": "IN",
    "latitude": "26.75000000",
    "longitude": "79.25000000",
    "wikiDataId": null
  },
  {
    "id": 147469,
    "name": "Etmadpur",
    "state_id": 4022,
    "state_code": "UP",
    "country_id": 101,
    "country_code": "IN",
    "latitude": "27.23971944",
    "longitude": "78.20000000",
    "wikiDataId": null
  },
  {
    "id": 131851,
    "name": "Faizabad",
    "state_id": 4022,
    "state_code": "UP",
    "country_id": 101,
    "country_code": "IN",
    "latitude": "26.75000000",
    "longitude": "82.00000000",
    "wikiDataId": null
  },
  {
    "id": 131852,
    "name": "Farah",
    "state_id": 4022,
    "state_code": "UP",
    "country_id": 101,
    "country_code": "IN",
    "latitude": "27.32081000",
    "longitude": "77.76185000",
    "wikiDataId": null
  },
  {
    "id": 131860,
    "name": "Faridnagar",
    "state_id": 4022,
    "state_code": "UP",
    "country_id": 101,
    "country_code": "IN",
    "latitude": "28.76923000",
    "longitude": "77.62934000",
    "wikiDataId": null
  },
  {
    "id": 131861,
    "name": "Faridpur",
    "state_id": 4022,
    "state_code": "UP",
    "country_id": 101,
    "country_code": "IN",
    "latitude": "28.20997000",
    "longitude": "79.54149000",
    "wikiDataId": null
  },
  {
    "id": 131858,
    "name": "Farrukhabad",
    "state_id": 4022,
    "state_code": "UP",
    "country_id": 101,
    "country_code": "IN",
    "latitude": "27.50000000",
    "longitude": "79.50000000",
    "wikiDataId": null
  },
  {
    "id": 131871,
    "name": "Fatehabad",
    "state_id": 4022,
    "state_code": "UP",
    "country_id": 101,
    "country_code": "IN",
    "latitude": "27.02645000",
    "longitude": "78.30270000",
    "wikiDataId": null
  },
  {
    "id": 131863,
    "name": "Fatehganj West",
    "state_id": 4022,
    "state_code": "UP",
    "country_id": 101,
    "country_code": "IN",
    "latitude": "28.46620000",
    "longitude": "79.30657000",
    "wikiDataId": null
  },
  {
    "id": 131864,
    "name": "Fatehgarh",
    "state_id": 4022,
    "state_code": "UP",
    "country_id": 101,
    "country_code": "IN",
    "latitude": "27.36409000",
    "longitude": "79.63111000",
    "wikiDataId": null
  },
  {
    "id": 131868,
    "name": "Fatehpur",
    "state_id": 4022,
    "state_code": "UP",
    "country_id": 101,
    "country_code": "IN",
    "latitude": "25.75000000",
    "longitude": "80.75000000",
    "wikiDataId": null
  },
  {
    "id": 147470,
    "name": "Fatehpur (Barabanki)",
    "state_id": 4022,
    "state_code": "UP",
    "country_id": 101,
    "country_code": "IN",
    "latitude": "27.17000000",
    "longitude": "81.22000000",
    "wikiDataId": null
  },
  {
    "id": 131869,
    "name": "Fatehpur Chaurasi",
    "state_id": 4022,
    "state_code": "UP",
    "country_id": 101,
    "country_code": "IN",
    "latitude": "26.78925000",
    "longitude": "80.26547000",
    "wikiDataId": null
  },
  {
    "id": 131870,
    "name": "Fatehpur Sikri",
    "state_id": 4022,
    "state_code": "UP",
    "country_id": 101,
    "country_code": "IN",
    "latitude": "27.09370000",
    "longitude": "77.66003000",
    "wikiDataId": null
  },
  {
    "id": 131876,
    "name": "Firozabad",
    "state_id": 4022,
    "state_code": "UP",
    "country_id": 101,
    "country_code": "IN",
    "latitude": "27.20072000",
    "longitude": "78.42867000",
    "wikiDataId": null
  },
  {
    "id": 131880,
    "name": "Fyzabad",
    "state_id": 4022,
    "state_code": "UP",
    "country_id": 101,
    "country_code": "IN",
    "latitude": "26.77549000",
    "longitude": "82.15018000",
    "wikiDataId": null
  },
  {
    "id": 147471,
    "name": "Gahlon",
    "state_id": 4022,
    "state_code": "UP",
    "country_id": 101,
    "country_code": "IN",
    "latitude": "26.53333333",
    "longitude": "79.96666667",
    "wikiDataId": null
  },
  {
    "id": 147472,
    "name": "Gahmar",
    "state_id": 4022,
    "state_code": "UP",
    "country_id": 101,
    "country_code": "IN",
    "latitude": "25.49700000",
    "longitude": "83.82200000",
    "wikiDataId": null
  },
  {
    "id": 147473,
    "name": "Gaini",
    "state_id": 4022,
    "state_code": "UP",
    "country_id": 101,
    "country_code": "IN",
    "latitude": "28.21000000",
    "longitude": "79.16000000",
    "wikiDataId": null
  },
  {
    "id": 131894,
    "name": "Gajraula",
    "state_id": 4022,
    "state_code": "UP",
    "country_id": 101,
    "country_code": "IN",
    "latitude": "28.84570000",
    "longitude": "78.23960000",
    "wikiDataId": null
  },
  {
    "id": 131903,
    "name": "Gangoh",
    "state_id": 4022,
    "state_code": "UP",
    "country_id": 101,
    "country_code": "IN",
    "latitude": "29.78004000",
    "longitude": "77.26346000",
    "wikiDataId": null
  },
  {
    "id": 147474,
    "name": "Ganj Dundawara",
    "state_id": 4022,
    "state_code": "UP",
    "country_id": 101,
    "country_code": "IN",
    "latitude": "27.73277778",
    "longitude": "78.94166667",
    "wikiDataId": null
  },
  {
    "id": 131912,
    "name": "Ganj Dundwara",
    "state_id": 4022,
    "state_code": "UP",
    "country_id": 101,
    "country_code": "IN",
    "latitude": "27.73308000",
    "longitude": "78.94119000",
    "wikiDataId": null
  },
  {
    "id": 131913,
    "name": "Ganj Muradabad",
    "state_id": 4022,
    "state_code": "UP",
    "country_id": 101,
    "country_code": "IN",
    "latitude": "26.95733000",
    "longitude": "80.18400000",
    "wikiDataId": null
  },
  {
    "id": 131916,
    "name": "Garautha",
    "state_id": 4022,
    "state_code": "UP",
    "country_id": 101,
    "country_code": "IN",
    "latitude": "25.57190000",
    "longitude": "79.29764000",
    "wikiDataId": null
  },
  {
    "id": 131919,
    "name": "Garhi Pukhta",
    "state_id": 4022,
    "state_code": "UP",
    "country_id": 101,
    "country_code": "IN",
    "latitude": "29.54980000",
    "longitude": "77.30881000",
    "wikiDataId": null
  },
  {
    "id": 131920,
    "name": "Garhmuktesar",
    "state_id": 4022,
    "state_code": "UP",
    "country_id": 101,
    "country_code": "IN",
    "latitude": "28.78732000",
    "longitude": "78.10214000",
    "wikiDataId": null
  },
  {
    "id": 147475,
    "name": "Garhwa",
    "state_id": 4022,
    "state_code": "UP",
    "country_id": 101,
    "country_code": "IN",
    "latitude": "24.18000000",
    "longitude": "83.82000000",
    "wikiDataId": null
  },
  {
    "id": 147476,
    "name": "Gauriganj",
    "state_id": 4022,
    "state_code": "UP",
    "country_id": 101,
    "country_code": "IN",
    "latitude": "26.20600000",
    "longitude": "81.69000000",
    "wikiDataId": null
  },
  {
    "id": 131929,
    "name": "Gautam Buddha Nagar",
    "state_id": 4022,
    "state_code": "UP",
    "country_id": 101,
    "country_code": "IN",
    "latitude": "28.35898000",
    "longitude": "77.55076000",
    "wikiDataId": null
  },
  {
    "id": 131931,
    "name": "Gawan",
    "state_id": 4022,
    "state_code": "UP",
    "country_id": 101,
    "country_code": "IN",
    "latitude": "28.41969000",
    "longitude": "78.35186000",
    "wikiDataId": null
  },
  {
    "id": 131950,
    "name": "Ghatampur",
    "state_id": 4022,
    "state_code": "UP",
    "country_id": 101,
    "country_code": "IN",
    "latitude": "26.15272000",
    "longitude": "80.16803000",
    "wikiDataId": null
  },
  {
    "id": 131953,
    "name": "Ghaziabad",
    "state_id": 4022,
    "state_code": "UP",
    "country_id": 101,
    "country_code": "IN",
    "latitude": "28.66535000",
    "longitude": "77.43915000",
    "wikiDataId": null
  },
  {
    "id": 131940,
    "name": "Ghazipur",
    "state_id": 4022,
    "state_code": "UP",
    "country_id": 101,
    "country_code": "IN",
    "latitude": "25.58333000",
    "longitude": "83.58526000",
    "wikiDataId": null
  },
  {
    "id": 131941,
    "name": "Ghiror",
    "state_id": 4022,
    "state_code": "UP",
    "country_id": 101,
    "country_code": "IN",
    "latitude": "27.18912000",
    "longitude": "78.79312000",
    "wikiDataId": null
  },
  {
    "id": 131945,
    "name": "Ghorawal",
    "state_id": 4022,
    "state_code": "UP",
    "country_id": 101,
    "country_code": "IN",
    "latitude": "24.75459000",
    "longitude": "82.77965000",
    "wikiDataId": null
  },
  {
    "id": 131946,
    "name": "Ghosi",
    "state_id": 4022,
    "state_code": "UP",
    "country_id": 101,
    "country_code": "IN",
    "latitude": "26.10587000",
    "longitude": "83.53930000",
    "wikiDataId": null
  },
  {
    "id": 131969,
    "name": "Gohand",
    "state_id": 4022,
    "state_code": "UP",
    "country_id": 101,
    "country_code": "IN",
    "latitude": "25.69871000",
    "longitude": "79.54567000",
    "wikiDataId": null
  },
  {
    "id": 131973,
    "name": "Gokul",
    "state_id": 4022,
    "state_code": "UP",
    "country_id": 101,
    "country_code": "IN",
    "latitude": "27.43926000",
    "longitude": "77.72019000",
    "wikiDataId": null
  },
  {
    "id": 131974,
    "name": "Gola Bazar",
    "state_id": 4022,
    "state_code": "UP",
    "country_id": 101,
    "country_code": "IN",
    "latitude": "26.34460000",
    "longitude": "83.35303000",
    "wikiDataId": null
  },
  {
    "id": 131975,
    "name": "Gola Gokarannath",
    "state_id": 4022,
    "state_code": "UP",
    "country_id": 101,
    "country_code": "IN",
    "latitude": "28.07837000",
    "longitude": "80.47054000",
    "wikiDataId": null
  },
  {
    "id": 131981,
    "name": "Gonda",
    "state_id": 4022,
    "state_code": "UP",
    "country_id": 101,
    "country_code": "IN",
    "latitude": "27.18581000",
    "longitude": "81.96693000",
    "wikiDataId": null
  },
  {
    "id": 131990,
    "name": "Gopamau",
    "state_id": 4022,
    "state_code": "UP",
    "country_id": 101,
    "country_code": "IN",
    "latitude": "27.53468000",
    "longitude": "80.28507000",
    "wikiDataId": null
  },
  {
    "id": 131992,
    "name": "Gorakhpur",
    "state_id": 4022,
    "state_code": "UP",
    "country_id": 101,
    "country_code": "IN",
    "latitude": "26.91667000",
    "longitude": "83.25000000",
    "wikiDataId": null
  },
  {
    "id": 147478,
    "name": "Gosainganj",
    "state_id": 4022,
    "state_code": "UP",
    "country_id": 101,
    "country_code": "IN",
    "latitude": "26.77000000",
    "longitude": "81.12000000",
    "wikiDataId": null
  },
  {
    "id": 131998,
    "name": "Goshainganj",
    "state_id": 4022,
    "state_code": "UP",
    "country_id": 101,
    "country_code": "IN",
    "latitude": "26.57115000",
    "longitude": "82.38091000",
    "wikiDataId": null
  },
  {
    "id": 132000,
    "name": "Govardhan",
    "state_id": 4022,
    "state_code": "UP",
    "country_id": 101,
    "country_code": "IN",
    "latitude": "27.49658000",
    "longitude": "77.46263000",
    "wikiDataId": null
  },
  {
    "id": 132005,
    "name": "Greater Noida",
    "state_id": 4022,
    "state_code": "UP",
    "country_id": 101,
    "country_code": "IN",
    "latitude": "28.49615000",
    "longitude": "77.53601000",
    "wikiDataId": null
  },
  {
    "id": 132019,
    "name": "Gulaothi",
    "state_id": 4022,
    "state_code": "UP",
    "country_id": 101,
    "country_code": "IN",
    "latitude": "28.58938000",
    "longitude": "77.79318000",
    "wikiDataId": null
  },
  {
    "id": 132026,
    "name": "Gunnaur",
    "state_id": 4022,
    "state_code": "UP",
    "country_id": 101,
    "country_code": "IN",
    "latitude": "28.23995000",
    "longitude": "78.43994000",
    "wikiDataId": null
  },
  {
    "id": 132035,
    "name": "Gursahaiganj",
    "state_id": 4022,
    "state_code": "UP",
    "country_id": 101,
    "country_code": "IN",
    "latitude": "27.11518000",
    "longitude": "79.73174000",
    "wikiDataId": null
  },
  {
    "id": 132036,
    "name": "Gursarai",
    "state_id": 4022,
    "state_code": "UP",
    "country_id": 101,
    "country_code": "IN",
    "latitude": "25.61677000",
    "longitude": "79.18053000",
    "wikiDataId": null
  },
  {
    "id": 132042,
    "name": "Gyanpur",
    "state_id": 4022,
    "state_code": "UP",
    "country_id": 101,
    "country_code": "IN",
    "latitude": "25.33268000",
    "longitude": "82.46637000",
    "wikiDataId": null
  },
  {
    "id": 132057,
    "name": "Haldaur",
    "state_id": 4022,
    "state_code": "UP",
    "country_id": 101,
    "country_code": "IN",
    "latitude": "29.28988000",
    "longitude": "78.28437000",
    "wikiDataId": null
  },
  {
    "id": 132062,
    "name": "Hamirpur",
    "state_id": 4022,
    "state_code": "UP",
    "country_id": 101,
    "country_code": "IN",
    "latitude": "25.75000000",
    "longitude": "80.00000000",
    "wikiDataId": null
  },
  {
    "id": 132064,
    "name": "Handia",
    "state_id": 4022,
    "state_code": "UP",
    "country_id": 101,
    "country_code": "IN",
    "latitude": "25.36379000",
    "longitude": "82.18655000",
    "wikiDataId": null
  },
  {
    "id": 132142,
    "name": "Hapur",
    "state_id": 4022,
    "state_code": "UP",
    "country_id": 101,
    "country_code": "IN",
    "latitude": "28.72985000",
    "longitude": "77.78068000",
    "wikiDataId": null
  },
  {
    "id": 147479,
    "name": "Haraipur",
    "state_id": 4022,
    "state_code": "UP",
    "country_id": 101,
    "country_code": "IN",
    "latitude": "26.90000000",
    "longitude": "79.70000000",
    "wikiDataId": null
  },
  {
    "id": 132068,
    "name": "Haraiya",
    "state_id": 4022,
    "state_code": "UP",
    "country_id": 101,
    "country_code": "IN",
    "latitude": "26.79477000",
    "longitude": "82.46436000",
    "wikiDataId": null
  },
  {
    "id": 147480,
    "name": "Harchandpur",
    "state_id": 4022,
    "state_code": "UP",
    "country_id": 101,
    "country_code": "IN",
    "latitude": "26.36000000",
    "longitude": "81.17000000",
    "wikiDataId": null
  },
  {
    "id": 132072,
    "name": "Hardoi",
    "state_id": 4022,
    "state_code": "UP",
    "country_id": 101,
    "country_code": "IN",
    "latitude": "27.41667000",
    "longitude": "80.25000000",
    "wikiDataId": null
  },
  {
    "id": 132074,
    "name": "Harduaganj",
    "state_id": 4022,
    "state_code": "UP",
    "country_id": 101,
    "country_code": "IN",
    "latitude": "27.94361000",
    "longitude": "78.15789000",
    "wikiDataId": null
  },
  {
    "id": 132085,
    "name": "Hasanpur",
    "state_id": 4022,
    "state_code": "UP",
    "country_id": 101,
    "country_code": "IN",
    "latitude": "28.72249000",
    "longitude": "78.28436000",
    "wikiDataId": null
  },
  {
    "id": 132087,
    "name": "Hastinapur",
    "state_id": 4022,
    "state_code": "UP",
    "country_id": 101,
    "country_code": "IN",
    "latitude": "29.16042000",
    "longitude": "78.00762000",
    "wikiDataId": null
  },
  {
    "id": 132146,
    "name": "Hata",
    "state_id": 4022,
    "state_code": "UP",
    "country_id": 101,
    "country_code": "IN",
    "latitude": "26.74120000",
    "longitude": "83.74526000",
    "wikiDataId": null
  },
  {
    "id": 147481,
    "name": "Hata (India)",
    "state_id": 4022,
    "state_code": "UP",
    "country_id": 101,
    "country_code": "IN",
    "latitude": "26.75000000",
    "longitude": "83.74000000",
    "wikiDataId": null
  },
  {
    "id": 132144,
    "name": "Hathras",
    "state_id": 4022,
    "state_code": "UP",
    "country_id": 101,
    "country_code": "IN",
    "latitude": "27.59551000",
    "longitude": "78.05201000",
    "wikiDataId": null
  },
  {
    "id": 147482,
    "name": "Hulas",
    "state_id": 4022,
    "state_code": "UP",
    "country_id": 101,
    "country_code": "IN",
    "latitude": "29.69027778",
    "longitude": "77.36027778",
    "wikiDataId": null
  },
  {
    "id": 147483,
    "name": "Ibrahimpur",
    "state_id": 4022,
    "state_code": "UP",
    "country_id": 101,
    "country_code": "IN",
    "latitude": "26.01027778",
    "longitude": "83.16861111",
    "wikiDataId": null
  },
  {
    "id": 132156,
    "name": "Iglas",
    "state_id": 4022,
    "state_code": "UP",
    "country_id": 101,
    "country_code": "IN",
    "latitude": "27.71100000",
    "longitude": "77.93967000",
    "wikiDataId": null
  },
  {
    "id": 132157,
    "name": "Ikauna",
    "state_id": 4022,
    "state_code": "UP",
    "country_id": 101,
    "country_code": "IN",
    "latitude": "27.53097000",
    "longitude": "81.96917000",
    "wikiDataId": null
  },
  {
    "id": 132164,
    "name": "Indergarh",
    "state_id": 4022,
    "state_code": "UP",
    "country_id": 101,
    "country_code": "IN",
    "latitude": "26.93521000",
    "longitude": "79.67120000",
    "wikiDataId": null
  },
  {
    "id": 147484,
    "name": "Indragarh",
    "state_id": 4022,
    "state_code": "UP",
    "country_id": 101,
    "country_code": "IN",
    "latitude": "29.91299444",
    "longitude": "74.32284167",
    "wikiDataId": null
  },
  {
    "id": 132173,
    "name": "Islamnagar",
    "state_id": 4022,
    "state_code": "UP",
    "country_id": 101,
    "country_code": "IN",
    "latitude": "28.32896000",
    "longitude": "78.72524000",
    "wikiDataId": null
  },
  {
    "id": 147485,
    "name": "Islamnagar (Badaun)",
    "state_id": 4022,
    "state_code": "UP",
    "country_id": 101,
    "country_code": "IN",
    "latitude": "28.33000000",
    "longitude": "78.72000000",
    "wikiDataId": null
  },
  {
    "id": 132176,
    "name": "Itaunja",
    "state_id": 4022,
    "state_code": "UP",
    "country_id": 101,
    "country_code": "IN",
    "latitude": "27.08347000",
    "longitude": "80.89672000",
    "wikiDataId": null
  },
  {
    "id": 132177,
    "name": "Itimadpur",
    "state_id": 4022,
    "state_code": "UP",
    "country_id": 101,
    "country_code": "IN",
    "latitude": "27.23541000",
    "longitude": "78.19829000",
    "wikiDataId": null
  },
  {
    "id": 132187,
    "name": "Jagdishpur",
    "state_id": 4022,
    "state_code": "UP",
    "country_id": 101,
    "country_code": "IN",
    "latitude": "26.74967000",
    "longitude": "80.54510000",
    "wikiDataId": null
  },
  {
    "id": 132191,
    "name": "Jagnair",
    "state_id": 4022,
    "state_code": "UP",
    "country_id": 101,
    "country_code": "IN",
    "latitude": "26.86360000",
    "longitude": "77.60231000",
    "wikiDataId": null
  },
  {
    "id": 132197,
    "name": "Jahanabad",
    "state_id": 4022,
    "state_code": "UP",
    "country_id": 101,
    "country_code": "IN",
    "latitude": "28.63025000",
    "longitude": "79.71818000",
    "wikiDataId": null
  },
  {
    "id": 147486,
    "name": "Jahanabad (Pilibhit)",
    "state_id": 4022,
    "state_code": "UP",
    "country_id": 101,
    "country_code": "IN",
    "latitude": "28.63330000",
    "longitude": "79.80000000",
    "wikiDataId": null
  },
  {
    "id": 132196,
    "name": "Jahangirabad",
    "state_id": 4022,
    "state_code": "UP",
    "country_id": 101,
    "country_code": "IN",
    "latitude": "28.40549000",
    "longitude": "78.10588000",
    "wikiDataId": null
  },
  {
    "id": 132195,
    "name": "Jahangirpur",
    "state_id": 4022,
    "state_code": "UP",
    "country_id": 101,
    "country_code": "IN",
    "latitude": "28.17919000",
    "longitude": "77.70501000",
    "wikiDataId": null
  },
  {
    "id": 132200,
    "name": "Jainpur",
    "state_id": 4022,
    "state_code": "UP",
    "country_id": 101,
    "country_code": "IN",
    "latitude": "26.15389000",
    "longitude": "83.33505000",
    "wikiDataId": null
  },
  {
    "id": 132202,
    "name": "Jais",
    "state_id": 4022,
    "state_code": "UP",
    "country_id": 101,
    "country_code": "IN",
    "latitude": "26.26490000",
    "longitude": "81.54855000",
    "wikiDataId": null
  },
  {
    "id": 132221,
    "name": "Jalalabad",
    "state_id": 4022,
    "state_code": "UP",
    "country_id": 101,
    "country_code": "IN",
    "latitude": "29.61853000",
    "longitude": "77.43908000",
    "wikiDataId": null
  },
  {
    "id": 132224,
    "name": "Jalali",
    "state_id": 4022,
    "state_code": "UP",
    "country_id": 101,
    "country_code": "IN",
    "latitude": "27.86680000",
    "longitude": "78.25267000",
    "wikiDataId": null
  },
  {
    "id": 132220,
    "name": "Jalalpur",
    "state_id": 4022,
    "state_code": "UP",
    "country_id": 101,
    "country_code": "IN",
    "latitude": "26.31162000",
    "longitude": "82.73859000",
    "wikiDataId": null
  },
  {
    "id": 132306,
    "name": "Jalaun",
    "state_id": 4022,
    "state_code": "UP",
    "country_id": 101,
    "country_code": "IN",
    "latitude": "26.00000000",
    "longitude": "79.50000000",
    "wikiDataId": null
  },
  {
    "id": 132212,
    "name": "Jalesar",
    "state_id": 4022,
    "state_code": "UP",
    "country_id": 101,
    "country_code": "IN",
    "latitude": "27.47315000",
    "longitude": "78.30310000",
    "wikiDataId": null
  },
  {
    "id": 147487,
    "name": "Janghai",
    "state_id": 4022,
    "state_code": "UP",
    "country_id": 101,
    "country_code": "IN",
    "latitude": "25.55000000",
    "longitude": "82.31666667",
    "wikiDataId": null
  },
  {
    "id": 132313,
    "name": "Jansath",
    "state_id": 4022,
    "state_code": "UP",
    "country_id": 101,
    "country_code": "IN",
    "latitude": "29.32502000",
    "longitude": "77.85044000",
    "wikiDataId": null
  },
  {
    "id": 147488,
    "name": "Jarwa",
    "state_id": 4022,
    "state_code": "UP",
    "country_id": 101,
    "country_code": "IN",
    "latitude": "27.65000000",
    "longitude": "82.51666667",
    "wikiDataId": null
  },
  {
    "id": 132242,
    "name": "Jarwal",
    "state_id": 4022,
    "state_code": "UP",
    "country_id": 101,
    "country_code": "IN",
    "latitude": "27.16290000",
    "longitude": "81.54179000",
    "wikiDataId": null
  },
  {
    "id": 132248,
    "name": "Jasrana",
    "state_id": 4022,
    "state_code": "UP",
    "country_id": 101,
    "country_code": "IN",
    "latitude": "27.23587000",
    "longitude": "78.65244000",
    "wikiDataId": null
  },
  {
    "id": 132249,
    "name": "Jaswantnagar",
    "state_id": 4022,
    "state_code": "UP",
    "country_id": 101,
    "country_code": "IN",
    "latitude": "26.88271000",
    "longitude": "78.90256000",
    "wikiDataId": null
  },
  {
    "id": 132252,
    "name": "Jaunpur",
    "state_id": 4022,
    "state_code": "UP",
    "country_id": 101,
    "country_code": "IN",
    "latitude": "25.75000000",
    "longitude": "82.75000000",
    "wikiDataId": null
  },
  {
    "id": 132264,
    "name": "Jewar",
    "state_id": 4022,
    "state_code": "UP",
    "country_id": 101,
    "country_code": "IN",
    "latitude": "28.12200000",
    "longitude": "77.55734000",
    "wikiDataId": null
  },
  {
    "id": 147489,
    "name": "Jhajhar",
    "state_id": 4022,
    "state_code": "UP",
    "country_id": 101,
    "country_code": "IN",
    "latitude": "27.86000000",
    "longitude": "75.28000000",
    "wikiDataId": null
  },
  {
    "id": 132277,
    "name": "Jhalu",
    "state_id": 4022,
    "state_code": "UP",
    "country_id": 101,
    "country_code": "IN",
    "latitude": "29.33609000",
    "longitude": "78.22608000",
    "wikiDataId": null
  },
  {
    "id": 132279,
    "name": "Jhansi",
    "state_id": 4022,
    "state_code": "UP",
    "country_id": 101,
    "country_code": "IN",
    "latitude": "25.50000000",
    "longitude": "78.50000000",
    "wikiDataId": null
  },
  {
    "id": 132280,
    "name": "Jhinjhak",
    "state_id": 4022,
    "state_code": "UP",
    "country_id": 101,
    "country_code": "IN",
    "latitude": "26.56093000",
    "longitude": "79.73423000",
    "wikiDataId": null
  },
  {
    "id": 132271,
    "name": "Jhinjhana",
    "state_id": 4022,
    "state_code": "UP",
    "country_id": 101,
    "country_code": "IN",
    "latitude": "29.52118000",
    "longitude": "77.22470000",
    "wikiDataId": null
  },
  {
    "id": 132281,
    "name": "Jhusi",
    "state_id": 4022,
    "state_code": "UP",
    "country_id": 101,
    "country_code": "IN",
    "latitude": "25.43745000",
    "longitude": "81.90550000",
    "wikiDataId": null
  },
  {
    "id": 147490,
    "name": "Jiyanpur",
    "state_id": 4022,
    "state_code": "UP",
    "country_id": 101,
    "country_code": "IN",
    "latitude": "26.15000000",
    "longitude": "83.33000000",
    "wikiDataId": null
  },
  {
    "id": 132303,
    "name": "Jyotiba Phule Nagar",
    "state_id": 4022,
    "state_code": "UP",
    "country_id": 101,
    "country_code": "IN",
    "latitude": "28.77160000",
    "longitude": "78.33871000",
    "wikiDataId": null
  },
  {
    "id": 132320,
    "name": "Kabrai",
    "state_id": 4022,
    "state_code": "UP",
    "country_id": 101,
    "country_code": "IN",
    "latitude": "25.40281000",
    "longitude": "79.99970000",
    "wikiDataId": null
  },
  {
    "id": 132322,
    "name": "Kachhwa",
    "state_id": 4022,
    "state_code": "UP",
    "country_id": 101,
    "country_code": "IN",
    "latitude": "25.20615000",
    "longitude": "82.71442000",
    "wikiDataId": null
  },
  {
    "id": 132325,
    "name": "Kadaura",
    "state_id": 4022,
    "state_code": "UP",
    "country_id": 101,
    "country_code": "IN",
    "latitude": "25.98537000",
    "longitude": "79.83842000",
    "wikiDataId": null
  },
  {
    "id": 132676,
    "name": "Kadipur",
    "state_id": 4022,
    "state_code": "UP",
    "country_id": 101,
    "country_code": "IN",
    "latitude": "26.16779000",
    "longitude": "82.37028000",
    "wikiDataId": null
  },
  {
    "id": 147491,
    "name": "Kagarol",
    "state_id": 4022,
    "state_code": "UP",
    "country_id": 101,
    "country_code": "IN",
    "latitude": "27.01666667",
    "longitude": "77.85000000",
    "wikiDataId": null
  },
  {
    "id": 132335,
    "name": "Kaimganj",
    "state_id": 4022,
    "state_code": "UP",
    "country_id": 101,
    "country_code": "IN",
    "latitude": "27.55441000",
    "longitude": "79.33525000",
    "wikiDataId": null
  },
  {
    "id": 132339,
    "name": "Kairana",
    "state_id": 4022,
    "state_code": "UP",
    "country_id": 101,
    "country_code": "IN",
    "latitude": "29.39541000",
    "longitude": "77.20540000",
    "wikiDataId": null
  },
  {
    "id": 132679,
    "name": "Kakori",
    "state_id": 4022,
    "state_code": "UP",
    "country_id": 101,
    "country_code": "IN",
    "latitude": "26.86800000",
    "longitude": "80.78570000",
    "wikiDataId": null
  },
  {
    "id": 132342,
    "name": "Kakrala",
    "state_id": 4022,
    "state_code": "UP",
    "country_id": 101,
    "country_code": "IN",
    "latitude": "27.89269000",
    "longitude": "79.19450000",
    "wikiDataId": null
  },
  {
    "id": 132690,
    "name": "Kalinagar",
    "state_id": 4022,
    "state_code": "UP",
    "country_id": 101,
    "country_code": "IN",
    "latitude": "28.62019000",
    "longitude": "80.08152000",
    "wikiDataId": null
  },
  {
    "id": 132683,
    "name": "Kalpi",
    "state_id": 4022,
    "state_code": "UP",
    "country_id": 101,
    "country_code": "IN",
    "latitude": "26.11667000",
    "longitude": "79.73333000",
    "wikiDataId": null
  },
  {
    "id": 147492,
    "name": "Kalyanpur",
    "state_id": 4022,
    "state_code": "UP",
    "country_id": 101,
    "country_code": "IN",
    "latitude": "26.51912222",
    "longitude": "80.24980556",
    "wikiDataId": null
  },
  {
    "id": 132361,
    "name": "Kamalganj",
    "state_id": 4022,
    "state_code": "UP",
    "country_id": 101,
    "country_code": "IN",
    "latitude": "27.26181000",
    "longitude": "79.63134000",
    "wikiDataId": null
  },
  {
    "id": 132364,
    "name": "Kampil",
    "state_id": 4022,
    "state_code": "UP",
    "country_id": 101,
    "country_code": "IN",
    "latitude": "27.61268000",
    "longitude": "79.27687000",
    "wikiDataId": null
  },
  {
    "id": 132697,
    "name": "Kandhla",
    "state_id": 4022,
    "state_code": "UP",
    "country_id": 101,
    "country_code": "IN",
    "latitude": "29.32104000",
    "longitude": "77.27101000",
    "wikiDataId": null
  },
  {
    "id": 132378,
    "name": "Kannauj",
    "state_id": 4022,
    "state_code": "UP",
    "country_id": 101,
    "country_code": "IN",
    "latitude": "27.01770000",
    "longitude": "79.67846000",
    "wikiDataId": null
  },
  {
    "id": 132384,
    "name": "Kanpur",
    "state_id": 4022,
    "state_code": "UP",
    "country_id": 101,
    "country_code": "IN",
    "latitude": "26.46523000",
    "longitude": "80.34975000",
    "wikiDataId": null
  },
  {
    "id": 132385,
    "name": "Kanpur Dehat",
    "state_id": 4022,
    "state_code": "UP",
    "country_id": 101,
    "country_code": "IN",
    "latitude": "26.41506000",
    "longitude": "79.98957000",
    "wikiDataId": null
  },
  {
    "id": 132711,
    "name": "Kant",
    "state_id": 4022,
    "state_code": "UP",
    "country_id": 101,
    "country_code": "IN",
    "latitude": "27.81049000",
    "longitude": "79.79185000",
    "wikiDataId": null
  },
  {
    "id": 132712,
    "name": "Kanth",
    "state_id": 4022,
    "state_code": "UP",
    "country_id": 101,
    "country_code": "IN",
    "latitude": "29.05939000",
    "longitude": "78.62951000",
    "wikiDataId": null
  },
  {
    "id": 147493,
    "name": "Kaptanganj",
    "state_id": 4022,
    "state_code": "UP",
    "country_id": 101,
    "country_code": "IN",
    "latitude": "26.93000000",
    "longitude": "83.72000000",
    "wikiDataId": null
  },
  {
    "id": 147494,
    "name": "Kara",
    "state_id": 4022,
    "state_code": "UP",
    "country_id": 101,
    "country_code": "IN",
    "latitude": "25.70000000",
    "longitude": "81.35000000",
    "wikiDataId": null
  },
  {
    "id": 132413,
    "name": "Karari",
    "state_id": 4022,
    "state_code": "UP",
    "country_id": 101,
    "country_code": "IN",
    "latitude": "25.45241000",
    "longitude": "81.42675000",
    "wikiDataId": null
  },
  {
    "id": 147495,
    "name": "Karbigwan",
    "state_id": 4022,
    "state_code": "UP",
    "country_id": 101,
    "country_code": "IN",
    "latitude": "26.20000000",
    "longitude": "80.50000000",
    "wikiDataId": null
  },
  {
    "id": 147496,
    "name": "Karchana",
    "state_id": 4022,
    "state_code": "UP",
    "country_id": 101,
    "country_code": "IN",
    "latitude": "25.28000000",
    "longitude": "81.93000000",
    "wikiDataId": null
  },
  {
    "id": 132400,
    "name": "Karhal",
    "state_id": 4022,
    "state_code": "UP",
    "country_id": 101,
    "country_code": "IN",
    "latitude": "27.00089000",
    "longitude": "78.93935000",
    "wikiDataId": null
  },
  {
    "id": 132722,
    "name": "Kasganj",
    "state_id": 4022,
    "state_code": "UP",
    "country_id": 101,
    "country_code": "IN",
    "latitude": "27.80882000",
    "longitude": "78.64579000",
    "wikiDataId": null
  },
  {
    "id": 132426,
    "name": "Katra",
    "state_id": 4022,
    "state_code": "UP",
    "country_id": 101,
    "country_code": "IN",
    "latitude": "27.50871000",
    "longitude": "82.02636000",
    "wikiDataId": null
  },
  {
    "id": 147497,
    "name": "Kausani",
    "state_id": 4022,
    "state_code": "UP",
    "country_id": 101,
    "country_code": "IN",
    "latitude": "29.84305556",
    "longitude": "79.60333333",
    "wikiDataId": null
  },
  {
    "id": 132430,
    "name": "Kaushambi District",
    "state_id": 4022,
    "state_code": "UP",
    "country_id": 101,
    "country_code": "IN",
    "latitude": "25.53074000",
    "longitude": "81.37729000",
    "wikiDataId": null
  },
  {
    "id": 132440,
    "name": "Kemri",
    "state_id": 4022,
    "state_code": "UP",
    "country_id": 101,
    "country_code": "IN",
    "latitude": "28.80673000",
    "longitude": "79.20480000",
    "wikiDataId": null
  },
  {
    "id": 132449,
    "name": "Khada",
    "state_id": 4022,
    "state_code": "UP",
    "country_id": 101,
    "country_code": "IN",
    "latitude": "27.18333000",
    "longitude": "83.88333000",
    "wikiDataId": null
  },
  {
    "id": 132512,
    "name": "Khaga",
    "state_id": 4022,
    "state_code": "UP",
    "country_id": 101,
    "country_code": "IN",
    "latitude": "25.77215000",
    "longitude": "81.10393000",
    "wikiDataId": null
  },
  {
    "id": 147498,
    "name": "Khailar",
    "state_id": 4022,
    "state_code": "UP",
    "country_id": 101,
    "country_code": "IN",
    "latitude": "25.35000000",
    "longitude": "78.53000000",
    "wikiDataId": null
  },
  {
    "id": 132454,
    "name": "Khair",
    "state_id": 4022,
    "state_code": "UP",
    "country_id": 101,
    "country_code": "IN",
    "latitude": "27.94195000",
    "longitude": "77.84243000",
    "wikiDataId": null
  },
  {
    "id": 132455,
    "name": "Khairabad",
    "state_id": 4022,
    "state_code": "UP",
    "country_id": 101,
    "country_code": "IN",
    "latitude": "27.52698000",
    "longitude": "80.75461000",
    "wikiDataId": null
  },
  {
    "id": 132459,
    "name": "Khalilabad",
    "state_id": 4022,
    "state_code": "UP",
    "country_id": 101,
    "country_code": "IN",
    "latitude": "26.77268000",
    "longitude": "83.07179000",
    "wikiDataId": null
  },
  {
    "id": 132514,
    "name": "Khanpur",
    "state_id": 4022,
    "state_code": "UP",
    "country_id": 101,
    "country_code": "IN",
    "latitude": "28.53446000",
    "longitude": "78.06546000",
    "wikiDataId": null
  },
  {
    "id": 132473,
    "name": "Kharela",
    "state_id": 4022,
    "state_code": "UP",
    "country_id": 101,
    "country_code": "IN",
    "latitude": "25.54277000",
    "longitude": "79.81235000",
    "wikiDataId": null
  },
  {
    "id": 132475,
    "name": "Khargupur",
    "state_id": 4022,
    "state_code": "UP",
    "country_id": 101,
    "country_code": "IN",
    "latitude": "27.37611000",
    "longitude": "81.98820000",
    "wikiDataId": null
  },
  {
    "id": 132479,
    "name": "Kharkhauda",
    "state_id": 4022,
    "state_code": "UP",
    "country_id": 101,
    "country_code": "IN",
    "latitude": "28.83644000",
    "longitude": "77.74159000",
    "wikiDataId": null
  },
  {
    "id": 132483,
    "name": "Khatauli",
    "state_id": 4022,
    "state_code": "UP",
    "country_id": 101,
    "country_code": "IN",
    "latitude": "29.27844000",
    "longitude": "77.73302000",
    "wikiDataId": null
  },
  {
    "id": 132490,
    "name": "Khekra",
    "state_id": 4022,
    "state_code": "UP",
    "country_id": 101,
    "country_code": "IN",
    "latitude": "28.86586000",
    "longitude": "77.28410000",
    "wikiDataId": null
  },
  {
    "id": 132492,
    "name": "Kheri",
    "state_id": 4022,
    "state_code": "UP",
    "country_id": 101,
    "country_code": "IN",
    "latitude": "28.11667000",
    "longitude": "80.71667000",
    "wikiDataId": null
  },
  {
    "id": 132503,
    "name": "Khudaganj",
    "state_id": 4022,
    "state_code": "UP",
    "country_id": 101,
    "country_code": "IN",
    "latitude": "28.14607000",
    "longitude": "79.71472000",
    "wikiDataId": null
  },
  {
    "id": 132509,
    "name": "Khurja",
    "state_id": 4022,
    "state_code": "UP",
    "country_id": 101,
    "country_code": "IN",
    "latitude": "28.25382000",
    "longitude": "77.85535000",
    "wikiDataId": null
  },
  {
    "id": 132520,
    "name": "Khutar",
    "state_id": 4022,
    "state_code": "UP",
    "country_id": 101,
    "country_code": "IN",
    "latitude": "28.20307000",
    "longitude": "80.27046000",
    "wikiDataId": null
  },
  {
    "id": 132528,
    "name": "Kirakat",
    "state_id": 4022,
    "state_code": "UP",
    "country_id": 101,
    "country_code": "IN",
    "latitude": "25.63745000",
    "longitude": "82.91596000",
    "wikiDataId": null
  },
  {
    "id": 132526,
    "name": "Kiraoli",
    "state_id": 4022,
    "state_code": "UP",
    "country_id": 101,
    "country_code": "IN",
    "latitude": "27.13768000",
    "longitude": "77.78516000",
    "wikiDataId": null
  },
  {
    "id": 132734,
    "name": "Kiratpur",
    "state_id": 4022,
    "state_code": "UP",
    "country_id": 101,
    "country_code": "IN",
    "latitude": "29.50671000",
    "longitude": "78.20613000",
    "wikiDataId": null
  },
  {
    "id": 132531,
    "name": "Kishanpur",
    "state_id": 4022,
    "state_code": "UP",
    "country_id": 101,
    "country_code": "IN",
    "latitude": "25.64232000",
    "longitude": "81.02270000",
    "wikiDataId": null
  },
  {
    "id": 147499,
    "name": "Kishanpur baral",
    "state_id": 4022,
    "state_code": "UP",
    "country_id": 101,
    "country_code": "IN",
    "latitude": "29.20000000",
    "longitude": "77.28333333",
    "wikiDataId": null
  },
  {
    "id": 132532,
    "name": "Kishni",
    "state_id": 4022,
    "state_code": "UP",
    "country_id": 101,
    "country_code": "IN",
    "latitude": "27.02487000",
    "longitude": "79.26200000",
    "wikiDataId": null
  },
  {
    "id": 132535,
    "name": "Kithor",
    "state_id": 4022,
    "state_code": "UP",
    "country_id": 101,
    "country_code": "IN",
    "latitude": "28.86684000",
    "longitude": "77.93861000",
    "wikiDataId": null
  },
  {
    "id": 132564,
    "name": "Konch",
    "state_id": 4022,
    "state_code": "UP",
    "country_id": 101,
    "country_code": "IN",
    "latitude": "25.99451000",
    "longitude": "79.15127000",
    "wikiDataId": null
  },
  {
    "id": 132575,
    "name": "Kopaganj",
    "state_id": 4022,
    "state_code": "UP",
    "country_id": 101,
    "country_code": "IN",
    "latitude": "26.01923000",
    "longitude": "83.56630000",
    "wikiDataId": null
  },
  {
    "id": 132589,
    "name": "Kosi",
    "state_id": 4022,
    "state_code": "UP",
    "country_id": 101,
    "country_code": "IN",
    "latitude": "27.79449000",
    "longitude": "77.43680000",
    "wikiDataId": null
  },
  {
    "id": 132592,
    "name": "Kota",
    "state_id": 4022,
    "state_code": "UP",
    "country_id": 101,
    "country_code": "IN",
    "latitude": "24.44643000",
    "longitude": "83.13063000",
    "wikiDataId": null
  },
  {
    "id": 132605,
    "name": "Kotra",
    "state_id": 4022,
    "state_code": "UP",
    "country_id": 101,
    "country_code": "IN",
    "latitude": "25.80770000",
    "longitude": "79.30909000",
    "wikiDataId": null
  },
  {
    "id": 147500,
    "name": "Kuchesar",
    "state_id": 4022,
    "state_code": "UP",
    "country_id": 101,
    "country_code": "IN",
    "latitude": "28.68333333",
    "longitude": "77.95000000",
    "wikiDataId": null
  },
  {
    "id": 147501,
    "name": "Kudarkot",
    "state_id": 4022,
    "state_code": "UP",
    "country_id": 101,
    "country_code": "IN",
    "latitude": "26.81666667",
    "longitude": "79.40000000",
    "wikiDataId": null
  },
  {
    "id": 132635,
    "name": "Kulpahar",
    "state_id": 4022,
    "state_code": "UP",
    "country_id": 101,
    "country_code": "IN",
    "latitude": "25.32007000",
    "longitude": "79.63931000",
    "wikiDataId": null
  },
  {
    "id": 132644,
    "name": "Kunda",
    "state_id": 4022,
    "state_code": "UP",
    "country_id": 101,
    "country_code": "IN",
    "latitude": "25.71702000",
    "longitude": "81.51396000",
    "wikiDataId": null
  },
  {
    "id": 132645,
    "name": "Kundarkhi",
    "state_id": 4022,
    "state_code": "UP",
    "country_id": 101,
    "country_code": "IN",
    "latitude": "28.68304000",
    "longitude": "78.78559000",
    "wikiDataId": null
  },
  {
    "id": 147502,
    "name": "Kundarki",
    "state_id": 4022,
    "state_code": "UP",
    "country_id": 101,
    "country_code": "IN",
    "latitude": "28.68300000",
    "longitude": "78.78500000",
    "wikiDataId": null
  },
  {
    "id": 132664,
    "name": "Kurara",
    "state_id": 4022,
    "state_code": "UP",
    "country_id": 101,
    "country_code": "IN",
    "latitude": "25.98046000",
    "longitude": "79.98984000",
    "wikiDataId": null
  },
  {
    "id": 147503,
    "name": "Kurebharsaidkhanpur",
    "state_id": 4022,
    "state_code": "UP",
    "country_id": 101,
    "country_code": "IN",
    "latitude": "26.43333333",
    "longitude": "82.11666667",
    "wikiDataId": null
  },
  {
    "id": 132665,
    "name": "Kushinagar",
    "state_id": 4022,
    "state_code": "UP",
    "country_id": 101,
    "country_code": "IN",
    "latitude": "26.74028000",
    "longitude": "83.88889000",
    "wikiDataId": null
  },
  {
    "id": 147504,
    "name": "Kusmara",
    "state_id": 4022,
    "state_code": "UP",
    "country_id": 101,
    "country_code": "IN",
    "latitude": "27.11666667",
    "longitude": "79.28333333",
    "wikiDataId": null
  },
  {
    "id": 147505,
    "name": "Kuthaund",
    "state_id": 4022,
    "state_code": "UP",
    "country_id": 101,
    "country_code": "IN",
    "latitude": "26.36666667",
    "longitude": "79.41666667",
    "wikiDataId": null
  },
  {
    "id": 132790,
    "name": "Laharpur",
    "state_id": 4022,
    "state_code": "UP",
    "country_id": 101,
    "country_code": "IN",
    "latitude": "27.70827000",
    "longitude": "80.90256000",
    "wikiDataId": null
  },
  {
    "id": 132748,
    "name": "Lakhimpur",
    "state_id": 4022,
    "state_code": "UP",
    "country_id": 101,
    "country_code": "IN",
    "latitude": "27.94822000",
    "longitude": "80.77935000",
    "wikiDataId": null
  },
  {
    "id": 132745,
    "name": "Lakhna",
    "state_id": 4022,
    "state_code": "UP",
    "country_id": 101,
    "country_code": "IN",
    "latitude": "26.64822000",
    "longitude": "79.14770000",
    "wikiDataId": null
  },
  {
    "id": 132796,
    "name": "Lalganj",
    "state_id": 4022,
    "state_code": "UP",
    "country_id": 101,
    "country_code": "IN",
    "latitude": "25.93182000",
    "longitude": "81.70478000",
    "wikiDataId": null
  },
  {
    "id": 132755,
    "name": "Lalitpur",
    "state_id": 4022,
    "state_code": "UP",
    "country_id": 101,
    "country_code": "IN",
    "latitude": "24.50000000",
    "longitude": "78.50000000",
    "wikiDataId": null
  },
  {
    "id": 147506,
    "name": "Lambhua",
    "state_id": 4022,
    "state_code": "UP",
    "country_id": 101,
    "country_code": "IN",
    "latitude": "26.15000000",
    "longitude": "82.21000000",
    "wikiDataId": null
  },
  {
    "id": 132757,
    "name": "Lar",
    "state_id": 4022,
    "state_code": "UP",
    "country_id": 101,
    "country_code": "IN",
    "latitude": "26.20394000",
    "longitude": "83.96906000",
    "wikiDataId": null
  },
  {
    "id": 147507,
    "name": "Lawar",
    "state_id": 4022,
    "state_code": "UP",
    "country_id": 101,
    "country_code": "IN",
    "latitude": "29.11666667",
    "longitude": "77.76666667",
    "wikiDataId": null
  },
  {
    "id": 132803,
    "name": "Lawar Khas",
    "state_id": 4022,
    "state_code": "UP",
    "country_id": 101,
    "country_code": "IN",
    "latitude": "29.11091000",
    "longitude": "77.77767000",
    "wikiDataId": null
  },
  {
    "id": 132775,
    "name": "Loni",
    "state_id": 4022,
    "state_code": "UP",
    "country_id": 101,
    "country_code": "IN",
    "latitude": "28.75143000",
    "longitude": "77.29023000",
    "wikiDataId": null
  },
  {
    "id": 132782,
    "name": "Lucknow",
    "state_id": 4022,
    "state_code": "UP",
    "country_id": 101,
    "country_code": "IN",
    "latitude": "26.83928000",
    "longitude": "80.92313000",
    "wikiDataId": null
  },
  {
    "id": 132783,
    "name": "Lucknow District",
    "state_id": 4022,
    "state_code": "UP",
    "country_id": 101,
    "country_code": "IN",
    "latitude": "26.75000000",
    "longitude": "81.00000000",
    "wikiDataId": null
  },
  {
    "id": 147508,
    "name": "Machhali Shahar",
    "state_id": 4022,
    "state_code": "UP",
    "country_id": 101,
    "country_code": "IN",
    "latitude": "25.68000000",
    "longitude": "82.42000000",
    "wikiDataId": null
  },
  {
    "id": 132805,
    "name": "Machhlishahr",
    "state_id": 4022,
    "state_code": "UP",
    "country_id": 101,
    "country_code": "IN",
    "latitude": "25.68564000",
    "longitude": "82.41106000",
    "wikiDataId": null
  },
  {
    "id": 133057,
    "name": "Madhoganj",
    "state_id": 4022,
    "state_code": "UP",
    "country_id": 101,
    "country_code": "IN",
    "latitude": "27.11807000",
    "longitude": "80.14058000",
    "wikiDataId": null
  },
  {
    "id": 133058,
    "name": "Madhogarh",
    "state_id": 4022,
    "state_code": "UP",
    "country_id": 101,
    "country_code": "IN",
    "latitude": "26.27522000",
    "longitude": "79.18590000",
    "wikiDataId": null
  },
  {
    "id": 132823,
    "name": "Maghar",
    "state_id": 4022,
    "state_code": "UP",
    "country_id": 101,
    "country_code": "IN",
    "latitude": "26.75586000",
    "longitude": "83.12773000",
    "wikiDataId": null
  },
  {
    "id": 132845,
    "name": "Mahaban",
    "state_id": 4022,
    "state_code": "UP",
    "country_id": 101,
    "country_code": "IN",
    "latitude": "27.43262000",
    "longitude": "77.74338000",
    "wikiDataId": null
  },
  {
    "id": 132826,
    "name": "Maharajganj",
    "state_id": 4022,
    "state_code": "UP",
    "country_id": 101,
    "country_code": "IN",
    "latitude": "27.16945000",
    "longitude": "83.50667000",
    "wikiDataId": null
  },
  {
    "id": 132836,
    "name": "Mahmudabad",
    "state_id": 4022,
    "state_code": "UP",
    "country_id": 101,
    "country_code": "IN",
    "latitude": "27.29191000",
    "longitude": "81.11775000",
    "wikiDataId": null
  },
  {
    "id": 132837,
    "name": "Mahoba",
    "state_id": 4022,
    "state_code": "UP",
    "country_id": 101,
    "country_code": "IN",
    "latitude": "25.29210000",
    "longitude": "79.87242000",
    "wikiDataId": null
  },
  {
    "id": 132839,
    "name": "Maholi",
    "state_id": 4022,
    "state_code": "UP",
    "country_id": 101,
    "country_code": "IN",
    "latitude": "27.66368000",
    "longitude": "80.47371000",
    "wikiDataId": null
  },
  {
    "id": 147509,
    "name": "Mahrajganj",
    "state_id": 4022,
    "state_code": "UP",
    "country_id": 101,
    "country_code": "IN",
    "latitude": "26.26666667",
    "longitude": "83.11666667",
    "wikiDataId": null
  },
  {
    "id": 147510,
    "name": "Mahrajganj (Raebareli)",
    "state_id": 4022,
    "state_code": "UP",
    "country_id": 101,
    "country_code": "IN",
    "latitude": "26.38333333",
    "longitude": "81.28333333",
    "wikiDataId": null
  },
  {
    "id": 132840,
    "name": "Mahroni",
    "state_id": 4022,
    "state_code": "UP",
    "country_id": 101,
    "country_code": "IN",
    "latitude": "24.58624000",
    "longitude": "78.72771000",
    "wikiDataId": null
  },
  {
    "id": 147511,
    "name": "Mahul",
    "state_id": 4022,
    "state_code": "UP",
    "country_id": 101,
    "country_code": "IN",
    "latitude": "26.13333333",
    "longitude": "82.81666667",
    "wikiDataId": null
  },
  {
    "id": 132855,
    "name": "Mailani",
    "state_id": 4022,
    "state_code": "UP",
    "country_id": 101,
    "country_code": "IN",
    "latitude": "28.29088000",
    "longitude": "80.34380000",
    "wikiDataId": null
  },
  {
    "id": 132857,
    "name": "Mainpuri",
    "state_id": 4022,
    "state_code": "UP",
    "country_id": 101,
    "country_code": "IN",
    "latitude": "27.16667000",
    "longitude": "79.00000000",
    "wikiDataId": null
  },
  {
    "id": 147512,
    "name": "Majhupur",
    "state_id": 4022,
    "state_code": "UP",
    "country_id": 101,
    "country_code": "IN",
    "latitude": "27.03333333",
    "longitude": "79.41666667",
    "wikiDataId": null
  },
  {
    "id": 147513,
    "name": "Makanpur",
    "state_id": 4022,
    "state_code": "UP",
    "country_id": 101,
    "country_code": "IN",
    "latitude": "26.90222222",
    "longitude": "79.97805556",
    "wikiDataId": null
  },
  {
    "id": 147514,
    "name": "Malasa",
    "state_id": 4022,
    "state_code": "UP",
    "country_id": 101,
    "country_code": "IN",
    "latitude": "26.26755000",
    "longitude": "79.94489000",
    "wikiDataId": null
  },
  {
    "id": 132878,
    "name": "Malihabad",
    "state_id": 4022,
    "state_code": "UP",
    "country_id": 101,
    "country_code": "IN",
    "latitude": "26.92223000",
    "longitude": "80.71078000",
    "wikiDataId": null
  },
  {
    "id": 132899,
    "name": "Mandawar",
    "state_id": 4022,
    "state_code": "UP",
    "country_id": 101,
    "country_code": "IN",
    "latitude": "29.48655000",
    "longitude": "78.12732000",
    "wikiDataId": null
  },
  {
    "id": 132910,
    "name": "Maniar",
    "state_id": 4022,
    "state_code": "UP",
    "country_id": 101,
    "country_code": "IN",
    "latitude": "25.98546000",
    "longitude": "84.17233000",
    "wikiDataId": null
  },
  {
    "id": 133079,
    "name": "Manikpur",
    "state_id": 4022,
    "state_code": "UP",
    "country_id": 101,
    "country_code": "IN",
    "latitude": "25.06083000",
    "longitude": "81.09961000",
    "wikiDataId": null
  },
  {
    "id": 132914,
    "name": "Manjhanpur",
    "state_id": 4022,
    "state_code": "UP",
    "country_id": 101,
    "country_code": "IN",
    "latitude": "25.53046000",
    "longitude": "81.37566000",
    "wikiDataId": null
  },
  {
    "id": 132917,
    "name": "Mankapur",
    "state_id": 4022,
    "state_code": "UP",
    "country_id": 101,
    "country_code": "IN",
    "latitude": "27.05189000",
    "longitude": "82.22961000",
    "wikiDataId": null
  },
  {
    "id": 133087,
    "name": "Marahra",
    "state_id": 4022,
    "state_code": "UP",
    "country_id": 101,
    "country_code": "IN",
    "latitude": "27.73680000",
    "longitude": "78.56891000",
    "wikiDataId": null
  },
  {
    "id": 132936,
    "name": "Mariahu",
    "state_id": 4022,
    "state_code": "UP",
    "country_id": 101,
    "country_code": "IN",
    "latitude": "25.60404000",
    "longitude": "82.60379000",
    "wikiDataId": null
  },
  {
    "id": 132940,
    "name": "Mataundh",
    "state_id": 4022,
    "state_code": "UP",
    "country_id": 101,
    "country_code": "IN",
    "latitude": "25.43594000",
    "longitude": "80.15653000",
    "wikiDataId": null
  },
  {
    "id": 132941,
    "name": "Mathura",
    "state_id": 4022,
    "state_code": "UP",
    "country_id": 101,
    "country_code": "IN",
    "latitude": "27.63333000",
    "longitude": "77.58333000",
    "wikiDataId": null
  },
  {
    "id": 132944,
    "name": "Mau",
    "state_id": 4022,
    "state_code": "UP",
    "country_id": 101,
    "country_code": "IN",
    "latitude": "26.02940000",
    "longitude": "83.50756000",
    "wikiDataId": null
  },
  {
    "id": 147515,
    "name": "Mau Aima",
    "state_id": 4022,
    "state_code": "UP",
    "country_id": 101,
    "country_code": "IN",
    "latitude": "25.70000000",
    "longitude": "81.91666667",
    "wikiDataId": null
  },
  {
    "id": 132945,
    "name": "Mau Aimma",
    "state_id": 4022,
    "state_code": "UP",
    "country_id": 101,
    "country_code": "IN",
    "latitude": "25.69515000",
    "longitude": "81.92336000",
    "wikiDataId": null
  },
  {
    "id": 132946,
    "name": "Maudaha",
    "state_id": 4022,
    "state_code": "UP",
    "country_id": 101,
    "country_code": "IN",
    "latitude": "25.68312000",
    "longitude": "80.11419000",
    "wikiDataId": null
  },
  {
    "id": 147516,
    "name": "Maurawan",
    "state_id": 4022,
    "state_code": "UP",
    "country_id": 101,
    "country_code": "IN",
    "latitude": "26.43000000",
    "longitude": "80.88000000",
    "wikiDataId": null
  },
  {
    "id": 132951,
    "name": "Mawana",
    "state_id": 4022,
    "state_code": "UP",
    "country_id": 101,
    "country_code": "IN",
    "latitude": "29.10288000",
    "longitude": "77.92199000",
    "wikiDataId": null
  },
  {
    "id": 147517,
    "name": "Mawar",
    "state_id": 4022,
    "state_code": "UP",
    "country_id": 101,
    "country_code": "IN",
    "latitude": "26.30416667",
    "longitude": "79.92111111",
    "wikiDataId": null
  },
  {
    "id": 132958,
    "name": "Meerut",
    "state_id": 4022,
    "state_code": "UP",
    "country_id": 101,
    "country_code": "IN",
    "latitude": "28.91667000",
    "longitude": "77.68333000",
    "wikiDataId": null
  },
  {
    "id": 147518,
    "name": "Mehdawal",
    "state_id": 4022,
    "state_code": "UP",
    "country_id": 101,
    "country_code": "IN",
    "latitude": "26.98333333",
    "longitude": "83.11666667",
    "wikiDataId": null
  },
  {
    "id": 132962,
    "name": "Mehnagar",
    "state_id": 4022,
    "state_code": "UP",
    "country_id": 101,
    "country_code": "IN",
    "latitude": "25.87889000",
    "longitude": "83.11611000",
    "wikiDataId": null
  },
  {
    "id": 132963,
    "name": "Mehndawal",
    "state_id": 4022,
    "state_code": "UP",
    "country_id": 101,
    "country_code": "IN",
    "latitude": "26.97579000",
    "longitude": "83.10995000",
    "wikiDataId": null
  },
  {
    "id": 132974,
    "name": "Milak",
    "state_id": 4022,
    "state_code": "UP",
    "country_id": 101,
    "country_code": "IN",
    "latitude": "28.61031000",
    "longitude": "79.16997000",
    "wikiDataId": null
  },
  {
    "id": 147519,
    "name": "Milkipur",
    "state_id": 4022,
    "state_code": "UP",
    "country_id": 101,
    "country_code": "IN",
    "latitude": "26.60000000",
    "longitude": "81.91000000",
    "wikiDataId": null
  },
  {
    "id": 133096,
    "name": "Miranpur",
    "state_id": 4022,
    "state_code": "UP",
    "country_id": 101,
    "country_code": "IN",
    "latitude": "29.29026000",
    "longitude": "77.94939000",
    "wikiDataId": null
  },
  {
    "id": 133097,
    "name": "Miranpur Katra",
    "state_id": 4022,
    "state_code": "UP",
    "country_id": 101,
    "country_code": "IN",
    "latitude": "28.02963000",
    "longitude": "79.66778000",
    "wikiDataId": null
  },
  {
    "id": 133095,
    "name": "Mirganj",
    "state_id": 4022,
    "state_code": "UP",
    "country_id": 101,
    "country_code": "IN",
    "latitude": "28.54012000",
    "longitude": "79.20817000",
    "wikiDataId": null
  },
  {
    "id": 132976,
    "name": "Mirzapur",
    "state_id": 4022,
    "state_code": "UP",
    "country_id": 101,
    "country_code": "IN",
    "latitude": "25.14490000",
    "longitude": "82.56534000",
    "wikiDataId": null
  },
  {
    "id": 132977,
    "name": "Misrikh",
    "state_id": 4022,
    "state_code": "UP",
    "country_id": 101,
    "country_code": "IN",
    "latitude": "27.43137000",
    "longitude": "80.53157000",
    "wikiDataId": null
  },
  {
    "id": 132986,
    "name": "Mohan",
    "state_id": 4022,
    "state_code": "UP",
    "country_id": 101,
    "country_code": "IN",
    "latitude": "26.78008000",
    "longitude": "80.67497000",
    "wikiDataId": null
  },
  {
    "id": 132981,
    "name": "Mohanpur",
    "state_id": 4022,
    "state_code": "UP",
    "country_id": 101,
    "country_code": "IN",
    "latitude": "28.25261000",
    "longitude": "80.24498000",
    "wikiDataId": null
  },
  {
    "id": 133001,
    "name": "Moradabad",
    "state_id": 4022,
    "state_code": "UP",
    "country_id": 101,
    "country_code": "IN",
    "latitude": "28.85250000",
    "longitude": "78.79703000",
    "wikiDataId": null
  },
  {
    "id": 133004,
    "name": "Moth",
    "state_id": 4022,
    "state_code": "UP",
    "country_id": 101,
    "country_code": "IN",
    "latitude": "25.72595000",
    "longitude": "78.95029000",
    "wikiDataId": null
  },
  {
    "id": 133007,
    "name": "Mubarakpur",
    "state_id": 4022,
    "state_code": "UP",
    "country_id": 101,
    "country_code": "IN",
    "latitude": "26.08866000",
    "longitude": "83.29088000",
    "wikiDataId": null
  },
  {
    "id": 133014,
    "name": "Mughal Sarai",
    "state_id": 4022,
    "state_code": "UP",
    "country_id": 101,
    "country_code": "IN",
    "latitude": "25.28307000",
    "longitude": "83.11968000",
    "wikiDataId": null
  },
  {
    "id": 133016,
    "name": "Muhammadabad",
    "state_id": 4022,
    "state_code": "UP",
    "country_id": 101,
    "country_code": "IN",
    "latitude": "25.61907000",
    "longitude": "83.75576000",
    "wikiDataId": null
  },
  {
    "id": 147520,
    "name": "Mukteshwar",
    "state_id": 4022,
    "state_code": "UP",
    "country_id": 101,
    "country_code": "IN",
    "latitude": "29.47220000",
    "longitude": "79.64790000",
    "wikiDataId": null
  },
  {
    "id": 147521,
    "name": "Mungra Badshahpur",
    "state_id": 4022,
    "state_code": "UP",
    "country_id": 101,
    "country_code": "IN",
    "latitude": "25.65000000",
    "longitude": "82.18000000",
    "wikiDataId": null
  },
  {
    "id": 147522,
    "name": "Munsyari",
    "state_id": 4022,
    "state_code": "UP",
    "country_id": 101,
    "country_code": "IN",
    "latitude": "30.06741389",
    "longitude": "80.23856111",
    "wikiDataId": null
  },
  {
    "id": 147523,
    "name": "Muradabad",
    "state_id": 4022,
    "state_code": "UP",
    "country_id": 101,
    "country_code": "IN",
    "latitude": "28.83888889",
    "longitude": "78.77694444",
    "wikiDataId": null
  },
  {
    "id": 133043,
    "name": "Muradnagar",
    "state_id": 4022,
    "state_code": "UP",
    "country_id": 101,
    "country_code": "IN",
    "latitude": "28.78069000",
    "longitude": "77.49865000",
    "wikiDataId": null
  },
  {
    "id": 133038,
    "name": "Mursan",
    "state_id": 4022,
    "state_code": "UP",
    "country_id": 101,
    "country_code": "IN",
    "latitude": "27.57788000",
    "longitude": "77.94091000",
    "wikiDataId": null
  },
  {
    "id": 133048,
    "name": "Musafir-Khana",
    "state_id": 4022,
    "state_code": "UP",
    "country_id": 101,
    "country_code": "IN",
    "latitude": "26.37837000",
    "longitude": "81.79607000",
    "wikiDataId": null
  },
  {
    "id": 147524,
    "name": "Musafirkhana",
    "state_id": 4022,
    "state_code": "UP",
    "country_id": 101,
    "country_code": "IN",
    "latitude": "26.45000000",
    "longitude": "81.80000000",
    "wikiDataId": null
  },
  {
    "id": 133051,
    "name": "Muzaffarnagar",
    "state_id": 4022,
    "state_code": "UP",
    "country_id": 101,
    "country_code": "IN",
    "latitude": "29.45000000",
    "longitude": "77.58333000",
    "wikiDataId": null
  },
  {
    "id": 133109,
    "name": "Nadigaon",
    "state_id": 4022,
    "state_code": "UP",
    "country_id": 101,
    "country_code": "IN",
    "latitude": "26.10784000",
    "longitude": "79.02283000",
    "wikiDataId": null
  },
  {
    "id": 133120,
    "name": "Nagina",
    "state_id": 4022,
    "state_code": "UP",
    "country_id": 101,
    "country_code": "IN",
    "latitude": "29.44433000",
    "longitude": "78.43646000",
    "wikiDataId": null
  },
  {
    "id": 147525,
    "name": "Nagla",
    "state_id": 4022,
    "state_code": "UP",
    "country_id": 101,
    "country_code": "IN",
    "latitude": "29.01000000",
    "longitude": "79.51000000",
    "wikiDataId": null
  },
  {
    "id": 133119,
    "name": "Nagram",
    "state_id": 4022,
    "state_code": "UP",
    "country_id": 101,
    "country_code": "IN",
    "latitude": "26.61872000",
    "longitude": "81.14043000",
    "wikiDataId": null
  },
  {
    "id": 133127,
    "name": "Najibabad",
    "state_id": 4022,
    "state_code": "UP",
    "country_id": 101,
    "country_code": "IN",
    "latitude": "29.61194000",
    "longitude": "78.34274000",
    "wikiDataId": null
  },
  {
    "id": 133129,
    "name": "Nakur",
    "state_id": 4022,
    "state_code": "UP",
    "country_id": 101,
    "country_code": "IN",
    "latitude": "29.91964000",
    "longitude": "77.30438000",
    "wikiDataId": null
  },
  {
    "id": 133139,
    "name": "Nanauta",
    "state_id": 4022,
    "state_code": "UP",
    "country_id": 101,
    "country_code": "IN",
    "latitude": "29.71215000",
    "longitude": "77.41728000",
    "wikiDataId": null
  },
  {
    "id": 133142,
    "name": "Nandgaon",
    "state_id": 4022,
    "state_code": "UP",
    "country_id": 101,
    "country_code": "IN",
    "latitude": "27.71102000",
    "longitude": "77.38653000",
    "wikiDataId": null
  },
  {
    "id": 133270,
    "name": "Nanpara",
    "state_id": 4022,
    "state_code": "UP",
    "country_id": 101,
    "country_code": "IN",
    "latitude": "27.86459000",
    "longitude": "81.50036000",
    "wikiDataId": null
  },