[
  {
    "id": 150432,
    "name": "Arian Shahr",
    "state_id": 3930,
    "state_code": "29",
    "country_id": 103,
    "country_code": "IR",
    "latitude": "33.33146920",
    "longitude": "59.22934410",
    "wikiDataId": null
  },
  {
    "id": 150418,
    "name": "Asadieh",
    "state_id": 3930,
    "state_code": "29",
    "country_id": 103,
    "country_code": "IR",
    "latitude": "32.91389070",
    "longitude": "60.01498450",
    "wikiDataId": null
  },
  {
    "id": 150424,
    "name": "Ayask",
    "state_id": 3930,
    "state_code": "29",
    "country_id": 103,
    "country_code": "IR",
    "latitude": "33.88666690",
    "longitude": "58.36903090",
    "wikiDataId": null
  },
  {
    "id": 134828,
    "name": "Birjand",
    "state_id": 3930,
    "state_code": "29",
    "country_id": 103,
    "country_code": "IR",
    "latitude": "33.00669000",
    "longitude": "59.07223000",
    "wikiDataId": null
  },
  {
    "id": 150416,
    "name": "Boshrouyeh",
    "state_id": 3930,
    "state_code": "29",
    "country_id": 103,
    "country_code": "IR",
    "latitude": "33.86371270",
    "longitude": "57.40532390",
    "wikiDataId": null
  },
  {
    "id": 134592,
    "name": "Boshruyeh",
    "state_id": 3930,
    "state_code": "29",
    "country_id": 103,
    "country_code": "IR",
    "latitude": "34.16667000",
    "longitude": "57.41667000",
    "wikiDataId": null
  },
  {
    "id": 134842,
    "name": "Darmian",
    "state_id": 3930,
    "state_code": "29",
    "country_id": 103,
    "country_code": "IR",
    "latitude": "32.95000000",
    "longitude": "60.16667000",
    "wikiDataId": null
  },
  {
    "id": 150428,
    "name": "Deyhuk",
    "state_id": 3930,
    "state_code": "29",
    "country_id": 103,
    "country_code": "IR",
    "latitude": "33.29299580",
    "longitude": "57.50437250",
    "wikiDataId": null
  },
  {
    "id": 150415,
    "name": "Eresk",
    "state_id": 3930,
    "state_code": "29",
    "country_id": 103,
    "country_code": "IR",
    "latitude": "33.70284870",
    "longitude": "57.36251580",
    "wikiDataId": null
  },
  {
    "id": 150433,
    "name": "Esfedan",
    "state_id": 3930,
    "state_code": "29",
    "country_id": 103,
    "country_code": "IR",
    "latitude": "33.64611680",
    "longitude": "59.77098940",
    "wikiDataId": null
  },
  {
    "id": 150429,
    "name": "Eshqabad",
    "state_id": 3930,
    "state_code": "29",
    "country_id": 103,
    "country_code": "IR",
    "latitude": "34.36694400",
    "longitude": "56.93111100",
    "wikiDataId": null
  },
  {
    "id": 150430,
    "name": "Eslamiyeh",
    "state_id": 3930,
    "state_code": "29",
    "country_id": 103,
    "country_code": "IR",
    "latitude": "34.04555600",
    "longitude": "58.22027800",
    "wikiDataId": null
  },
  {
    "id": 150431,
    "name": "Ferdows",
    "state_id": 3930,
    "state_code": "29",
    "country_id": 103,
    "country_code": "IR",
    "latitude": "34.01940280",
    "longitude": "58.15411070",
    "wikiDataId": null
  },
  {
    "id": 150421,
    "name": "Gazik",
    "state_id": 3930,
    "state_code": "29",
    "country_id": 103,
    "country_code": "IR",
    "latitude": "32.99991820",
    "longitude": "60.21178420",
    "wikiDataId": null
  },
  {
    "id": 150435,
    "name": "Ghayen",
    "state_id": 3930,
    "state_code": "29",
    "country_id": 103,
    "country_code": "IR",
    "latitude": "33.72482540",
    "longitude": "59.14322310",
    "wikiDataId": null
  },
  {
    "id": 150420,
    "name": "Ghohestan",
    "state_id": 3930,
    "state_code": "29",
    "country_id": 103,
    "country_code": "IR",
    "latitude": "33.15183200",
    "longitude": "59.69687450",
    "wikiDataId": null
  },
  {
    "id": 150422,
    "name": "Hajiabad",
    "state_id": 3930,
    "state_code": "29",
    "country_id": 103,
    "country_code": "IR",
    "latitude": "33.60327070",
    "longitude": "59.99037270",
    "wikiDataId": null
  },
  {
    "id": 150434,
    "name": "Khezri Dashtebayaz",
    "state_id": 3930,
    "state_code": "29",
    "country_id": 103,
    "country_code": "IR",
    "latitude": "34.02110000",
    "longitude": "58.80779740",
    "wikiDataId": null
  },
  {
    "id": 134927,
    "name": "Khusf",
    "state_id": 3930,
    "state_code": "29",
    "country_id": 103,
    "country_code": "IR",
    "latitude": "32.18333000",
    "longitude": "58.76667000",
    "wikiDataId": null
  },
  {
    "id": 150417,
    "name": "Mohammad Shahr",
    "state_id": 3930,
    "state_code": "29",
    "country_id": 103,
    "country_code": "IR",
    "latitude": "35.74475930",
    "longitude": "50.87227770",
    "wikiDataId": null
  },
  {
    "id": 150427,
    "name": "Mud",
    "state_id": 3930,
    "state_code": "29",
    "country_id": 103,
    "country_code": "IR",
    "latitude": "32.70890630",
    "longitude": "59.51680120",
    "wikiDataId": null
  },
  {
    "id": 134980,
    "name": "Nehbandan",
    "state_id": 3930,
    "state_code": "29",
    "country_id": 103,
    "country_code": "IR",
    "latitude": "31.56667000",
    "longitude": "59.81667000",
    "wikiDataId": null
  },
  {
    "id": 150436,
    "name": "Nimbolook",
    "state_id": 3930,
    "state_code": "29",
    "country_id": 103,
    "country_code": "IR",
    "latitude": "33.91169420",
    "longitude": "58.92362600",
    "wikiDataId": null
  },
  {
    "id": 134746,
    "name": "Qaen",
    "state_id": 3930,
    "state_code": "29",
    "country_id": 103,
    "country_code": "IR",
    "latitude": "33.72654000",
    "longitude": "59.18439000",
    "wikiDataId": null
  },
  {
    "id": 135030,
    "name": "Sarayan",
    "state_id": 3930,
    "state_code": "29",
    "country_id": 103,
    "country_code": "IR",
    "latitude": "33.41667000",
    "longitude": "58.31667000",
    "wikiDataId": null
  },
  {
    "id": 150426,
    "name": "Sarbishe",
    "state_id": 3930,
    "state_code": "29",
    "country_id": 103,
    "country_code": "IR",
    "latitude": "32.49081810",
    "longitude": "59.48763620",
    "wikiDataId": null
  },
  {
    "id": 135024,
    "name": "Sarbisheh",
    "state_id": 3930,
    "state_code": "29",
    "country_id": 103,
    "country_code": "IR",
    "latitude": "32.40000000",
    "longitude": "60.08333000",
    "wikiDataId": null
  },
  {
    "id": 150425,
    "name": "Seh Qaleh",
    "state_id": 3930,
    "state_code": "29",
    "country_id": 103,
    "country_code": "IR",
    "latitude": "33.66052710",
    "longitude": "58.39830620",
    "wikiDataId": null
  },
  {
    "id": 150437,
    "name": "Shusf",
    "state_id": 3930,
    "state_code": "29",
    "country_id": 103,
    "country_code": "IR",
    "latitude": "31.80557260",
    "longitude": "59.99816170",
    "wikiDataId": null
  },
  {
    "id": 135124,
    "name": "Tabas",
    "state_id": 3930,
    "state_code": "29",
    "country_id": 103,
    "country_code": "IR",
    "latitude": "32.80304000",
    "longitude": "60.22146000",
    "wikiDataId": null
  },
  {
    "id": 150419,
    "name": "Tabas Masina",
    "state_id": 3930,
    "state_code": "29",
    "country_id": 103,
    "country_code": "IR",
    "latitude": "32.80770990",
    "longitude": "60.21503440",
    "wikiDataId": null
  },
  {
    "id": 135077,
    "name": "Zirkuh",
    "state_id": 3930,
    "state_code": "29",
    "country_id": 103,
    "country_code": "IR",
    "latitude": "33.58333000",
    "longitude": "60.30000000",
    "wikiDataId": null
  },
  {
    "id": 150423,
    "name": "Zohaan",
    "state_id": 3930,
    "state_code": "29",
    "country_id": 103,
    "country_code": "IR",
    "latitude": "33.42331970",
    "longitude": "59.80727440",
    "wikiDataId": null
  }
]