[
  {
    "id": 2666,
    "name": "Banjul",
    "country_id": 80,
    "country_code": "GM",
    "state_code": "B",
    "type": "city",
    "latitude": "13.45487610",
    "longitude": "-16.57903230",
    "iso3166_2": "GM-B",
    "native": "Banjul",
    "timezone": "Africa/Banjul"
  },
  {
    "id": 2669,
    "name": "Central River",
    "country_id": 80,
    "country_code": "GM",
    "state_code": "M",
    "type": "division",
    "latitude": "13.57507380",
    "longitude": "-14.77971470",
    "iso3166_2": "GM-M",
    "native": "Central River",
    "timezone": "Africa/Banjul"
  },
  {
    "id": 2670,
    "name": "Lower River",
    "country_id": 80,
    "country_code": "GM",
    "state_code": "L",
    "type": "division",
    "latitude": "13.39783040",
    "longitude": "-15.72633120",
    "iso3166_2": "GM-L",
    "native": "Lower River",
    "timezone": "Africa/Banjul"
  },
  {
    "id": 2671,
    "name": "North Bank",
    "country_id": 80,
    "country_code": "GM",
    "state_code": "N",
    "type": "division",
    "latitude": "13.47312830",
    "longitude": "-16.13343590",
    "iso3166_2": "GM-N",
    "native": "North Bank",
    "timezone": "Africa/Banjul"
  },
  {
    "id": 2668,
    "name": "Upper River",
    "country_id": 80,
    "country_code": "GM",
    "state_code": "U",
    "type": "division",
    "latitude": "13.40499770",
    "longitude": "-14.14955760",
    "iso3166_2": "GM-U",
    "native": "Upper River",
    "timezone": "Africa/Banjul"
  },
  {
    "id": 2667,
    "name": "West Coast",
    "country_id": 80,
    "country_code": "GM",
    "state_code": "W",
    "type": "division",
    "latitude": "13.25851300",
    "longitude": "-16.49990510",
    "iso3166_2": "GM-W",
    "native": "West Coast",
    "timezone": "Africa/Banjul"
  }
]