[
  {
    "id": 57440,
    "name": "Atlit",
    "state_id": 1369,
    "state_code": "HA",
    "country_id": 106,
    "country_code": "IL",
    "latitude": "32.68889000",
    "longitude": "34.94236000",
    "wikiDataId": null
  },
  {
    "id": 57455,
    "name": "Caesarea",
    "state_id": 1369,
    "state_code": "HA",
    "country_id": 106,
    "country_code": "IL",
    "latitude": "32.51888000",
    "longitude": "34.90459000",
    "wikiDataId": null
  },
  {
    "id": 57457,
    "name": "Daliyat al Karmel",
    "state_id": 1369,
    "state_code": "HA",
    "country_id": 106,
    "country_code": "IL",
    "latitude": "32.69383000",
    "longitude": "35.04686000",
    "wikiDataId": null
  },
  {
    "id": 57461,
    "name": "El Fureidīs",
    "state_id": 1369,
    "state_code": "HA",
    "country_id": 106,
    "country_code": "IL",
    "latitude": "32.59812000",
    "longitude": "34.95153000",
    "wikiDataId": null
  },
  {
    "id": 57473,
    "name": "Hadera",
    "state_id": 1369,
    "state_code": "HA",
    "country_id": 106,
    "country_code": "IL",
    "latitude": "32.44192000",
    "longitude": "34.90390000",
    "wikiDataId": null
  },
  {
    "id": 57474,
    "name": "Haifa",
    "state_id": 1369,
    "state_code": "HA",
    "country_id": 106,
    "country_code": "IL",
    "latitude": "32.81841000",
    "longitude": "34.98850000",
    "wikiDataId": null
  },
  {
    "id": 57480,
    "name": "Ibṭīn",
    "state_id": 1369,
    "state_code": "HA",
    "country_id": 106,
    "country_code": "IL",
    "latitude": "32.76150000",
    "longitude": "35.11402000",
    "wikiDataId": null
  },
  {
    "id": 57521,
    "name": "Nesher",
    "state_id": 1369,
    "state_code": "HA",
    "country_id": 106,
    "country_code": "IL",
    "latitude": "32.76622000",
    "longitude": "35.04425000",
    "wikiDataId": null
  },
  {
    "id": 57535,
    "name": "Qiryat Ata",
    "state_id": 1369,
    "state_code": "HA",
    "country_id": 106,
    "country_code": "IL",
    "latitude": "32.81149000",
    "longitude": "35.11323000",
    "wikiDataId": null
  },
  {
    "id": 57536,
    "name": "Qiryat Bialik",
    "state_id": 1369,
    "state_code": "HA",
    "country_id": 106,
    "country_code": "IL",
    "latitude": "32.82750000",
    "longitude": "35.08583000",
    "wikiDataId": null
  },
  {
    "id": 57538,
    "name": "Qiryat Moẕqin",
    "state_id": 1369,
    "state_code": "HA",
    "country_id": 106,
    "country_code": "IL",
    "latitude": "32.83706000",
    "longitude": "35.07760000",
    "wikiDataId": null
  },
  {
    "id": 57540,
    "name": "Qiryat Yam",
    "state_id": 1369,
    "state_code": "HA",
    "country_id": 106,
    "country_code": "IL",
    "latitude": "32.84966000",
    "longitude": "35.06973000",
    "wikiDataId": null
  },
  {
    "id": 57547,
    "name": "Rekhasim",
    "state_id": 1369,
    "state_code": "HA",
    "country_id": 106,
    "country_code": "IL",
    "latitude": "32.74907000",
    "longitude": "35.09901000",
    "wikiDataId": null
  },
  {
    "id": 57569,
    "name": "Tirat Karmel",
    "state_id": 1369,
    "state_code": "HA",
    "country_id": 106,
    "country_code": "IL",
    "latitude": "32.76021000",
    "longitude": "34.97183000",
    "wikiDataId": null
  },
  {
    "id": 57570,
    "name": "Umm el Faḥm",
    "state_id": 1369,
    "state_code": "HA",
    "country_id": 106,
    "country_code": "IL",
    "latitude": "32.51725000",
    "longitude": "35.15349000",
    "wikiDataId": null
  }
]