[
  {
    "id": 68022,
    "name": "Acachapan y Colmena 3ra. Sección",
    "state_id": 3454,
    "state_code": "TAB",
    "country_id": 142,
    "country_code": "MX",
    "latitude": "18.04858000",
    "longitude": "-92.77750000",
    "wikiDataId": null
  },
  {
    "id": 76402,
    "name": "Álvaro Obregón (Santa Cruz)",
    "state_id": 3454,
    "state_code": "TAB",
    "country_id": 142,
    "country_code": "MX",
    "latitude": "18.39422000",
    "longitude": "-92.79982000",
    "wikiDataId": null
  },
  {
    "id": 76403,
    "name": "Álvaro Obregón 2da. Sección (El Lechugal)",
    "state_id": 3454,
    "state_code": "TAB",
    "country_id": 142,
    "country_code": "MX",
    "latitude": "18.39287000",
    "longitude": "-92.79119000",
    "wikiDataId": null
  },
  {
    "id": 68233,
    "name": "Amado Gómez",
    "state_id": 3454,
    "state_code": "TAB",
    "country_id": 142,
    "country_code": "MX",
    "latitude": "18.14684000",
    "longitude": "-93.35618000",
    "wikiDataId": null
  },
  {
    "id": 68265,
    "name": "Anacleto Canabal 2da. Sección",
    "state_id": 3454,
    "state_code": "TAB",
    "country_id": 142,
    "country_code": "MX",
    "latitude": "17.97556000",
    "longitude": "-93.02417000",
    "wikiDataId": null
  },
  {
    "id": 68266,
    "name": "Anacleto Canabal 3ra. Sección",
    "state_id": 3454,
    "state_code": "TAB",
    "country_id": 142,
    "country_code": "MX",
    "latitude": "18.01830000",
    "longitude": "-92.98992000",
    "wikiDataId": null
  },
  {
    "id": 68269,
    "name": "Andrés Quintana Roo",
    "state_id": 3454,
    "state_code": "TAB",
    "country_id": 142,
    "country_code": "MX",
    "latitude": "17.70771000",
    "longitude": "-93.01077000",
    "wikiDataId": null
  },
  {
    "id": 68299,
    "name": "Apatzingán",
    "state_id": 3454,
    "state_code": "TAB",
    "country_id": 142,
    "country_code": "MX",
    "latitude": "17.60803000",
    "longitude": "-91.06687000",
    "wikiDataId": null
  },
  {
    "id": 68318,
    "name": "Aquiles Serdán",
    "state_id": 3454,
    "state_code": "TAB",
    "country_id": 142,
    "country_code": "MX",
    "latitude": "17.78333000",
    "longitude": "-92.28333000",
    "wikiDataId": null
  },
  {
    "id": 68324,
    "name": "Aquiles Serdán (San Fernando)",
    "state_id": 3454,
    "state_code": "TAB",
    "country_id": 142,
    "country_code": "MX",
    "latitude": "17.80556000",
    "longitude": "-92.48972000",
    "wikiDataId": null
  },
  {
    "id": 68325,
    "name": "Aquiles Serdán 1ra. Sección",
    "state_id": 3454,
    "state_code": "TAB",
    "country_id": 142,
    "country_code": "MX",
    "latitude": "17.82474000",
    "longitude": "-92.73977000",
    "wikiDataId": null
  },
  {
    "id": 68343,
    "name": "Arena 1ra. Sección",
    "state_id": 3454,
    "state_code": "TAB",
    "country_id": 142,
    "country_code": "MX",
    "latitude": "18.20139000",
    "longitude": "-93.36694000",
    "wikiDataId": null
  },
  {
    "id": 68344,
    "name": "Arena 6ta. Sección (La Bolsa)",
    "state_id": 3454,
    "state_code": "TAB",
    "country_id": 142,
    "country_code": "MX",
    "latitude": "18.16218000",
    "longitude": "-93.39539000",
    "wikiDataId": null
  },
  {
    "id": 68345,
    "name": "Arena de Hidalgo",
    "state_id": 3454,
    "state_code": "TAB",
    "country_id": 142,
    "country_code": "MX",
    "latitude": "17.45827000",
    "longitude": "-91.58847000",
    "wikiDataId": null
  },
  {
    "id": 68361,
    "name": "Arroyo Hondo Abejonal",
    "state_id": 3454,
    "state_code": "TAB",
    "country_id": 142,
    "country_code": "MX",
    "latitude": "17.97739000",
    "longitude": "-93.41039000",
    "wikiDataId": null
  },
  {
    "id": 68382,
    "name": "Astapa",
    "state_id": 3454,
    "state_code": "TAB",
    "country_id": 142,
    "country_code": "MX",
    "latitude": "17.78165000",
    "longitude": "-92.84938000",
    "wikiDataId": null
  },
  {
    "id": 68460,
    "name": "Ayapa",
    "state_id": 3454,
    "state_code": "TAB",
    "country_id": 142,
    "country_code": "MX",
    "latitude": "18.22410000",
    "longitude": "-93.11158000",
    "wikiDataId": null
  },
  {
    "id": 68507,
    "name": "Balancán",
    "state_id": 3454,
    "state_code": "TAB",
    "country_id": 142,
    "country_code": "MX",
    "latitude": "17.80903000",
    "longitude": "-91.53682000",
    "wikiDataId": null
  },
  {
    "id": 68512,
    "name": "Banderas (Guatacalca 2da. Sección)",
    "state_id": 3454,
    "state_code": "TAB",
    "country_id": 142,
    "country_code": "MX",
    "latitude": "18.15167000",
    "longitude": "-92.89881000",
    "wikiDataId": null
  },
  {
    "id": 68521,
    "name": "Barrancas y Amate 3ra. Sección",
    "state_id": 3454,
    "state_code": "TAB",
    "country_id": 142,
    "country_code": "MX",
    "latitude": "17.97100000",
    "longitude": "-92.76173000",
    "wikiDataId": null
  },
  {
    "id": 68582,
    "name": "Belén",
    "state_id": 3454,
    "state_code": "TAB",
    "country_id": 142,
    "country_code": "MX",
    "latitude": "17.78907000",
    "longitude": "-92.61137000",
    "wikiDataId": null
  },
  {
    "id": 68587,
    "name": "Benito González",
    "state_id": 3454,
    "state_code": "TAB",
    "country_id": 142,
    "country_code": "MX",
    "latitude": "17.86993000",
    "longitude": "-92.70834000",
    "wikiDataId": null
  },
  {
    "id": 68591,
    "name": "Benito Juárez",
    "state_id": 3454,
    "state_code": "TAB",
    "country_id": 142,
    "country_code": "MX",
    "latitude": "18.42573000",
    "longitude": "-92.80285000",
    "wikiDataId": null
  },
  {
    "id": 68603,
    "name": "Benito Juárez (La Playita)",
    "state_id": 3454,
    "state_code": "TAB",
    "country_id": 142,
    "country_code": "MX",
    "latitude": "17.93231000",
    "longitude": "-93.36472000",
    "wikiDataId": null
  },
  {
    "id": 68613,
    "name": "Betania",
    "state_id": 3454,
    "state_code": "TAB",
    "country_id": 142,
    "country_code": "MX",
    "latitude": "18.28003000",
    "longitude": "-93.32081000",
    "wikiDataId": null
  },
  {
    "id": 68618,
    "name": "Blasillo 1ra. Sección (Nicolás Bravo)",
    "state_id": 3454,
    "state_code": "TAB",
    "country_id": 142,
    "country_code": "MX",
    "latitude": "18.07861000",
    "longitude": "-93.91833000",
    "wikiDataId": null
  },
  {
    "id": 68637,
    "name": "Boquiapa",
    "state_id": 3454,
    "state_code": "TAB",
    "country_id": 142,
    "country_code": "MX",
    "latitude": "18.16111000",
    "longitude": "-93.13750000",
    "wikiDataId": null
  },
  {
    "id": 68643,
    "name": "Bosque de Saloya",
    "state_id": 3454,
    "state_code": "TAB",
    "country_id": 142,
    "country_code": "MX",
    "latitude": "18.01611000",
    "longitude": "-92.95806000",
    "wikiDataId": null
  },
  {
    "id": 68651,
    "name": "Brisas del Carrizal",
    "state_id": 3454,
    "state_code": "TAB",
    "country_id": 142,
    "country_code": "MX",
    "latitude": "18.01556000",
    "longitude": "-92.97083000",
    "wikiDataId": null
  },
  {
    "id": 68663,
    "name": "Buena Vista (Apasco)",
    "state_id": 3454,
    "state_code": "TAB",
    "country_id": 142,
    "country_code": "MX",
    "latitude": "17.65556000",
    "longitude": "-92.44389000",
    "wikiDataId": null
  },
  {
    "id": 68664,
    "name": "Buena Vista (Puxcatán)",
    "state_id": 3454,
    "state_code": "TAB",
    "country_id": 142,
    "country_code": "MX",
    "latitude": "17.73073000",
    "longitude": "-92.61996000",
    "wikiDataId": null
  },
  {
    "id": 68665,
    "name": "Buena Vista 1ra. Sección",
    "state_id": 3454,
    "state_code": "TAB",
    "country_id": 142,
    "country_code": "MX",
    "latitude": "18.14417000",
    "longitude": "-92.74972000",
    "wikiDataId": null
  },
  {
    "id": 68668,
    "name": "Buenavista",
    "state_id": 3454,
    "state_code": "TAB",
    "country_id": 142,
    "country_code": "MX",
    "latitude": "17.91667000",
    "longitude": "-92.53333000",
    "wikiDataId": null
  },
  {
    "id": 68697,
    "name": "C-32 (Licenciado Francisco Trujillo Gurría)",
    "state_id": 3454,
    "state_code": "TAB",
    "country_id": 142,
    "country_code": "MX",
    "latitude": "17.96833000",
    "longitude": "-93.50139000",
    "wikiDataId": null
  },
  {
    "id": 68698,
    "name": "C-41 (Licenciado Carlos A. Madrazo)",
    "state_id": 3454,
    "state_code": "TAB",
    "country_id": 142,
    "country_code": "MX",
    "latitude": "17.92306000",
    "longitude": "-93.44806000",
    "wikiDataId": null
  },
  {
    "id": 68802,
    "name": "Caobanal 1ra. Sección (Mezcalapa)",
    "state_id": 3454,
    "state_code": "TAB",
    "country_id": 142,
    "country_code": "MX",
    "latitude": "17.64858000",
    "longitude": "-93.39464000",
    "wikiDataId": null
  },
  {
    "id": 68805,
    "name": "Caparroso",
    "state_id": 3454,
    "state_code": "TAB",
    "country_id": 142,
    "country_code": "MX",
    "latitude": "18.34500000",
    "longitude": "-92.80361000",
    "wikiDataId": null
  },
  {
    "id": 68806,
    "name": "Capitán Felipe Castellanos Díaz (San Pedro)",
    "state_id": 3454,
    "state_code": "TAB",
    "country_id": 142,
    "country_code": "MX",
    "latitude": "17.77306000",
    "longitude": "-91.14750000",
    "wikiDataId": null
  },
  {
    "id": 69659,
    "name": "Cárdenas",
    "state_id": 3454,
    "state_code": "TAB",
    "country_id": 142,
    "country_code": "MX",
    "latitude": "18.00135000",
    "longitude": "-93.37559000",
    "wikiDataId": null
  },
  {
    "id": 68889,
    "name": "Ceiba 1ra. Sección (Jahuactal)",
    "state_id": 3454,
    "state_code": "TAB",
    "country_id": 142,
    "country_code": "MX",
    "latitude": "18.06222000",
    "longitude": "-93.11306000",
    "wikiDataId": null
  },
  {
    "id": 68898,
    "name": "Centro",
    "state_id": 3454,
    "state_code": "TAB",
    "country_id": 142,
    "country_code": "MX",
    "latitude": "17.98633000",
    "longitude": "-92.88674000",
    "wikiDataId": null
  },
  {
    "id": 68943,
    "name": "Chablé",
    "state_id": 3454,
    "state_code": "TAB",
    "country_id": 142,
    "country_code": "MX",
    "latitude": "17.85895000",
    "longitude": "-91.78130000",
    "wikiDataId": null
  },
  {
    "id": 69021,
    "name": "Chichicapa",
    "state_id": 3454,
    "state_code": "TAB",
    "country_id": 142,
    "country_code": "MX",
    "latitude": "18.26228000",
    "longitude": "-93.18210000",
    "wikiDataId": null
  },
  {
    "id": 69023,
    "name": "Chichicastle 1ra. Sección",
    "state_id": 3454,
    "state_code": "TAB",
    "country_id": 142,
    "country_code": "MX",
    "latitude": "18.30417000",
    "longitude": "-92.43139000",
    "wikiDataId": null
  },
  {
    "id": 69106,
    "name": "Chontalpa",
    "state_id": 3454,
    "state_code": "TAB",
    "country_id": 142,
    "country_code": "MX",
    "latitude": "17.66614000",
    "longitude": "-93.48115000",
    "wikiDataId": null
  },
  {
    "id": 69175,
    "name": "Ciudad Pemex",
    "state_id": 3454,
    "state_code": "TAB",
    "country_id": 142,
    "country_code": "MX",
    "latitude": "17.88268000",
    "longitude": "-92.48406000",
    "wikiDataId": null
  },
  {
    "id": 69237,
    "name": "Cocohital",
    "state_id": 3454,
    "state_code": "TAB",
    "country_id": 142,
    "country_code": "MX",
    "latitude": "18.39527000",
    "longitude": "-93.34527000",
    "wikiDataId": null
  },
  {
    "id": 69418,
    "name": "Comalcalco",
    "state_id": 3454,
    "state_code": "TAB",
    "country_id": 142,
    "country_code": "MX",
    "latitude": "18.26316000",
    "longitude": "-93.22397000",
    "wikiDataId": null
  },
  {
    "id": 69464,
    "name": "Constitución",
    "state_id": 3454,
    "state_code": "TAB",
    "country_id": 142,
    "country_code": "MX",
    "latitude": "18.07278000",
    "longitude": "-92.87194000",
    "wikiDataId": null
  },
  {
    "id": 69493,
    "name": "Corriente 1ra. Sección",
    "state_id": 3454,
    "state_code": "TAB",
    "country_id": 142,
    "country_code": "MX",
    "latitude": "18.15767000",
    "longitude": "-92.99372000",
    "wikiDataId": null
  },
  {
    "id": 69609,
    "name": "Cucuyulapa Primera Sección",
    "state_id": 3454,
    "state_code": "TAB",
    "country_id": 142,
    "country_code": "MX",
    "latitude": "17.99082000",
    "longitude": "-93.25619000",
    "wikiDataId": null
  },
  {
    "id": 69663,
    "name": "Cúlico 2da. Sección",
    "state_id": 3454,
    "state_code": "TAB",
    "country_id": 142,
    "country_code": "MX",
    "latitude": "18.14116000",
    "longitude": "-93.13222000",
    "wikiDataId": null
  },
  {
    "id": 69637,
    "name": "Cumuapa 1ra. Sección",
    "state_id": 3454,
    "state_code": "TAB",
    "country_id": 142,
    "country_code": "MX",
    "latitude": "17.98519000",
    "longitude": "-93.13806000",
    "wikiDataId": null
  },
  {
    "id": 69640,
    "name": "Cunduacán",
    "state_id": 3454,
    "state_code": "TAB",
    "country_id": 142,
    "country_code": "MX",
    "latitude": "18.06557000",
    "longitude": "-93.17302000",
    "wikiDataId": null
  },
  {
    "id": 69644,
    "name": "Cupilco",
    "state_id": 3454,
    "state_code": "TAB",
    "country_id": 142,
    "country_code": "MX",
    "latitude": "18.23947000",
    "longitude": "-93.12767000",
    "wikiDataId": null
  },
  {
    "id": 69718,
    "name": "Dos Ceibas",
    "state_id": 3454,
    "state_code": "TAB",
    "country_id": 142,
    "country_code": "MX",
    "latitude": "18.04112000",
    "longitude": "-93.03561000",
    "wikiDataId": null
  },
  {
    "id": 69719,
    "name": "Dos Montes",
    "state_id": 3454,
    "state_code": "TAB",
    "country_id": 142,
    "country_code": "MX",
    "latitude": "17.98774000",
    "longitude": "-92.82832000",
    "wikiDataId": null
  },
  {
    "id": 69838,
    "name": "El Bajío",
    "state_id": 3454,
    "state_code": "TAB",
    "country_id": 142,
    "country_code": "MX",
    "latitude": "17.98173000",
    "longitude": "-92.78229000",
    "wikiDataId": null
  },
  {
    "id": 69844,
    "name": "El Bellote (Miguel de la Madrid)",
    "state_id": 3454,
    "state_code": "TAB",
    "country_id": 142,
    "country_code": "MX",
    "latitude": "18.42528000",
    "longitude": "-93.15083000",
    "wikiDataId": null
  },
  {
    "id": 69891,
    "name": "El Cedro",
    "state_id": 3454,
    "state_code": "TAB",
    "country_id": 142,
    "country_code": "MX",
    "latitude": "18.02699000",
    "longitude": "-92.94760000",
    "wikiDataId": null
  },
  {
    "id": 69918,
    "name": "El Congo",
    "state_id": 3454,
    "state_code": "TAB",
    "country_id": 142,
    "country_code": "MX",
    "latitude": "17.82522000",
    "longitude": "-92.43887000",
    "wikiDataId": null
  },
  {
    "id": 69946,
    "name": "El Dorado",
    "state_id": 3454,
    "state_code": "TAB",
    "country_id": 142,
    "country_code": "MX",
    "latitude": "17.88323000",
    "longitude": "-93.36788000",
    "wikiDataId": null
  },
  {
    "id": 69958,
    "name": "El Escribano",
    "state_id": 3454,
    "state_code": "TAB",
    "country_id": 142,
    "country_code": "MX",
    "latitude": "18.41028000",
    "longitude": "-93.22167000",
    "wikiDataId": null
  },
  {
    "id": 70148,
    "name": "El Recreo",
    "state_id": 3454,
    "state_code": "TAB",
    "country_id": 142,
    "country_code": "MX",
    "latitude": "18.28058000",
    "longitude": "-93.09285000",
    "wikiDataId": null
  },
  {
    "id": 70227,
    "name": "El Tigre",
    "state_id": 3454,
    "state_code": "TAB",
    "country_id": 142,
    "country_code": "MX",
    "latitude": "18.10194000",
    "longitude": "-92.94194000",
    "wikiDataId": null
  },
  {
    "id": 70232,
    "name": "El Tortuguero",
    "state_id": 3454,
    "state_code": "TAB",
    "country_id": 142,
    "country_code": "MX",
    "latitude": "18.31413000",
    "longitude": "-93.28499000",
    "wikiDataId": null
  },
  {
    "id": 70234,
    "name": "El Triunfo",
    "state_id": 3454,
    "state_code": "TAB",
    "country_id": 142,
    "country_code": "MX",
    "latitude": "17.92241000",
    "longitude": "-91.16946000",
    "wikiDataId": null
  },
  {
    "id": 70239,
    "name": "El Tular",
    "state_id": 3454,
    "state_code": "TAB",
    "country_id": 142,
    "country_code": "MX",
    "latitude": "18.15429000",
    "longitude": "-93.33820000",
    "wikiDataId": null
  },
  {
    "id": 70302,
    "name": "Encrucijada 3ra. Sección (Las Calzadas)",
    "state_id": 3454,
    "state_code": "TAB",
    "country_id": 142,
    "country_code": "MX",
    "latitude": "18.25491000",
    "longitude": "-93.55619000",
    "wikiDataId": null
  },
  {
    "id": 70368,
    "name": "Estapilla",
    "state_id": 3454,
    "state_code": "TAB",
    "country_id": 142,
    "country_code": "MX",
    "latitude": "17.54491000",
    "longitude": "-91.40503000",
    "wikiDataId": null
  },
  {
    "id": 70380,
    "name": "Eureka y Belén",
    "state_id": 3454,
    "state_code": "TAB",
    "country_id": 142,
    "country_code": "MX",
    "latitude": "17.55968000",
    "longitude": "-92.92899000",
    "wikiDataId": null
  },
  {
    "id": 70430,
    "name": "Fraccionamiento Ocuiltzapotlán Dos",
    "state_id": 3454,
    "state_code": "TAB",
    "country_id": 142,
    "country_code": "MX",
    "latitude": "18.10889000",
    "longitude": "-92.86778000",
    "wikiDataId": null
  },
  {
    "id": 70464,
    "name": "Francisco I. Madero",
    "state_id": 3454,
    "state_code": "TAB",
    "country_id": 142,
    "country_code": "MX",
    "latitude": "18.34047000",
    "longitude": "-93.20999000",
    "wikiDataId": null
  },
  {
    "id": 70474,
    "name": "Francisco Rueda",
    "state_id": 3454,
    "state_code": "TAB",
    "country_id": 142,
    "country_code": "MX",
    "latitude": "17.82917000",
    "longitude": "-93.93389000",
    "wikiDataId": null
  },
  {
    "id": 70490,
    "name": "Frontera",
    "state_id": 3454,
    "state_code": "TAB",
    "country_id": 142,
    "country_code": "MX",
    "latitude": "18.54326000",
    "longitude": "-92.64530000",
    "wikiDataId": null
  },
  {
    "id": 70523,
    "name": "Gaviotas Sur (El Cedral)",
    "state_id": 3454,
    "state_code": "TAB",
    "country_id": 142,
    "country_code": "MX",
    "latitude": "17.95373000",
    "longitude": "-92.89071000",
    "wikiDataId": null
  },
  {
    "id": 70539,
    "name": "General Luis Felipe Domínguez Suárez",
    "state_id": 3454,
    "state_code": "TAB",
    "country_id": 142,
    "country_code": "MX",
    "latitude": "17.65639000",
    "longitude": "-91.53667000",
    "wikiDataId": null
  },
  {
    "id": 70551,
    "name": "Gobernador Cruz",
    "state_id": 3454,
    "state_code": "TAB",
    "country_id": 142,
    "country_code": "MX",
    "latitude": "18.43364000",
    "longitude": "-92.87180000",
    "wikiDataId": null
  },
  {
    "id": 70552,
    "name": "Gobernadores",
    "state_id": 3454,
    "state_code": "TAB",
    "country_id": 142,
    "country_code": "MX",
    "latitude": "18.24694000",
    "longitude": "-93.18528000",
    "wikiDataId": null
  },
  {
    "id": 70566,
    "name": "Gregorio Méndez",
    "state_id": 3454,
    "state_code": "TAB",
    "country_id": 142,
    "country_code": "MX",
    "latitude": "18.19639000",
    "longitude": "-93.10222000",
    "wikiDataId": null
  },
  {
    "id": 70622,
    "name": "Guatacalca",
    "state_id": 3454,
    "state_code": "TAB",
    "country_id": 142,
    "country_code": "MX",
    "latitude": "18.16599000",
    "longitude": "-92.97871000",
    "wikiDataId": null
  },
  {
    "id": 70627,
    "name": "Guaytalpa",
    "state_id": 3454,
    "state_code": "TAB",
    "country_id": 142,
    "country_code": "MX",
    "latitude": "18.21727000",
    "longitude": "-93.03235000",
    "wikiDataId": null
  },
  {
    "id": 70649,
    "name": "Habanero 1ra. Sección (Venustiano Carranza)",
    "state_id": 3454,
    "state_code": "TAB",
    "country_id": 142,
    "country_code": "MX",
    "latitude": "17.96778000",
    "longitude": "-93.32806000",
    "wikiDataId": null
  },
  {
    "id": 70670,
    "name": "Hermenegildo Galeana 2da. Sección",
    "state_id": 3454,
    "state_code": "TAB",
    "country_id": 142,
    "country_code": "MX",
    "latitude": "18.17054000",
    "longitude": "-93.13508000",
    "wikiDataId": null
  },
  {
    "id": 70713,
    "name": "Huacapa y Amestoy",
    "state_id": 3454,
    "state_code": "TAB",
    "country_id": 142,
    "country_code": "MX",
    "latitude": "18.05377000",
    "longitude": "-93.19694000",
    "wikiDataId": null
  },
  {
    "id": 70735,
    "name": "Huapacal 1ra. Sección",
    "state_id": 3454,
    "state_code": "TAB",
    "country_id": 142,
    "country_code": "MX",
    "latitude": "17.92667000",
    "longitude": "-93.76639000",
    "wikiDataId": null
  },
  {
    "id": 70736,
    "name": "Huapacal 2da. Sección (Punta Brava)",
    "state_id": 3454,
    "state_code": "TAB",
    "country_id": 142,
    "country_code": "MX",
    "latitude": "18.19722000",
    "longitude": "-93.17194000",
    "wikiDataId": null
  },
  {
    "id": 70737,
    "name": "Huapinol",
    "state_id": 3454,
    "state_code": "TAB",
    "country_id": 142,
    "country_code": "MX",
    "latitude": "17.92285000",
    "longitude": "-92.91090000",
    "wikiDataId": null
  },
  {
    "id": 70795,
    "name": "Huimanguillo",
    "state_id": 3454,
    "state_code": "TAB",
    "country_id": 142,
    "country_code": "MX",
    "latitude": "17.83366000",
    "longitude": "-93.38926000",
    "wikiDataId": null
  },
  {
    "id": 70835,
    "name": "Ignacio Allende",
    "state_id": 3454,
    "state_code": "TAB",
    "country_id": 142,
    "country_code": "MX",
    "latitude": "18.38299000",
    "longitude": "-92.84418000",
    "wikiDataId": null
  },
  {
    "id": 70841,
    "name": "Ignacio Gutiérrez Gómez",
    "state_id": 3454,
    "state_code": "TAB",
    "country_id": 142,
    "country_code": "MX",
    "latitude": "18.24948000",
    "longitude": "-93.39748000",
    "wikiDataId": null
  },
  {
    "id": 70854,
    "name": "Ignacio Zaragoza",
    "state_id": 3454,
    "state_code": "TAB",
    "country_id": 142,
    "country_code": "MX",
    "latitude": "18.40139000",
    "longitude": "-92.95944000",
    "wikiDataId": null
  },
  {
    "id": 70859,
    "name": "Ignacio Zaragoza 1ra. Sección",
    "state_id": 3454,
    "state_code": "TAB",
    "country_id": 142,
    "country_code": "MX",
    "latitude": "18.33157000",
    "longitude": "-93.33508000",
    "wikiDataId": null
  },
  {
    "id": 70874,
    "name": "Iquinuapa",
    "state_id": 3454,
    "state_code": "TAB",
    "country_id": 142,
    "country_code": "MX",
    "latitude": "18.19583000",
    "longitude": "-93.12056000",
    "wikiDataId": null
  },
  {
    "id": 70965,
    "name": "Jalapa",
    "state_id": 3454,
    "state_code": "TAB",
    "country_id": 142,
    "country_code": "MX",
    "latitude": "17.72168000",
    "longitude": "-92.81272000",
    "wikiDataId": null
  },
  {
    "id": 70968,
    "name": "Jalapita",
    "state_id": 3454,
    "state_code": "TAB",
    "country_id": 142,
    "country_code": "MX",
    "latitude": "18.41506000",
    "longitude": "-92.99483000",
    "wikiDataId": null
  },
  {
    "id": 70977,
    "name": "Jalpa de Méndez",
    "state_id": 3454,
    "state_code": "TAB",
    "country_id": 142,
    "country_code": "MX",
    "latitude": "18.17633000",
    "longitude": "-93.06300000",
    "wikiDataId": null
  },
  {
    "id": 70994,
    "name": "Jalupa",
    "state_id": 3454,
    "state_code": "TAB",
    "country_id": 142,
    "country_code": "MX",
    "latitude": "18.13687000",
    "longitude": "-93.04534000",
    "wikiDataId": null
  },
  {
    "id": 71048,
    "name": "Jiménez",
    "state_id": 3454,
    "state_code": "TAB",
    "country_id": 142,
    "country_code": "MX",
    "latitude": "18.16043000",
    "longitude": "-92.93336000",
    "wikiDataId": null
  },
  {
    "id": 71072,
    "name": "Jolochero 2da. Sección",
    "state_id": 3454,
    "state_code": "TAB",
    "country_id": 142,
    "country_code": "MX",
    "latitude": "18.12000000",
    "longitude": "-92.79833000",
    "wikiDataId": null
  },
  {
    "id": 71081,
    "name": "Jonuta",
    "state_id": 3454,
    "state_code": "TAB",
    "country_id": 142,
    "country_code": "MX",
    "latitude": "18.08984000",
    "longitude": "-92.13807000",
    "wikiDataId": null
  },
  {
    "id": 71089,
    "name": "José Colomo",
    "state_id": 3454,
    "state_code": "TAB",
    "country_id": 142,
    "country_code": "MX",
    "latitude": "17.94691000",
    "longitude": "-92.46659000",
    "wikiDataId": null
  },
  {
    "id": 71209,
    "name": "La Ceiba",
    "state_id": 3454,
    "state_code": "TAB",
    "country_id": 142,
    "country_code": "MX",
    "latitude": "18.14436000",
    "longitude": "-92.77805000",
    "wikiDataId": null
  },
  {
    "id": 71256,
    "name": "La Curva",
    "state_id": 3454,
    "state_code": "TAB",
    "country_id": 142,
    "country_code": "MX",
    "latitude": "17.86604000",
    "longitude": "-92.48814000",
    "wikiDataId": null
  },
  {
    "id": 71265,
    "name": "La Escalera",
    "state_id": 3454,
    "state_code": "TAB",
    "country_id": 142,
    "country_code": "MX",
    "latitude": "17.84361000",
    "longitude": "-92.52556000",
    "wikiDataId": null
  },
  {
    "id": 71287,
    "name": "La Estrella",
    "state_id": 3454,
    "state_code": "TAB",
    "country_id": 142,
    "country_code": "MX",
    "latitude": "18.60302000",
    "longitude": "-92.58256000",
    "wikiDataId": null
  },
  {
    "id": 71358,
    "name": "La Lima",
    "state_id": 3454,
    "state_code": "TAB",
    "country_id": 142,
    "country_code": "MX",
    "latitude": "17.91056000",
    "longitude": "-92.93389000",
    "wikiDataId": null
  },
  {
    "id": 71370,
    "name": "La Lucha",
    "state_id": 3454,
    "state_code": "TAB",
    "country_id": 142,
    "country_code": "MX",
    "latitude": "18.18069000",
    "longitude": "-93.32176000",
    "wikiDataId": null
  },
  {
    "id": 71388,
    "name": "La Manga 2da. Sección (El Jobal)",
    "state_id": 3454,
    "state_code": "TAB",
    "country_id": 142,
    "country_code": "MX",
    "latitude": "18.01917000",
    "longitude": "-92.86944000",
    "wikiDataId": null
  },
  {
    "id": 71417,
    "name": "La Palma",
    "state_id": 3454,
    "state_code": "TAB",
    "country_id": 142,
    "country_code": "MX",
    "latitude": "17.97980000",
    "longitude": "-92.80555000",
    "wikiDataId": null
  },
  {
    "id": 71440,
    "name": "La Península",
    "state_id": 3454,
    "state_code": "TAB",
    "country_id": 142,
    "country_code": "MX",
    "latitude": "17.94347000",
    "longitude": "-93.36148000",
    "wikiDataId": null
  },
  {
    "id": 71499,
    "name": "La Sábana",
    "state_id": 3454,
    "state_code": "TAB",
    "country_id": 142,
    "country_code": "MX",
    "latitude": "18.44461000",
    "longitude": "-92.88411000",
    "wikiDataId": null
  },
  {
    "id": 71487,
    "name": "La Selva",
    "state_id": 3454,
    "state_code": "TAB",
    "country_id": 142,
    "country_code": "MX",
    "latitude": "18.02333000",
    "longitude": "-92.96306000",
    "wikiDataId": null
  },
  {
    "id": 71518,
    "name": "La Unión",
    "state_id": 3454,
    "state_code": "TAB",
    "country_id": 142,
    "country_code": "MX",
    "latitude": "17.84839000",
    "longitude": "-92.49628000",
    "wikiDataId": null
  },
  {
    "id": 71531,
    "name": "La Victoria",
    "state_id": 3454,
    "state_code": "TAB",
    "country_id": 142,
    "country_code": "MX",
    "latitude": "18.59102000",
    "longitude": "-92.63284000",
    "wikiDataId": null
  },
  {
    "id": 71546,
    "name": "Lagartera 1ra. Sección",
    "state_id": 3454,
    "state_code": "TAB",
    "country_id": 142,
    "country_code": "MX",
    "latitude": "18.06277000",
    "longitude": "-92.88563000",
    "wikiDataId": null
  },
  {
    "id": 71669,
    "name": "Libertad",
    "state_id": 3454,
    "state_code": "TAB",
    "country_id": 142,
    "country_code": "MX",
    "latitude": "17.41027000",
    "longitude": "-92.71502000",
    "wikiDataId": null
  },
  {
    "id": 71761,
    "name": "Lomitas",
    "state_id": 3454,
    "state_code": "TAB",
    "country_id": 142,
    "country_code": "MX",
    "latitude": "18.06434000",
    "longitude": "-92.96201000",
    "wikiDataId": null
  },
  {
    "id": 71786,
    "name": "Los Cenotes",
    "state_id": 3454,
    "state_code": "TAB",
    "country_id": 142,
    "country_code": "MX",
    "latitude": "17.63461000",
    "longitude": "-91.03759000",
    "wikiDataId": null
  },
  {
    "id": 71859,
    "name": "Los Sauces",
    "state_id": 3454,
    "state_code": "TAB",
    "country_id": 142,
    "country_code": "MX",
    "latitude": "18.03335000",
    "longitude": "-92.91693000",
    "wikiDataId": null
  },
  {
    "id": 71881,
    "name": "Luis Gil Pérez",
    "state_id": 3454,
    "state_code": "TAB",
    "country_id": 142,
    "country_code": "MX",
    "latitude": "17.87541000",
    "longitude": "-93.07124000",
    "wikiDataId": null
  },
  {
    "id": 71910,
    "name": "Mactún",
    "state_id": 3454,
    "state_code": "TAB",
    "country_id": 142,
    "country_code": "MX",
    "latitude": "17.58980000",
    "longitude": "-91.29298000",
    "wikiDataId": null
  },
  {
    "id": 71912,
    "name": "Macultepec",
    "state_id": 3454,
    "state_code": "TAB",
    "country_id": 142,
    "country_code": "MX",
    "latitude": "18.15026000",
    "longitude": "-92.86092000",
    "wikiDataId": null
  },
  {
    "id": 71913,
    "name": "Macuspana",
    "state_id": 3454,
    "state_code": "TAB",
    "country_id": 142,
    "country_code": "MX",
    "latitude": "17.76052000",
    "longitude": "-92.59539000",
    "wikiDataId": null
  },
  {
    "id": 72044,
    "name": "Mazateupa",
    "state_id": 3454,
    "state_code": "TAB",
    "country_id": 142,
    "country_code": "MX",
    "latitude": "18.20217000",
    "longitude": "-93.00933000",
    "wikiDataId": null
  },
  {
    "id": 72054,
    "name": "Mecatepec",
    "state_id": 3454,
    "state_code": "TAB",
    "country_id": 142,
    "country_code": "MX",
    "latitude": "17.88988000",
    "longitude": "-93.52498000",
    "wikiDataId": null
  },
  {
    "id": 72059,
    "name": "Mecoacán",
    "state_id": 3454,
    "state_code": "TAB",
    "country_id": 142,
    "country_code": "MX",
    "latitude": "18.23855000",
    "longitude": "-93.08187000",
    "wikiDataId": null
  },
  {
    "id": 72060,
    "name": "Mecoacán 2da. Sección (San Lorenzo)",
    "state_id": 3454,
    "state_code": "TAB",
    "country_id": 142,
    "country_code": "MX",
    "latitude": "18.27790000",
    "longitude": "-93.09095000",
    "wikiDataId": null
  },
  {
    "id": 72063,
    "name": "Medellín y Madero Segunda Sección",
    "state_id": 3454,
    "state_code": "TAB",
    "country_id": 142,
    "country_code": "MX",
    "latitude": "18.11351000",
    "longitude": "-92.85400000",
    "wikiDataId": null
  },
  {
    "id": 72070,
    "name": "Melchor Ocampo",
    "state_id": 3454,
    "state_code": "TAB",
    "country_id": 142,
    "country_code": "MX",
    "latitude": "18.03694000",
    "longitude": "-93.36250000",
    "wikiDataId": null
  },
  {
    "id": 72127,
    "name": "Miguel Hidalgo",
    "state_id": 3454,
    "state_code": "TAB",
    "country_id": 142,
    "country_code": "MX",
    "latitude": "18.25691000",
    "longitude": "-93.31073000",
    "wikiDataId": null
  },
  {
    "id": 72133,
    "name": "Miguel Hidalgo 2da. Sección B (La Natividad)",
    "state_id": 3454,
    "state_code": "TAB",
    "country_id": 142,
    "country_code": "MX",
    "latitude": "18.07861000",
    "longitude": "-93.35056000",
    "wikiDataId": null
  },
  {
    "id": 72200,
    "name": "Monte Grande",
    "state_id": 3454,
    "state_code": "TAB",
    "country_id": 142,
    "country_code": "MX",
    "latitude": "17.93541000",
    "longitude": "-92.26444000",
    "wikiDataId": null
  },
  {
    "id": 72203,
    "name": "Monte Largo 1ra. Sección",
    "state_id": 3454,
    "state_code": "TAB",
    "country_id": 142,
    "country_code": "MX",
    "latitude": "17.83567000",
    "longitude": "-92.60664000",
    "wikiDataId": null
  },
  {
    "id": 72235,
    "name": "Morelos Piedra 3ra. Sección",
    "state_id": 3454,
    "state_code": "TAB",
    "country_id": 142,
    "country_code": "MX",
    "latitude": "18.14389000",
    "longitude": "-93.22000000",
    "wikiDataId": null
  },
  {
    "id": 72252,
    "name": "Multé",
    "state_id": 3454,
    "state_code": "TAB",
    "country_id": 142,
    "country_code": "MX",
    "latitude": "17.68850000",
    "longitude": "-91.37944000",
    "wikiDataId": null
  },
  {
    "id": 72264,
    "name": "Nacajuca",
    "state_id": 3454,
    "state_code": "TAB",
    "country_id": 142,
    "country_code": "MX",
    "latitude": "18.16971000",
    "longitude": "-93.01843000",
    "wikiDataId": null
  },
  {
    "id": 72313,
    "name": "Netzahualcóyotl",
    "state_id": 3454,
    "state_code": "TAB",
    "country_id": 142,
    "country_code": "MX",
    "latitude": "17.71086000",
    "longitude": "-91.44322000",
    "wikiDataId": null
  },
  {
    "id": 72321,
    "name": "Nicolás Bravo",
    "state_id": 3454,
    "state_code": "TAB",
    "country_id": 142,
    "country_code": "MX",
    "latitude": "18.15504000",
    "longitude": "-93.08304000",
    "wikiDataId": null
  },
  {
    "id": 72326,
    "name": "Nicolás Bravo 5ta. Sección (Punta Brava)",
    "state_id": 3454,
    "state_code": "TAB",
    "country_id": 142,
    "country_code": "MX",
    "latitude": "18.27827000",
    "longitude": "-93.12872000",
    "wikiDataId": null
  },
  {
    "id": 72356,
    "name": "Norte 1ra. Sección (San Julián)",
    "state_id": 3454,
    "state_code": "TAB",
    "country_id": 142,
    "country_code": "MX",
    "latitude": "18.30139000",
    "longitude": "-93.20944000",
    "wikiDataId": null
  },
  {
    "id": 72363,
    "name": "Nueva División del Bayo (Guatemala)",
    "state_id": 3454,
    "state_code": "TAB",
    "country_id": 142,
    "country_code": "MX",
    "latitude": "17.84000000",
    "longitude": "-92.48889000",
    "wikiDataId": null
  },
  {
    "id": 72416,
    "name": "Nuevo Torno Largo",
    "state_id": 3454,
    "state_code": "TAB",
    "country_id": 142,
    "country_code": "MX",
    "latitude": "18.43228000",
    "longitude": "-93.16443000",
    "wikiDataId": null
  },
  {
    "id": 72443,
    "name": "Occidente (San Francisco)",
    "state_id": 3454,
    "state_code": "TAB",
    "country_id": 142,
    "country_code": "MX",
    "latitude": "18.33130000",
    "longitude": "-93.25238000",
    "wikiDataId": null
  },
  {
    "id": 72444,
    "name": "Occidente 4ta. Sección",
    "state_id": 3454,
    "state_code": "TAB",
    "country_id": 142,
    "country_code": "MX",
    "latitude": "18.30347000",
    "longitude": "-93.23388000",
    "wikiDataId": null
  },
  {
    "id": 72469,
    "name": "Ocuapan",
    "state_id": 3454,
    "state_code": "TAB",
    "country_id": 142,
    "country_code": "MX",
    "latitude": "17.85430000",
    "longitude": "-93.48978000",
    "wikiDataId": null
  },
  {
    "id": 72499,
    "name": "Olcuatitán",
    "state_id": 3454,
    "state_code": "TAB",
    "country_id": 142,
    "country_code": "MX",
    "latitude": "18.19045000",
    "longitude": "-92.96114000",
    "wikiDataId": null
  },
  {
    "id": 72521,
    "name": "Oriente 1ra. Sección",
    "state_id": 3454,
    "state_code": "TAB",
    "country_id": 142,
    "country_code": "MX",
    "latitude": "18.33889000",
    "longitude": "-93.20056000",
    "wikiDataId": null
  },
  {
    "id": 72522,
    "name": "Oriente 1ra. Sección (Santo Domingo)",
    "state_id": 3454,
    "state_code": "TAB",
    "country_id": 142,
    "country_code": "MX",
    "latitude": "18.26417000",
    "longitude": "-93.20306000",
    "wikiDataId": null
  },
  {
    "id": 72523,
    "name": "Oriente 2da. Sección (Palma Huaca)",
    "state_id": 3454,
    "state_code": "TAB",
    "country_id": 142,
    "country_code": "MX",
    "latitude": "18.32917000",
    "longitude": "-93.18528000",
    "wikiDataId": null
  },
  {
    "id": 72524,
    "name": "Oriente 2da. Sección (San Cayetano)",
    "state_id": 3454,
    "state_code": "TAB",
    "country_id": 142,
    "country_code": "MX",
    "latitude": "18.18667000",
    "longitude": "-93.22944000",
    "wikiDataId": null
  },
  {
    "id": 72525,
    "name": "Oriente 6ta. Sección (Los Mulatos)",
    "state_id": 3454,
    "state_code": "TAB",
    "country_id": 142,
    "country_code": "MX",
    "latitude": "18.16722000",
    "longitude": "-93.23583000",
    "wikiDataId": null
  },
  {
    "id": 72549,
    "name": "Oxiacaque",
    "state_id": 3454,
    "state_code": "TAB",
    "country_id": 142,
    "country_code": "MX",
    "latitude": "18.21386000",
    "longitude": "-92.94674000",
    "wikiDataId": null
  },
  {
    "id": 72553,
    "name": "Oxolotán",
    "state_id": 3454,
    "state_code": "TAB",
    "country_id": 142,
    "country_code": "MX",
    "latitude": "17.37947000",
    "longitude": "-92.74933000",
    "wikiDataId": null
  },
  {
    "id": 72565,
    "name": "Pablo L. Sidar",
    "state_id": 3454,
    "state_code": "TAB",
    "country_id": 142,
    "country_code": "MX",
    "latitude": "17.90028000",
    "longitude": "-93.02917000",
    "wikiDataId": null
  },
  {
    "id": 72610,
    "name": "Palo Mulato",
    "state_id": 3454,
    "state_code": "TAB",
    "country_id": 142,
    "country_code": "MX",
    "latitude": "18.02035000",
    "longitude": "-93.76943000",
    "wikiDataId": null
  },
  {
    "id": 72614,
    "name": "Palomas",
    "state_id": 3454,
    "state_code": "TAB",
    "country_id": 142,
    "country_code": "MX",
    "latitude": "17.65466000",
    "longitude": "-92.47800000",
    "wikiDataId": null
  },
  {
    "id": 72642,
    "name": "Paraiso",
    "state_id": 3454,
    "state_code": "TAB",
    "country_id": 142,
    "country_code": "MX",
    "latitude": "18.40116000",
    "longitude": "-93.21406000",
    "wikiDataId": null
  },
  {
    "id": 72656,
    "name": "Parilla",
    "state_id": 3454,
    "state_code": "TAB",
    "country_id": 142,
    "country_code": "MX",
    "latitude": "17.91552000",
    "longitude": "-92.91612000",
    "wikiDataId": null
  },
  {
    "id": 72662,
    "name": "Parrilla II",
    "state_id": 3454,
    "state_code": "TAB",
    "country_id": 142,
    "country_code": "MX",
    "latitude": "17.87900000",
    "longitude": "-92.92235000",
    "wikiDataId": null
  },
  {
    "id": 72694,
    "name": "Paso de la Mina 2da. Sección (Barrial)",
    "state_id": 3454,
    "state_code": "TAB",
    "country_id": 142,
    "country_code": "MX",
    "latitude": "17.95278000",
    "longitude": "-93.69083000",
    "wikiDataId": null
  },
  {
    "id": 72695,
    "name": "Paso de la Mina 3ra. Sección",
    "state_id": 3454,
    "state_code": "TAB",
    "country_id": 142,
    "country_code": "MX",
    "latitude": "17.96335000",
    "longitude": "-93.66582000",
    "wikiDataId": null
  },
  {
    "id": 72718,
    "name": "Pechucalco",
    "state_id": 3454,
    "state_code": "TAB",
    "country_id": 142,
    "country_code": "MX",
    "latitude": "18.09361000",
    "longitude": "-93.16611000",
    "wikiDataId": null
  },
  {
    "id": 72719,
    "name": "Pechucalco 2da. Sección (Las Cruces)",
    "state_id": 3454,
    "state_code": "TAB",
    "country_id": 142,
    "country_code": "MX",
    "latitude": "18.12694000",
    "longitude": "-93.19056000",
    "wikiDataId": null
  },
  {
    "id": 72726,
    "name": "Pejelagartero 1ra. Sección (Plataforma)",
    "state_id": 3454,
    "state_code": "TAB",
    "country_id": 142,
    "country_code": "MX",
    "latitude": "18.05500000",
    "longitude": "-93.82472000",
    "wikiDataId": null
  },
  {
    "id": 73012,
    "name": "Pénjamo",
    "state_id": 3454,
    "state_code": "TAB",
    "country_id": 142,
    "country_code": "MX",
    "latitude": "18.43444000",
    "longitude": "-93.09306000",
    "wikiDataId": null
  },
  {
    "id": 72816,
    "name": "Playas del Rosario",
    "state_id": 3454,
    "state_code": "TAB",
    "country_id": 142,
    "country_code": "MX",
    "latitude": "17.85308000",
    "longitude": "-92.93219000",
    "wikiDataId": null
  },
  {
    "id": 72821,
    "name": "Poblado C-11 José María Morelos y Pavón",
    "state_id": 3454,
    "state_code": "TAB",
    "country_id": 142,
    "country_code": "MX",
    "latitude": "18.17419000",
    "longitude": "-93.62356000",
    "wikiDataId": null
  },
  {
    "id": 72822,
    "name": "Poblado C-21 Licenciado Benito Juárez García",
    "state_id": 3454,
    "state_code": "TAB",
    "country_id": 142,
    "country_code": "MX",
    "latitude": "18.06778000",
    "longitude": "-93.56139000",
    "wikiDataId": null
  },
  {
    "id": 72823,
    "name": "Poblado C-33 20 de Noviembre",
    "state_id": 3454,
    "state_code": "TAB",
    "country_id": 142,
    "country_code": "MX",
    "latitude": "17.96750000",
    "longitude": "-93.56500000",
    "wikiDataId": null
  },
  {
    "id": 72845,
    "name": "Pomoca",
    "state_id": 3454,
    "state_code": "TAB",
    "country_id": 142,
    "country_code": "MX",
    "latitude": "18.04972000",
    "longitude": "-92.93056000",
    "wikiDataId": null
  },
  {
    "id": 72862,
    "name": "Potrerillo",
    "state_id": 3454,
    "state_code": "TAB",
    "country_id": 142,
    "country_code": "MX",
    "latitude": "18.25472000",
    "longitude": "-93.13472000",
    "wikiDataId": null
  },
  {
    "id": 72946,
    "name": "Pueblo Nuevo de las Raíces",
    "state_id": 3454,
    "state_code": "TAB",
    "country_id": 142,
    "country_code": "MX",
    "latitude": "17.84572000",
    "longitude": "-92.87930000",
    "wikiDataId": null
  },
  {
    "id": 72947,
    "name": "Pueblo Viejo",
    "state_id": 3454,
    "state_code": "TAB",
    "country_id": 142,
    "country_code": "MX",
    "latitude": "18.19990000",
    "longitude": "-93.08546000",
    "wikiDataId": null
  },
  {
    "id": 72967,
    "name": "Puerto Ceiba",
    "state_id": 3454,
    "state_code": "TAB",
    "country_id": 142,
    "country_code": "MX",
    "latitude": "18.41081000",
    "longitude": "-93.17890000",
    "wikiDataId": null
  },
  {
    "id": 73004,
    "name": "Puxcatán",
    "state_id": 3454,
    "state_code": "TAB",
    "country_id": 142,
    "country_code": "MX",
    "latitude": "17.45083000",
    "longitude": "-92.68712000",
    "wikiDataId": null
  },
  {
    "id": 73040,
    "name": "Quintín Arauz",
    "state_id": 3454,
    "state_code": "TAB",
    "country_id": 142,
    "country_code": "MX",
    "latitude": "18.37275000",
    "longitude": "-93.21879000",
    "wikiDataId": null
  },
  {
    "id": 73062,
    "name": "Rancho Nuevo",
    "state_id": 3454,
    "state_code": "TAB",
    "country_id": 142,
    "country_code": "MX",
    "latitude": "18.07201000",
    "longitude": "-93.07252000",
    "wikiDataId": null
  },
  {
    "id": 73083,
    "name": "Raya Zaragoza",
    "state_id": 3454,
    "state_code": "TAB",
    "country_id": 142,
    "country_code": "MX",
    "latitude": "17.40595000",
    "longitude": "-92.68519000",
    "wikiDataId": null
  },
  {
    "id": 73093,
    "name": "Reforma",
    "state_id": 3454,
    "state_code": "TAB",
    "country_id": 142,
    "country_code": "MX",
    "latitude": "18.21398000",
    "longitude": "-93.34291000",
    "wikiDataId": null
  },
  {
    "id": 73187,
    "name": "Río de Teapa",
    "state_id": 3454,
    "state_code": "TAB",
    "country_id": 142,
    "country_code": "MX",
    "latitude": "17.78342000",
    "longitude": "-92.90033000",
    "wikiDataId": null
  },
  {
    "id": 73183,
    "name": "Río Seco 2da. Sección (Santiaguito)",
    "state_id": 3454,
    "state_code": "TAB",
    "country_id": 142,
    "country_code": "MX",
    "latitude": "18.13750000",
    "longitude": "-93.27583000",
    "wikiDataId": null
  },
  {
    "id": 73186,
    "name": "Río Viejo Primera Sección",
    "state_id": 3454,
    "state_code": "TAB",
    "country_id": 142,
    "country_code": "MX",
    "latitude": "17.93913000",
    "longitude": "-92.98022000",
    "wikiDataId": null
  },
  {
    "id": 73221,
    "name": "Saloya 2da. Sección",
    "state_id": 3454,
    "state_code": "TAB",
    "country_id": 142,
    "country_code": "MX",
    "latitude": "18.05306000",
    "longitude": "-92.93639000",
    "wikiDataId": null
  },
  {
    "id": 73235,
    "name": "Samarkanda",
    "state_id": 3454,
    "state_code": "TAB",
    "country_id": 142,
    "country_code": "MX",
    "latitude": "18.04216000",
    "longitude": "-92.91050000",
    "wikiDataId": null
  },
  {
    "id": 73456,
    "name": "San Carlos",
    "state_id": 3454,
    "state_code": "TAB",
    "country_id": 142,
    "country_code": "MX",
    "latitude": "17.55221000",
    "longitude": "-91.15408000",
    "wikiDataId": null
  },
  {
    "id": 74482,
    "name": "San Simón",
    "state_id": 3454,
    "state_code": "TAB",
    "country_id": 142,
    "country_code": "MX",
    "latitude": "18.23687000",
    "longitude": "-93.03416000",
    "wikiDataId": null
  },
  {
    "id": 74854,
    "name": "Santa Rosalía",
    "state_id": 3454,
    "state_code": "TAB",
    "country_id": 142,
    "country_code": "MX",
    "latitude": "18.08851000",
    "longitude": "-93.35806000",
    "wikiDataId": null
  },
  {
    "id": 74864,
    "name": "Santana 2da. Sección B (La Palma)",
    "state_id": 3454,
    "state_code": "TAB",
    "country_id": 142,
    "country_code": "MX",
    "latitude": "18.17505000",
    "longitude": "-93.43180000",
    "wikiDataId": null
  },
  {
    "id": 75041,
    "name": "Sargento López 2da. Sección (El Chuzo)",
    "state_id": 3454,
    "state_code": "TAB",
    "country_id": 142,
    "country_code": "MX",
    "latitude": "18.19953000",
    "longitude": "-93.29235000",
    "wikiDataId": null
  },
  {
    "id": 75086,
    "name": "Simón Sarlat",
    "state_id": 3454,
    "state_code": "TAB",
    "country_id": 142,
    "country_code": "MX",
    "latitude": "18.34447000",
    "longitude": "-92.80811000",
    "wikiDataId": null
  },
  {
    "id": 75132,
    "name": "Soyataco",
    "state_id": 3454,
    "state_code": "TAB",
    "country_id": 142,
    "country_code": "MX",
    "latitude": "18.20995000",
    "longitude": "-93.07430000",
    "wikiDataId": null
  },
  {
    "id": 75160,
    "name": "Tacotalpa",
    "state_id": 3454,
    "state_code": "TAB",
    "country_id": 142,
    "country_code": "MX",
    "latitude": "17.59638000",
    "longitude": "-92.82596000",
    "wikiDataId": null
  },
  {
    "id": 75194,
    "name": "Tamulte de las Sabanas",
    "state_id": 3454,
    "state_code": "TAB",
    "country_id": 142,
    "country_code": "MX",
    "latitude": "18.16168000",
    "longitude": "-92.78354000",
    "wikiDataId": null
  },
  {
    "id": 75226,
    "name": "Tapijulapa",
    "state_id": 3454,
    "state_code": "TAB",
    "country_id": 142,
    "country_code": "MX",
    "latitude": "17.46208000",
    "longitude": "-92.77908000",
    "wikiDataId": null
  },
  {
    "id": 75228,
    "name": "Tapotzingo",
    "state_id": 3454,
    "state_code": "TAB",
    "country_id": 142,
    "country_code": "MX",
    "latitude": "18.20443000",
    "longitude": "-93.01421000",
    "wikiDataId": null
  },
  {
    "id": 75245,
    "name": "Taxco",
    "state_id": 3454,
    "state_code": "TAB",
    "country_id": 142,
    "country_code": "MX",
    "latitude": "18.13917000",
    "longitude": "-93.00528000",
    "wikiDataId": null
  },
  {
    "id": 75256,
    "name": "Teapa",
    "state_id": 3454,
    "state_code": "TAB",
    "country_id": 142,
    "country_code": "MX",
    "latitude": "17.54970000",
    "longitude": "-92.95211000",
    "wikiDataId": null
  },
  {
    "id": 75278,
    "name": "Tecoluta 2da. Sección",
    "state_id": 3454,
    "state_code": "TAB",
    "country_id": 142,
    "country_code": "MX",
    "latitude": "18.24408000",
    "longitude": "-93.01956000",
    "wikiDataId": null
  },
  {
    "id": 75284,
    "name": "Tecominoacán",
    "state_id": 3454,
    "state_code": "TAB",
    "country_id": 142,
    "country_code": "MX",
    "latitude": "17.92122000",
    "longitude": "-93.56318000",
    "wikiDataId": null
  },
  {
    "id": 75370,
    "name": "Tenosique",
    "state_id": 3454,
    "state_code": "TAB",
    "country_id": 142,
    "country_code": "MX",
    "latitude": "17.47290000",
    "longitude": "-91.42360000",
    "wikiDataId": null
  },
  {
    "id": 75421,
    "name": "Tepetitán",
    "state_id": 3454,
    "state_code": "TAB",
    "country_id": 142,
    "country_code": "MX",
    "latitude": "17.81987000",
    "longitude": "-92.37269000",
    "wikiDataId": null
  },
  {
    "id": 75460,
    "name": "Tequila 1ra. Sección (La Aurora)",
    "state_id": 3454,
    "state_code": "TAB",
    "country_id": 142,
    "country_code": "MX",
    "latitude": "17.88000000",
    "longitude": "-92.72306000",
    "wikiDataId": null
  },
  {
    "id": 75766,
    "name": "Transito Tular",
    "state_id": 3454,
    "state_code": "TAB",
    "country_id": 142,
    "country_code": "MX",
    "latitude": "18.33849000",
    "longitude": "-93.40283000",
    "wikiDataId": null
  },
  {
    "id": 75770,
    "name": "Tres Bocas 1ra. Sección",
    "state_id": 3454,
    "state_code": "TAB",
    "country_id": 142,
    "country_code": "MX",
    "latitude": "17.93231000",
    "longitude": "-93.87444000",
    "wikiDataId": null
  },
  {
    "id": 75787,
    "name": "Tucta",
    "state_id": 3454,
    "state_code": "TAB",
    "country_id": 142,
    "country_code": "MX",
    "latitude": "18.19346000",
    "longitude": "-92.99535000",
    "wikiDataId": null
  },
  {
    "id": 75944,
    "name": "Veinte de Noviembre",
    "state_id": 3454,
    "state_code": "TAB",
    "country_id": 142,
    "country_code": "MX",
    "latitude": "17.84699000",
    "longitude": "-92.58910000",
    "wikiDataId": null
  },
  {
    "id": 75971,
    "name": "Vicente Guerrero",
    "state_id": 3454,
    "state_code": "TAB",
    "country_id": 142,
    "country_code": "MX",
    "latitude": "17.51323000",
    "longitude": "-92.92236000",
    "wikiDataId": null
  },
  {
    "id": 75990,
    "name": "Villa Aldama",
    "state_id": 3454,
    "state_code": "TAB",
    "country_id": 142,
    "country_code": "MX",
    "latitude": "18.24088000",
    "longitude": "-93.35068000",
    "wikiDataId": null
  },
  {
    "id": 76075,
    "name": "Villa la Venta",
    "state_id": 3454,
    "state_code": "TAB",
    "country_id": 142,
    "country_code": "MX",
    "latitude": "18.09863000",
    "longitude": "-94.04593000",
    "wikiDataId": null
  },
  {
    "id": 76046,
    "name": "Villa Tecolutilla",
    "state_id": 3454,
    "state_code": "TAB",
    "country_id": 142,
    "country_code": "MX",
    "latitude": "18.28338000",
    "longitude": "-93.33398000",
    "wikiDataId": null
  },
  {
    "id": 76054,
    "name": "Villa Vicente Guerrero",
    "state_id": 3454,
    "state_code": "TAB",
    "country_id": 142,
    "country_code": "MX",
    "latitude": "18.39007000",
    "longitude": "-92.89607000",
    "wikiDataId": null
  },
  {
    "id": 76080,
    "name": "Villahermosa",
    "state_id": 3454,
    "state_code": "TAB",
    "country_id": 142,
    "country_code": "MX",
    "latitude": "17.98689000",
    "longitude": "-92.93028000",
    "wikiDataId": null
  },
  {
    "id": 76142,
    "name": "Xicoténcatl",
    "state_id": 3454,
    "state_code": "TAB",
    "country_id": 142,
    "country_code": "MX",
    "latitude": "17.51833000",
    "longitude": "-92.70474000",
    "wikiDataId": null
  }
]