[
  {
    "id": 130635,
    "name": "Ấp Tân Ngãi",
    "state_id": 3790,
    "state_code": "49",
    "country_id": 240,
    "country_code": "VN",
    "latitude": "10.23333000",
    "longitude": "106.28333000",
    "wikiDataId": null
  },
  {
    "id": 130180,
    "name": "Bến Tre",
    "state_id": 3790,
    "state_code": "49",
    "country_id": 240,
    "country_code": "VN",
    "latitude": "10.24147000",
    "longitude": "106.37585000",
    "wikiDataId": null
  },
  {
    "id": 130215,
    "name": "Huyện Ba Tri",
    "state_id": 3790,
    "state_code": "49",
    "country_id": 240,
    "country_code": "VN",
    "latitude": "10.06627000",
    "longitude": "106.60554000",
    "wikiDataId": null
  },
  {
    "id": 130226,
    "name": "Huyện Bình Đại",
    "state_id": 3790,
    "state_code": "49",
    "country_id": 240,
    "country_code": "VN",
    "latitude": "10.19354000",
    "longitude": "106.64455000",
    "wikiDataId": null
  },
  {
    "id": 130265,
    "name": "Huyện Càng Long",
    "state_id": 3790,
    "state_code": "49",
    "country_id": 240,
    "country_code": "VN",
    "latitude": "9.95883000",
    "longitude": "106.21395000",
    "wikiDataId": null
  },
  {
    "id": 130272,
    "name": "Huyện Cầu Kè",
    "state_id": 3790,
    "state_code": "49",
    "country_id": 240,
    "country_code": "VN",
    "latitude": "9.86738000",
    "longitude": "106.07916000",
    "wikiDataId": null
  },
  {
    "id": 130273,
    "name": "Huyện Cầu Ngang",
    "state_id": 3790,
    "state_code": "49",
    "country_id": 240,
    "country_code": "VN",
    "latitude": "9.77186000",
    "longitude": "106.43654000",
    "wikiDataId": null
  },
  {
    "id": 130250,
    "name": "Huyện Châu Thành",
    "state_id": 3790,
    "state_code": "49",
    "country_id": 240,
    "country_code": "VN",
    "latitude": "10.29212000",
    "longitude": "106.30827000",
    "wikiDataId": null
  },
  {
    "id": 130261,
    "name": "Huyện Chợ Lách",
    "state_id": 3790,
    "state_code": "49",
    "country_id": 240,
    "country_code": "VN",
    "latitude": "10.22674000",
    "longitude": "106.17077000",
    "wikiDataId": null
  },
  {
    "id": 130291,
    "name": "Huyện Giồng Trôm",
    "state_id": 3790,
    "state_code": "49",
    "country_id": 240,
    "country_code": "VN",
    "latitude": "10.15909000",
    "longitude": "106.47004000",
    "wikiDataId": null
  },
  {
    "id": 130342,
    "name": "Huyện Long Hồ",
    "state_id": 3790,
    "state_code": "49",
    "country_id": 240,
    "country_code": "VN",
    "latitude": "10.21640000",
    "longitude": "105.98483000",
    "wikiDataId": null
  },
  {
    "id": 130357,
    "name": "Huyện Mang Thít",
    "state_id": 3790,
    "state_code": "49",
    "country_id": 240,
    "country_code": "VN",
    "latitude": "10.18731000",
    "longitude": "106.07472000",
    "wikiDataId": null
  },
  {
    "id": 130428,
    "name": "Huyện Tam Bình",
    "state_id": 3790,
    "state_code": "49",
    "country_id": 240,
    "country_code": "VN",
    "latitude": "10.08127000",
    "longitude": "105.95352000",
    "wikiDataId": null
  },
  {
    "id": 130449,
    "name": "Huyện Thạnh Phú",
    "state_id": 3790,
    "state_code": "49",
    "country_id": 240,
    "country_code": "VN",
    "latitude": "9.92993000",
    "longitude": "106.54316000",
    "wikiDataId": null
  },
  {
    "id": 130460,
    "name": "Huyện Tiểu Cần",
    "state_id": 3790,
    "state_code": "49",
    "country_id": 240,
    "country_code": "VN",
    "latitude": "9.80350000",
    "longitude": "106.20594000",
    "wikiDataId": null
  },
  {
    "id": 130465,
    "name": "Huyện Trà Cú",
    "state_id": 3790,
    "state_code": "49",
    "country_id": 240,
    "country_code": "VN",
    "latitude": "9.69706000",
    "longitude": "106.29423000",
    "wikiDataId": null
  },
  {
    "id": 130468,
    "name": "Huyện Trà Ôn",
    "state_id": 3790,
    "state_code": "49",
    "country_id": 240,
    "country_code": "VN",
    "latitude": "9.97522000",
    "longitude": "106.00957000",
    "wikiDataId": null
  },
  {
    "id": 130505,
    "name": "Huyện Vũng Liêm",
    "state_id": 3790,
    "state_code": "49",
    "country_id": 240,
    "country_code": "VN",
    "latitude": "10.08717000",
    "longitude": "106.16038000",
    "wikiDataId": null
  },
  {
    "id": 130617,
    "name": "Trà Vinh",
    "state_id": 3790,
    "state_code": "49",
    "country_id": 240,
    "country_code": "VN",
    "latitude": "9.94719000",
    "longitude": "106.34225000",
    "wikiDataId": null
  },
  {
    "id": 130624,
    "name": "Vĩnh Long",
    "state_id": 3790,
    "state_code": "49",
    "country_id": 240,
    "country_code": "VN",
    "latitude": "10.25369000",
    "longitude": "105.97220000",
    "wikiDataId": null
  }
]