[
  {
    "id": 104946,
    "name": "Al Ghanţū",
    "state_id": 2942,
    "state_code": "HI",
    "country_id": 215,
    "country_code": "SY",
    "latitude": "34.82202000",
    "longitude": "36.69613000",
    "wikiDataId": null
  },
  {
    "id": 104951,
    "name": "Al Qaryatayn",
    "state_id": 2942,
    "state_code": "HI",
    "country_id": 215,
    "country_code": "SY",
    "latitude": "34.22956000",
    "longitude": "37.24066000",
    "wikiDataId": null
  },
  {
    "id": 104953,
    "name": "Al Quşayr",
    "state_id": 2942,
    "state_code": "HI",
    "country_id": 215,
    "country_code": "SY",
    "latitude": "34.50780000",
    "longitude": "36.58029000",
    "wikiDataId": null
  },
  {
    "id": 104961,
    "name": "Al-Rastan District",
    "state_id": 2942,
    "state_code": "HI",
    "country_id": 215,
    "country_code": "SY",
    "latitude": "34.87100000",
    "longitude": "36.77245000",
    "wikiDataId": null
  },
  {
    "id": 104970,
    "name": "Ar Rastan",
    "state_id": 2942,
    "state_code": "HI",
    "country_id": 215,
    "country_code": "SY",
    "latitude": "34.92667000",
    "longitude": "36.73241000",
    "wikiDataId": null
  },
  {
    "id": 105000,
    "name": "Hisya",
    "state_id": 2942,
    "state_code": "HI",
    "country_id": 215,
    "country_code": "SY",
    "latitude": "34.41197000",
    "longitude": "36.75867000",
    "wikiDataId": null
  },
  {
    "id": 105001,
    "name": "Homs",
    "state_id": 2942,
    "state_code": "HI",
    "country_id": 215,
    "country_code": "SY",
    "latitude": "34.72682000",
    "longitude": "36.72339000",
    "wikiDataId": null
  },
  {
    "id": 105016,
    "name": "Kafr Lāhā",
    "state_id": 2942,
    "state_code": "HI",
    "country_id": 215,
    "country_code": "SY",
    "latitude": "34.89469000",
    "longitude": "36.49582000",
    "wikiDataId": null
  },
  {
    "id": 105035,
    "name": "Mukharram al Fawqānī",
    "state_id": 2942,
    "state_code": "HI",
    "country_id": 215,
    "country_code": "SY",
    "latitude": "34.81521000",
    "longitude": "37.08677000",
    "wikiDataId": null
  },
  {
    "id": 105067,
    "name": "Şadad",
    "state_id": 2942,
    "state_code": "HI",
    "country_id": 215,
    "country_code": "SY",
    "latitude": "34.31248000",
    "longitude": "36.92562000",
    "wikiDataId": null
  },
  {
    "id": 105052,
    "name": "Tadmur",
    "state_id": 2942,
    "state_code": "HI",
    "country_id": 215,
    "country_code": "SY",
    "latitude": "34.56240000",
    "longitude": "38.28402000",
    "wikiDataId": null
  },
  {
    "id": 105053,
    "name": "Tadmur District",
    "state_id": 2942,
    "state_code": "HI",
    "country_id": 215,
    "country_code": "SY",
    "latitude": "34.42401000",
    "longitude": "38.64580000",
    "wikiDataId": null
  },
  {
    "id": 105058,
    "name": "Tallbīsah",
    "state_id": 2942,
    "state_code": "HI",
    "country_id": 215,
    "country_code": "SY",
    "latitude": "34.84072000",
    "longitude": "36.73092000",
    "wikiDataId": null
  },
  {
    "id": 105059,
    "name": "Tallkalakh",
    "state_id": 2942,
    "state_code": "HI",
    "country_id": 215,
    "country_code": "SY",
    "latitude": "34.66842000",
    "longitude": "36.25995000",
    "wikiDataId": null
  }
]