[
  {
    "id": 48204,
    "name": "Albrighton",
    "state_id": 2489,
    "state_code": "WLV",
    "country_id": 232,
    "country_code": "GB",
    "latitude": "52.63640000",
    "longitude": "-2.27966000",
    "wikiDataId": null
  },
  {
    "id": 48236,
    "name": "Alveley",
    "state_id": 2489,
    "state_code": "WLV",
    "country_id": 232,
    "country_code": "GB",
    "latitude": "52.45709000",
    "longitude": "-2.35434000",
    "wikiDataId": null
  },
  {
    "id": 48512,
    "name": "Bilston",
    "state_id": 2489,
    "state_code": "WLV",
    "country_id": 232,
    "country_code": "GB",
    "latitude": "52.56568000",
    "longitude": "-2.07367000",
    "wikiDataId": null
  },
  {
    "id": 48678,
    "name": "Brewood",
    "state_id": 2489,
    "state_code": "WLV",
    "country_id": 232,
    "country_code": "GB",
    "latitude": "52.67712000",
    "longitude": "-2.17414000",
    "wikiDataId": null
  },
  {
    "id": 48685,
    "name": "Bridgnorth",
    "state_id": 2489,
    "state_code": "WLV",
    "country_id": 232,
    "country_code": "GB",
    "latitude": "52.53661000",
    "longitude": "-2.42033000",
    "wikiDataId": null
  },
  {
    "id": 49056,
    "name": "Codsall",
    "state_id": 2489,
    "state_code": "WLV",
    "country_id": 232,
    "country_code": "GB",
    "latitude": "52.62989000",
    "longitude": "-2.20148000",
    "wikiDataId": null
  },
  {
    "id": 49126,
    "name": "Coven",
    "state_id": 2489,
    "state_code": "WLV",
    "country_id": 232,
    "country_code": "GB",
    "latitude": "52.65587000",
    "longitude": "-2.13530000",
    "wikiDataId": null
  },
  {
    "id": 49487,
    "name": "Essington",
    "state_id": 2489,
    "state_code": "WLV",
    "country_id": 232,
    "country_code": "GB",
    "latitude": "52.62910000",
    "longitude": "-2.05770000",
    "wikiDataId": null
  },
  {
    "id": 49537,
    "name": "Featherstone",
    "state_id": 2489,
    "state_code": "WLV",
    "country_id": 232,
    "country_code": "GB",
    "latitude": "52.64483000",
    "longitude": "-2.09315000",
    "wikiDataId": null
  },
  {
    "id": 49937,
    "name": "Highley",
    "state_id": 2489,
    "state_code": "WLV",
    "country_id": 232,
    "country_code": "GB",
    "latitude": "52.44866000",
    "longitude": "-2.38251000",
    "wikiDataId": null
  },
  {
    "id": 50182,
    "name": "Kingswinford",
    "state_id": 2489,
    "state_code": "WLV",
    "country_id": 232,
    "country_code": "GB",
    "latitude": "52.49755000",
    "longitude": "-2.16889000",
    "wikiDataId": null
  },
  {
    "id": 50861,
    "name": "Pattingham",
    "state_id": 2489,
    "state_code": "WLV",
    "country_id": 232,
    "country_code": "GB",
    "latitude": "52.58910000",
    "longitude": "-2.26538000",
    "wikiDataId": null
  },
  {
    "id": 51157,
    "name": "Ryton",
    "state_id": 2489,
    "state_code": "WLV",
    "country_id": 232,
    "country_code": "GB",
    "latitude": "52.61667000",
    "longitude": "-2.35000000",
    "wikiDataId": null
  },
  {
    "id": 51782,
    "name": "Wednesfield",
    "state_id": 2489,
    "state_code": "WLV",
    "country_id": 232,
    "country_code": "GB",
    "latitude": "52.59630000",
    "longitude": "-2.08508000",
    "wikiDataId": null
  },
  {
    "id": 51862,
    "name": "Wheaton Aston",
    "state_id": 2489,
    "state_code": "WLV",
    "country_id": 232,
    "country_code": "GB",
    "latitude": "52.71145000",
    "longitude": "-2.22064000",
    "wikiDataId": null
  },
  {
    "id": 51906,
    "name": "Willenhall",
    "state_id": 2489,
    "state_code": "WLV",
    "country_id": 232,
    "country_code": "GB",
    "latitude": "52.58514000",
    "longitude": "-2.05934000",
    "wikiDataId": null
  },
  {
    "id": 51964,
    "name": "Wolverhampton",
    "state_id": 2489,
    "state_code": "WLV",
    "country_id": 232,
    "country_code": "GB",
    "latitude": "52.58333000",
    "longitude": "-2.11667000",
    "wikiDataId": null
  },
  {
    "id": 51965,
    "name": "Wombourn",
    "state_id": 2489,
    "state_code": "WLV",
    "country_id": 232,
    "country_code": "GB",
    "latitude": "52.53333000",
    "longitude": "-2.18333000",
    "wikiDataId": null
  }
]