[
  {
    "id": 48339,
    "name": "Bakewell",
    "state_id": 2485,
    "state_code": "DER",
    "country_id": 232,
    "country_code": "GB",
    "latitude": "53.21338000",
    "longitude": "-1.67481000",
    "wikiDataId": null
  },
  {
    "id": 48422,
    "name": "Baslow",
    "state_id": 2485,
    "state_code": "DER",
    "country_id": 232,
    "country_code": "GB",
    "latitude": "53.24811000",
    "longitude": "-1.62246000",
    "wikiDataId": null
  },
  {
    "id": 48958,
    "name": "Chesterfield",
    "state_id": 2485,
    "state_code": "DER",
    "country_id": 232,
    "country_code": "GB",
    "latitude": "53.25000000",
    "longitude": "-1.41667000",
    "wikiDataId": null
  },
  {
    "id": 49270,
    "name": "Derbyshire",
    "state_id": 2485,
    "state_code": "DER",
    "country_id": 232,
    "country_code": "GB",
    "latitude": "53.16667000",
    "longitude": "-1.58333000",
    "wikiDataId": null
  },
  {
    "id": 51621,
    "name": "Tideswell",
    "state_id": 2485,
    "state_code": "DER",
    "country_id": 232,
    "country_code": "GB",
    "latitude": "53.27807000",
    "longitude": "-1.77292000",
    "wikiDataId": null
  },
  {
    "id": 51740,
    "name": "Walton",
    "state_id": 2485,
    "state_code": "DER",
    "country_id": 232,
    "country_code": "GB",
    "latitude": "53.22284000",
    "longitude": "-1.46084000",
    "wikiDataId": null
  },
  {
    "id": 51930,
    "name": "Wingerworth",
    "state_id": 2485,
    "state_code": "DER",
    "country_id": 232,
    "country_code": "GB",
    "latitude": "53.20200000",
    "longitude": "-1.43359000",
    "wikiDataId": null
  },
  {
    "id": 52025,
    "name": "Youlgreave",
    "state_id": 2485,
    "state_code": "DER",
    "country_id": 232,
    "country_code": "GB",
    "latitude": "53.17399000",
    "longitude": "-1.69044000",
    "wikiDataId": null
  }
]