[
  {
    "id": 64979,
    "name": "Siem Reap",
    "state_id": 3992,
    "state_code": "17",
    "country_id": 37,
    "country_code": "KH",
    "latitude": "13.36179000",
    "longitude": "103.86056000",
    "wikiDataId": null
  },
  {
    "id": 65031,
    "name": "Srŏk Ângkôr Thum",
    "state_id": 3992,
    "state_code": "17",
    "country_id": 37,
    "country_code": "KH",
    "latitude": "13.57881000",
    "longitude": "103.85645000",
    "wikiDataId": null
  },
  {
    "id": 65015,
    "name": "Srŏk Prasat Bakong",
    "state_id": 3992,
    "state_code": "17",
    "country_id": 37,
    "country_code": "KH",
    "latitude": "13.21031000",
    "longitude": "103.97689000",
    "wikiDataId": null
  },
  {
    "id": 65035,
    "name": "Svay Leu",
    "state_id": 3992,
    "state_code": "17",
    "country_id": 37,
    "country_code": "KH",
    "latitude": "13.69168000",
    "longitude": "104.27446000",
    "wikiDataId": null
  },
  {
    "id": 65040,
    "name": "Varin",
    "state_id": 3992,
    "state_code": "17",
    "country_id": 37,
    "country_code": "KH",
    "latitude": "13.83574000",
    "longitude": "103.89968000",
    "wikiDataId": null
  }
]