[
  {
    "id": 144333,
    "name": "Alamada",
    "state_id": 1320,
    "state_code": "NCO",
    "country_id": 174,
    "country_code": "PH",
    "latitude": "7.50842730",
    "longitude": "124.40036580",
    "wikiDataId": null
  },
  {
    "id": 154519,
    "name": "Aleosan",
    "state_id": 1320,
    "state_code": "NCO",
    "country_id": 174,
    "country_code": "PH",
    "latitude": "7.18182870",
    "longitude": "124.54811680",
    "wikiDataId": null
  },
  {
    "id": 154520,
    "name": "Antipas",
    "state_id": 1320,
    "state_code": "NCO",
    "country_id": 174,
    "country_code": "PH",
    "latitude": "7.25961410",
    "longitude": "124.98825380",
    "wikiDataId": null
  },
  {
    "id": 154521,
    "name": "Arakan",
    "state_id": 1320,
    "state_code": "NCO",
    "country_id": 174,
    "country_code": "PH",
    "latitude": "7.40489330",
    "longitude": "125.00173860",
    "wikiDataId": null
  },
  {
    "id": 144343,
    "name": "Banisilan",
    "state_id": 1320,
    "state_code": "NCO",
    "country_id": 174,
    "country_code": "PH",
    "latitude": "7.47797160",
    "longitude": "124.56552550",
    "wikiDataId": null
  },
  {
    "id": 144916,
    "name": "Carmen",
    "state_id": 1320,
    "state_code": "NCO",
    "country_id": 174,
    "country_code": "PH",
    "latitude": "7.32422590",
    "longitude": "124.62549700",
    "wikiDataId": null
  },
  {
    "id": 143954,
    "name": "Kabacan",
    "state_id": 1320,
    "state_code": "NCO",
    "country_id": 174,
    "country_code": "PH",
    "latitude": "7.12956940",
    "longitude": "124.72121310",
    "wikiDataId": null
  },
  {
    "id": 154522,
    "name": "Kadayangan",
    "state_id": 1320,
    "state_code": "NCO",
    "country_id": 174,
    "country_code": "PH",
    "latitude": "7.12602690",
    "longitude": "124.47581990",
    "wikiDataId": null
  },
  {
    "id": 154523,
    "name": "Kapalawan",
    "state_id": 1320,
    "state_code": "NCO",
    "country_id": 174,
    "country_code": "PH",
    "latitude": "7.24369440",
    "longitude": "124.80060720",
    "wikiDataId": null
  },
  {
    "id": 143966,
    "name": "Kidapawan",
    "state_id": 1320,
    "state_code": "NCO",
    "country_id": 174,
    "country_code": "PH",
    "latitude": "7.04357670",
    "longitude": "124.93376070",
    "wikiDataId": null
  },
  {
    "id": 143990,
    "name": "Libungan",
    "state_id": 1320,
    "state_code": "NCO",
    "country_id": 174,
    "country_code": "PH",
    "latitude": "7.33888800",
    "longitude": "124.47543430",
    "wikiDataId": null
  },
  {
    "id": 154524,
    "name": "Ligawasan",
    "state_id": 1320,
    "state_code": "NCO",
    "country_id": 174,
    "country_code": "PH",
    "latitude": "6.93459860",
    "longitude": "124.53687960",
    "wikiDataId": null
  },
  {
    "id": 154526,
    "name": "M'lang",
    "state_id": 1320,
    "state_code": "NCO",
    "country_id": 174,
    "country_code": "PH",
    "latitude": "6.95416600",
    "longitude": "124.75145630",
    "wikiDataId": null
  },
  {
    "id": 144009,
    "name": "Magpet",
    "state_id": 1320,
    "state_code": "NCO",
    "country_id": 174,
    "country_code": "PH",
    "latitude": "7.13919630",
    "longitude": "125.02950480",
    "wikiDataId": null
  },
  {
    "id": 144014,
    "name": "Makilala",
    "state_id": 1320,
    "state_code": "NCO",
    "country_id": 174,
    "country_code": "PH",
    "latitude": "6.91467630",
    "longitude": "124.96632800",
    "wikiDataId": null
  },
  {
    "id": 154525,
    "name": "Malidegao",
    "state_id": 1320,
    "state_code": "NCO",
    "country_id": 174,
    "country_code": "PH",
    "latitude": "7.36337870",
    "longitude": "124.57171620",
    "wikiDataId": null
  },
  {
    "id": 144033,
    "name": "Matalam",
    "state_id": 1320,
    "state_code": "NCO",
    "country_id": 174,
    "country_code": "PH",
    "latitude": "7.19830420",
    "longitude": "124.77059650",
    "wikiDataId": null
  },
  {
    "id": 144035,
    "name": "Midsayap",
    "state_id": 1320,
    "state_code": "NCO",
    "country_id": 174,
    "country_code": "PH",
    "latitude": "7.13534280",
    "longitude": "124.43662000",
    "wikiDataId": null
  },
  {
    "id": 154527,
    "name": "Nabalawag",
    "state_id": 1320,
    "state_code": "NCO",
    "country_id": 174,
    "country_code": "PH",
    "latitude": "7.08350290",
    "longitude": "124.48173870",
    "wikiDataId": null
  },
  {
    "id": 154528,
    "name": "Old Kaabakan",
    "state_id": 1320,
    "state_code": "NCO",
    "country_id": 174,
    "country_code": "PH",
    "latitude": "6.97246950",
    "longitude": "124.62748500",
    "wikiDataId": null
  },
  {
    "id": 144059,
    "name": "Pigcawayan",
    "state_id": 1320,
    "state_code": "NCO",
    "country_id": 174,
    "country_code": "PH",
    "latitude": "7.30613450",
    "longitude": "124.24772670",
    "wikiDataId": null
  },
  {
    "id": 144061,
    "name": "Pikit",
    "state_id": 1320,
    "state_code": "NCO",
    "country_id": 174,
    "country_code": "PH",
    "latitude": "7.07075940",
    "longitude": "124.56639600",
    "wikiDataId": null
  },
  {
    "id": 154530,
    "name": "President Roxas",
    "state_id": 1320,
    "state_code": "NCO",
    "country_id": 174,
    "country_code": "PH",
    "latitude": "7.39291980",
    "longitude": "124.81561480",
    "wikiDataId": null
  },
  {
    "id": 154531,
    "name": "Tugunan",
    "state_id": 1320,
    "state_code": "NCO",
    "country_id": 174,
    "country_code": "PH",
    "latitude": "6.81680660",
    "longitude": "124.80060830",
    "wikiDataId": null
  },
  {
    "id": 144106,
    "name": "Tulunan",
    "state_id": 1320,
    "state_code": "NCO",
    "country_id": 174,
    "country_code": "PH",
    "latitude": "6.81680660",
    "longitude": "124.80053000",
    "wikiDataId": null
  }
]