[
  {
    "id": 20508,
    "name": "Alpujarra",
    "state_id": 2883,
    "state_code": "TOL",
    "country_id": 48,
    "country_code": "CO",
    "latitude": "3.39222000",
    "longitude": "-74.93271000",
    "wikiDataId": null
  },
  {
    "id": 20511,
    "name": "Alvarado",
    "state_id": 2883,
    "state_code": "TOL",
    "country_id": 48,
    "country_code": "CO",
    "latitude": "4.58826000",
    "longitude": "-74.97810000",
    "wikiDataId": null
  },
  {
    "id": 20514,
    "name": "Ambalema",
    "state_id": 2883,
    "state_code": "TOL",
    "country_id": 48,
    "country_code": "CO",
    "latitude": "4.78405000",
    "longitude": "-74.76268000",
    "wikiDataId": null
  },
  {
    "id": 20528,
    "name": "Anzoátegui",
    "state_id": 2883,
    "state_code": "TOL",
    "country_id": 48,
    "country_code": "CO",
    "latitude": "4.62232000",
    "longitude": "-75.18046000",
    "wikiDataId": null
  },
  {
    "id": 20552,
    "name": "Armero",
    "state_id": 2883,
    "state_code": "TOL",
    "country_id": 48,
    "country_code": "CO",
    "latitude": "5.03055666",
    "longitude": "-74.88444444",
    "wikiDataId": null
  },
  {
    "id": 20556,
    "name": "Ataco",
    "state_id": 2883,
    "state_code": "TOL",
    "country_id": 48,
    "country_code": "CO",
    "latitude": "3.59147000",
    "longitude": "-75.38178000",
    "wikiDataId": null
  },
  {
    "id": 20624,
    "name": "Cajamarca",
    "state_id": 2883,
    "state_code": "TOL",
    "country_id": 48,
    "country_code": "CO",
    "latitude": "4.41667000",
    "longitude": "-75.50000000",
    "wikiDataId": null
  },
  {
    "id": 20654,
    "name": "Carmen de Apicalá",
    "state_id": 2883,
    "state_code": "TOL",
    "country_id": 48,
    "country_code": "CO",
    "latitude": "4.14725000",
    "longitude": "-74.72014000",
    "wikiDataId": null
  },
  {
    "id": 20664,
    "name": "Casabianca",
    "state_id": 2883,
    "state_code": "TOL",
    "country_id": 48,
    "country_code": "CO",
    "latitude": "5.07959000",
    "longitude": "-75.12059000",
    "wikiDataId": null
  },
  {
    "id": 20678,
    "name": "Chaparral",
    "state_id": 2883,
    "state_code": "TOL",
    "country_id": 48,
    "country_code": "CO",
    "latitude": "3.75000000",
    "longitude": "-75.58333000",
    "wikiDataId": null
  },
  {
    "id": 20717,
    "name": "Coello",
    "state_id": 2883,
    "state_code": "TOL",
    "country_id": 48,
    "country_code": "CO",
    "latitude": "4.37330000",
    "longitude": "-74.88655000",
    "wikiDataId": null
  },
  {
    "id": 20745,
    "name": "Coyaima",
    "state_id": 2883,
    "state_code": "TOL",
    "country_id": 48,
    "country_code": "CO",
    "latitude": "3.72781000",
    "longitude": "-75.17397000",
    "wikiDataId": null
  },
  {
    "id": 20758,
    "name": "Cunday",
    "state_id": 2883,
    "state_code": "TOL",
    "country_id": 48,
    "country_code": "CO",
    "latitude": "4.00284000",
    "longitude": "-74.69295000",
    "wikiDataId": null
  },
  {
    "id": 20779,
    "name": "Dolores",
    "state_id": 2883,
    "state_code": "TOL",
    "country_id": 48,
    "country_code": "CO",
    "latitude": "3.60534000",
    "longitude": "-74.80585000",
    "wikiDataId": null
  },
  {
    "id": 20841,
    "name": "Espinal",
    "state_id": 2883,
    "state_code": "TOL",
    "country_id": 48,
    "country_code": "CO",
    "latitude": "4.14924000",
    "longitude": "-74.88429000",
    "wikiDataId": null
  },
  {
    "id": 20843,
    "name": "Falan",
    "state_id": 2883,
    "state_code": "TOL",
    "country_id": 48,
    "country_code": "CO",
    "latitude": "5.12383000",
    "longitude": "-74.95181000",
    "wikiDataId": null
  },
  {
    "id": 20847,
    "name": "Flandes",
    "state_id": 2883,
    "state_code": "TOL",
    "country_id": 48,
    "country_code": "CO",
    "latitude": "4.25000000",
    "longitude": "-74.83333000",
    "wikiDataId": null
  },
  {
    "id": 20860,
    "name": "Fresno",
    "state_id": 2883,
    "state_code": "TOL",
    "country_id": 48,
    "country_code": "CO",
    "latitude": "5.15264000",
    "longitude": "-75.03624000",
    "wikiDataId": null
  },
  {
    "id": 20908,
    "name": "Guamo",
    "state_id": 2883,
    "state_code": "TOL",
    "country_id": 48,
    "country_code": "CO",
    "latitude": "4.07457000",
    "longitude": "-74.97689000",
    "wikiDataId": null
  },
  {
    "id": 20941,
    "name": "Herveo",
    "state_id": 2883,
    "state_code": "TOL",
    "country_id": 48,
    "country_code": "CO",
    "latitude": "5.08004000",
    "longitude": "-75.17556000",
    "wikiDataId": null
  },
  {
    "id": 20943,
    "name": "Honda",
    "state_id": 2883,
    "state_code": "TOL",
    "country_id": 48,
    "country_code": "CO",
    "latitude": "5.20856000",
    "longitude": "-74.73584000",
    "wikiDataId": null
  },
  {
    "id": 20944,
    "name": "Ibagué",
    "state_id": 2883,
    "state_code": "TOL",
    "country_id": 48,
    "country_code": "CO",
    "latitude": "4.43889000",
    "longitude": "-75.23222000",
    "wikiDataId": null
  },
  {
    "id": 20945,
    "name": "Icononzo",
    "state_id": 2883,
    "state_code": "TOL",
    "country_id": 48,
    "country_code": "CO",
    "latitude": "4.17698000",
    "longitude": "-74.53254000",
    "wikiDataId": null
  },
  {
    "id": 21039,
    "name": "Lérida",
    "state_id": 2883,
    "state_code": "TOL",
    "country_id": 48,
    "country_code": "CO",
    "latitude": "4.86242000",
    "longitude": "-74.90977000",
    "wikiDataId": null
  },
  {
    "id": 21040,
    "name": "Líbano",
    "state_id": 2883,
    "state_code": "TOL",
    "country_id": 48,
    "country_code": "CO",
    "latitude": "4.83560000",
    "longitude": "-75.10834000",
    "wikiDataId": null
  },
  {
    "id": 21079,
    "name": "Melgar",
    "state_id": 2883,
    "state_code": "TOL",
    "country_id": 48,
    "country_code": "CO",
    "latitude": "4.20475000",
    "longitude": "-74.64075000",
    "wikiDataId": null
  },
  {
    "id": 21119,
    "name": "Murillo",
    "state_id": 2883,
    "state_code": "TOL",
    "country_id": 48,
    "country_code": "CO",
    "latitude": "4.87393000",
    "longitude": "-75.17151000",
    "wikiDataId": null
  },
  {
    "id": 21128,
    "name": "Natagaima",
    "state_id": 2883,
    "state_code": "TOL",
    "country_id": 48,
    "country_code": "CO",
    "latitude": "3.55212000",
    "longitude": "-75.11345000",
    "wikiDataId": null
  },
  {
    "id": 21154,
    "name": "Ortega",
    "state_id": 2883,
    "state_code": "TOL",
    "country_id": 48,
    "country_code": "CO",
    "latitude": "3.94514000",
    "longitude": "-75.27245000",
    "wikiDataId": null
  },
  {
    "id": 21175,
    "name": "Palocabildo",
    "state_id": 2883,
    "state_code": "TOL",
    "country_id": 48,
    "country_code": "CO",
    "latitude": "5.11705000",
    "longitude": "-75.01732000",
    "wikiDataId": null
  },
  {
    "id": 21201,
    "name": "Piedras",
    "state_id": 2883,
    "state_code": "TOL",
    "country_id": 48,
    "country_code": "CO",
    "latitude": "4.50000000",
    "longitude": "-74.91667000",
    "wikiDataId": null
  },
  {
    "id": 21212,
    "name": "Planadas",
    "state_id": 2883,
    "state_code": "TOL",
    "country_id": 48,
    "country_code": "CO",
    "latitude": "3.10326000",
    "longitude": "-75.81680000",
    "wikiDataId": null
  },
  {
    "id": 21223,
    "name": "Prado",
    "state_id": 2883,
    "state_code": "TOL",
    "country_id": 48,
    "country_code": "CO",
    "latitude": "3.73219000",
    "longitude": "-74.86494000",
    "wikiDataId": null
  },
  {
    "id": 21264,
    "name": "Purificación",
    "state_id": 2883,
    "state_code": "TOL",
    "country_id": 48,
    "country_code": "CO",
    "latitude": "3.85871000",
    "longitude": "-74.93129000",
    "wikiDataId": null
  },
  {
    "id": 21289,
    "name": "Rioblanco",
    "state_id": 2883,
    "state_code": "TOL",
    "country_id": 48,
    "country_code": "CO",
    "latitude": "3.50000000",
    "longitude": "-75.83333000",
    "wikiDataId": null
  },
  {
    "id": 21299,
    "name": "Roncesvalles",
    "state_id": 2883,
    "state_code": "TOL",
    "country_id": 48,
    "country_code": "CO",
    "latitude": "4.01080000",
    "longitude": "-75.60493000",
    "wikiDataId": null
  },
  {
    "id": 21302,
    "name": "Rovira",
    "state_id": 2883,
    "state_code": "TOL",
    "country_id": 48,
    "country_code": "CO",
    "latitude": "4.21222000",
    "longitude": "-75.34210000",
    "wikiDataId": null
  },
  {
    "id": 21321,
    "name": "Saldaña",
    "state_id": 2883,
    "state_code": "TOL",
    "country_id": 48,
    "country_code": "CO",
    "latitude": "3.92923000",
    "longitude": "-75.01517000",
    "wikiDataId": null
  },
  {
    "id": 21337,
    "name": "San Antonio",
    "state_id": 2883,
    "state_code": "TOL",
    "country_id": 48,
    "country_code": "CO",
    "latitude": "3.95664000",
    "longitude": "-75.50000000",
    "wikiDataId": null
  },
  {
    "id": 21379,
    "name": "San Luis",
    "state_id": 2883,
    "state_code": "TOL",
    "country_id": 48,
    "country_code": "CO",
    "latitude": "4.16667000",
    "longitude": "-75.08333000",
    "wikiDataId": null
  },
  {
    "id": 21405,
    "name": "San Sebastián de Mariquita",
    "state_id": 2883,
    "state_code": "TOL",
    "country_id": 48,
    "country_code": "CO",
    "latitude": "5.24269000",
    "longitude": "-74.90772000",
    "wikiDataId": null
  },
  {
    "id": 21419,
    "name": "Santa Isabel",
    "state_id": 2883,
    "state_code": "TOL",
    "country_id": 48,
    "country_code": "CO",
    "latitude": "4.72626000",
    "longitude": "-75.22391000",
    "wikiDataId": null
  },
  {
    "id": 21500,
    "name": "Suárez",
    "state_id": 2883,
    "state_code": "TOL",
    "country_id": 48,
    "country_code": "CO",
    "latitude": "4.04897000",
    "longitude": "-74.81821000",
    "wikiDataId": null
  },
  {
    "id": 21580,
    "name": "Valle de San Juan",
    "state_id": 2883,
    "state_code": "TOL",
    "country_id": 48,
    "country_code": "CO",
    "latitude": "4.19869000",
    "longitude": "-75.11733000",
    "wikiDataId": null
  },
  {
    "id": 21586,
    "name": "Venadillo",
    "state_id": 2883,
    "state_code": "TOL",
    "country_id": 48,
    "country_code": "CO",
    "latitude": "4.69177000",
    "longitude": "-74.93669000",
    "wikiDataId": null
  },
  {
    "id": 21604,
    "name": "Villahermosa",
    "state_id": 2883,
    "state_code": "TOL",
    "country_id": 48,
    "country_code": "CO",
    "latitude": "4.96503000",
    "longitude": "-75.15650000",
    "wikiDataId": null
  },
  {
    "id": 21611,
    "name": "Villarrica",
    "state_id": 2883,
    "state_code": "TOL",
    "country_id": 48,
    "country_code": "CO",
    "latitude": "3.83099000",
    "longitude": "-74.65258000",
    "wikiDataId": null
  }
]