[
  {
    "id": 53429,
    "name": "Alotenango",
    "state_id": 3676,
    "state_code": "03",
    "country_id": 90,
    "country_code": "GT",
    "latitude": "14.48028000",
    "longitude": "-90.80750000",
    "wikiDataId": null
  },
  {
    "id": 53431,
    "name": "Antigua Guatemala",
    "state_id": 3676,
    "state_code": "03",
    "country_id": 90,
    "country_code": "GT",
    "latitude": "14.56111000",
    "longitude": "-90.73444000",
    "wikiDataId": null
  },
  {
    "id": 53460,
    "name": "Ciudad Vieja",
    "state_id": 3676,
    "state_code": "03",
    "country_id": 90,
    "country_code": "GT",
    "latitude": "14.52396000",
    "longitude": "-90.76308000",
    "wikiDataId": null
  },
  {
    "id": 53513,
    "name": "Jocotenango",
    "state_id": 3676,
    "state_code": "03",
    "country_id": 90,
    "country_code": "GT",
    "latitude": "14.57814000",
    "longitude": "-90.73804000",
    "wikiDataId": null
  },
  {
    "id": 53527,
    "name": "Magdalena Milpas Altas",
    "state_id": 3676,
    "state_code": "03",
    "country_id": 90,
    "country_code": "GT",
    "latitude": "14.54801000",
    "longitude": "-90.67477000",
    "wikiDataId": null
  },
  {
    "id": 53541,
    "name": "Municipio de Alotenango",
    "state_id": 3676,
    "state_code": "03",
    "country_id": 90,
    "country_code": "GT",
    "latitude": "14.46485000",
    "longitude": "-90.82773000",
    "wikiDataId": null
  },
  {
    "id": 53542,
    "name": "Municipio de Antigua Guatemala",
    "state_id": 3676,
    "state_code": "03",
    "country_id": 90,
    "country_code": "GT",
    "latitude": "14.54313000",
    "longitude": "-90.72683000",
    "wikiDataId": null
  },
  {
    "id": 53554,
    "name": "Municipio de Ciudad Vieja",
    "state_id": 3676,
    "state_code": "03",
    "country_id": 90,
    "country_code": "GT",
    "latitude": "14.50800000",
    "longitude": "-90.77028000",
    "wikiDataId": null
  },
  {
    "id": 53565,
    "name": "Municipio de Jocotenango",
    "state_id": 3676,
    "state_code": "03",
    "country_id": 90,
    "country_code": "GT",
    "latitude": "14.58658000",
    "longitude": "-90.73579000",
    "wikiDataId": null
  },
  {
    "id": 53567,
    "name": "Municipio de Magdalena Milpas Altas",
    "state_id": 3676,
    "state_code": "03",
    "country_id": 90,
    "country_code": "GT",
    "latitude": "14.54206000",
    "longitude": "-90.67553000",
    "wikiDataId": null
  },
  {
    "id": 53593,
    "name": "Municipio de Santa Lucía Milpas Altas",
    "state_id": 3676,
    "state_code": "03",
    "country_id": 90,
    "country_code": "GT",
    "latitude": "14.56753000",
    "longitude": "-90.67551000",
    "wikiDataId": null
  },
  {
    "id": 53595,
    "name": "Municipio de Santa María de Jesús",
    "state_id": 3676,
    "state_code": "03",
    "country_id": 90,
    "country_code": "GT",
    "latitude": "14.47849000",
    "longitude": "-90.69989000",
    "wikiDataId": null
  },
  {
    "id": 53623,
    "name": "Pastores",
    "state_id": 3676,
    "state_code": "03",
    "country_id": 90,
    "country_code": "GT",
    "latitude": "14.59433000",
    "longitude": "-90.75473000",
    "wikiDataId": null
  },
  {
    "id": 53655,
    "name": "San Antonio Aguas Calientes",
    "state_id": 3676,
    "state_code": "03",
    "country_id": 90,
    "country_code": "GT",
    "latitude": "14.54676000",
    "longitude": "-90.78054000",
    "wikiDataId": null
  },
  {
    "id": 53664,
    "name": "San Bartolomé Milpas Altas",
    "state_id": 3676,
    "state_code": "03",
    "country_id": 90,
    "country_code": "GT",
    "latitude": "14.60690000",
    "longitude": "-90.67807000",
    "wikiDataId": null
  },
  {
    "id": 53702,
    "name": "San Lucas Sacatepéquez",
    "state_id": 3676,
    "state_code": "03",
    "country_id": 90,
    "country_code": "GT",
    "latitude": "14.61075000",
    "longitude": "-90.65681000",
    "wikiDataId": null
  },
  {
    "id": 53717,
    "name": "San Miguel Dueñas",
    "state_id": 3676,
    "state_code": "03",
    "country_id": 90,
    "country_code": "GT",
    "latitude": "14.52241000",
    "longitude": "-90.79938000",
    "wikiDataId": null
  },
  {
    "id": 53748,
    "name": "Santa Catarina Barahona",
    "state_id": 3676,
    "state_code": "03",
    "country_id": 90,
    "country_code": "GT",
    "latitude": "14.55135000",
    "longitude": "-90.78598000",
    "wikiDataId": null
  },
  {
    "id": 53763,
    "name": "Santa Lucía Milpas Altas",
    "state_id": 3676,
    "state_code": "03",
    "country_id": 90,
    "country_code": "GT",
    "latitude": "14.57655000",
    "longitude": "-90.67632000",
    "wikiDataId": null
  },
  {
    "id": 53768,
    "name": "Santa María de Jesús",
    "state_id": 3676,
    "state_code": "03",
    "country_id": 90,
    "country_code": "GT",
    "latitude": "14.49452000",
    "longitude": "-90.71036000",
    "wikiDataId": null
  },
  {
    "id": 53772,
    "name": "Santiago Sacatepéquez",
    "state_id": 3676,
    "state_code": "03",
    "country_id": 90,
    "country_code": "GT",
    "latitude": "14.63510000",
    "longitude": "-90.67654000",
    "wikiDataId": null
  },
  {
    "id": 53774,
    "name": "Santo Domingo Xenacoj",
    "state_id": 3676,
    "state_code": "03",
    "country_id": 90,
    "country_code": "GT",
    "latitude": "14.68057000",
    "longitude": "-90.70012000",
    "wikiDataId": null
  },
  {
    "id": 53784,
    "name": "Sumpango",
    "state_id": 3676,
    "state_code": "03",
    "country_id": 90,
    "country_code": "GT",
    "latitude": "14.64623000",
    "longitude": "-90.73427000",
    "wikiDataId": null
  }
]