[
  {
    "id": 150058,
    "name": "Boven Bolivia",
    "state_id": 5086,
    "state_code": "BQ1",
    "country_id": 155,
    "country_code": "BQ",
    "latitude": "12.18190000",
    "longitude": "-68.21810000",
    "wikiDataId": null
  },
  {
    "id": 150059,
    "name": "Dorp Tera Kora",
    "state_id": 5086,
    "state_code": "BQ1",
    "country_id": 155,
    "country_code": "BQ",
    "latitude": "12.13333000",
    "longitude": "-68.26667000",
    "wikiDataId": null
  },
  {
    "id": 150060,
    "name": "Oranjestad",
    "state_id": 5086,
    "state_code": "BQ1",
    "country_id": 155,
    "country_code": "BQ",
    "latitude": "17.48333333",
    "longitude": "-62.98333333",
    "wikiDataId": null
  },
  {
    "id": 150061,
    "name": "Rincon",
    "state_id": 5086,
    "state_code": "BQ1",
    "country_id": 155,
    "country_code": "BQ",
    "latitude": "12.23833333",
    "longitude": "-68.33250000",
    "wikiDataId": null
  },
  {
    "id": 150062,
    "name": "St. Johns",
    "state_id": 5086,
    "state_code": "BQ1",
    "country_id": 155,
    "country_code": "BQ",
    "latitude": "17.62100750",
    "longitude": "-63.24316830",
    "wikiDataId": null
  },
  {
    "id": 150063,
    "name": "The Bottom",
    "state_id": 5086,
    "state_code": "BQ1",
    "country_id": 155,
    "country_code": "BQ",
    "latitude": "17.62611111",
    "longitude": "-63.24916667",
    "wikiDataId": null
  },
  {
    "id": 150064,
    "name": "Windwardside",
    "state_id": 5086,
    "state_code": "BQ1",
    "country_id": 155,
    "country_code": "BQ",
    "latitude": "17.62864000",
    "longitude": "-63.23136000",
    "wikiDataId": null
  },
  {
    "id": 150065,
    "name": "Zion's Hill",
    "state_id": 5086,
    "state_code": "BQ1",
    "country_id": 155,
    "country_code": "BQ",
    "latitude": "17.64300000",
    "longitude": "-63.22649000",
    "wikiDataId": null
  }
]