[
  {
    "id": 54381,
    "name": "Antunovac",
    "state_id": 740,
    "state_code": "14",
    "country_id": 55,
    "country_code": "HR",
    "latitude": "45.49083000",
    "longitude": "18.67500000",
    "wikiDataId": null
  },
  {
    "id": 54391,
    "name": "Beli Manastir",
    "state_id": 740,
    "state_code": "14",
    "country_id": 55,
    "country_code": "HR",
    "latitude": "45.77000000",
    "longitude": "18.60361000",
    "wikiDataId": null
  },
  {
    "id": 54393,
    "name": "Belišće",
    "state_id": 740,
    "state_code": "14",
    "country_id": 55,
    "country_code": "HR",
    "latitude": "45.68028000",
    "longitude": "18.40583000",
    "wikiDataId": null
  },
  {
    "id": 54398,
    "name": "Bijelo Brdo",
    "state_id": 740,
    "state_code": "14",
    "country_id": 55,
    "country_code": "HR",
    "latitude": "45.51722000",
    "longitude": "18.87083000",
    "wikiDataId": null
  },
  {
    "id": 54399,
    "name": "Bilje",
    "state_id": 740,
    "state_code": "14",
    "country_id": 55,
    "country_code": "HR",
    "latitude": "45.60694000",
    "longitude": "18.74389000",
    "wikiDataId": null
  },
  {
    "id": 54402,
    "name": "Bistrinci",
    "state_id": 740,
    "state_code": "14",
    "country_id": 55,
    "country_code": "HR",
    "latitude": "45.69167000",
    "longitude": "18.39861000",
    "wikiDataId": null
  },
  {
    "id": 54403,
    "name": "Bizovac",
    "state_id": 740,
    "state_code": "14",
    "country_id": 55,
    "country_code": "HR",
    "latitude": "45.59278000",
    "longitude": "18.45889000",
    "wikiDataId": null
  },
  {
    "id": 54421,
    "name": "Brijest",
    "state_id": 740,
    "state_code": "14",
    "country_id": 55,
    "country_code": "HR",
    "latitude": "45.52056000",
    "longitude": "18.67194000",
    "wikiDataId": null
  },
  {
    "id": 54431,
    "name": "Budrovci",
    "state_id": 740,
    "state_code": "14",
    "country_id": 55,
    "country_code": "HR",
    "latitude": "45.27111000",
    "longitude": "18.44861000",
    "wikiDataId": null
  },
  {
    "id": 55020,
    "name": "Čeminac",
    "state_id": 740,
    "state_code": "14",
    "country_id": 55,
    "country_code": "HR",
    "latitude": "45.68639000",
    "longitude": "18.66750000",
    "wikiDataId": null
  },
  {
    "id": 55021,
    "name": "Čepin",
    "state_id": 740,
    "state_code": "14",
    "country_id": 55,
    "country_code": "HR",
    "latitude": "45.52361000",
    "longitude": "18.56333000",
    "wikiDataId": null
  },
  {
    "id": 54447,
    "name": "Dalj",
    "state_id": 740,
    "state_code": "14",
    "country_id": 55,
    "country_code": "HR",
    "latitude": "45.48438000",
    "longitude": "18.98610000",
    "wikiDataId": null
  },
  {
    "id": 54448,
    "name": "Darda",
    "state_id": 740,
    "state_code": "14",
    "country_id": 55,
    "country_code": "HR",
    "latitude": "45.62806000",
    "longitude": "18.69972000",
    "wikiDataId": null
  },
  {
    "id": 54461,
    "name": "Donji Miholjac",
    "state_id": 740,
    "state_code": "14",
    "country_id": 55,
    "country_code": "HR",
    "latitude": "45.76083000",
    "longitude": "18.16722000",
    "wikiDataId": null
  },
  {
    "id": 54464,
    "name": "Draž",
    "state_id": 740,
    "state_code": "14",
    "country_id": 55,
    "country_code": "HR",
    "latitude": "45.84222000",
    "longitude": "18.78861000",
    "wikiDataId": null
  },
  {
    "id": 55023,
    "name": "Đakovo",
    "state_id": 740,
    "state_code": "14",
    "country_id": 55,
    "country_code": "HR",
    "latitude": "45.30833000",
    "longitude": "18.41056000",
    "wikiDataId": null
  },
  {
    "id": 55014,
    "name": "Đurđenovac",
    "state_id": 740,
    "state_code": "14",
    "country_id": 55,
    "country_code": "HR",
    "latitude": "45.54333000",
    "longitude": "18.04583000",
    "wikiDataId": null
  },
  {
    "id": 54476,
    "name": "Erdut",
    "state_id": 740,
    "state_code": "14",
    "country_id": 55,
    "country_code": "HR",
    "latitude": "45.52639000",
    "longitude": "19.06028000",
    "wikiDataId": null
  },
  {
    "id": 54477,
    "name": "Ernestinovo",
    "state_id": 740,
    "state_code": "14",
    "country_id": 55,
    "country_code": "HR",
    "latitude": "45.45194000",
    "longitude": "18.65917000",
    "wikiDataId": null
  },
  {
    "id": 54482,
    "name": "Feričanci",
    "state_id": 740,
    "state_code": "14",
    "country_id": 55,
    "country_code": "HR",
    "latitude": "45.52889000",
    "longitude": "17.97583000",
    "wikiDataId": null
  },
  {
    "id": 54494,
    "name": "Gorjani",
    "state_id": 740,
    "state_code": "14",
    "country_id": 55,
    "country_code": "HR",
    "latitude": "45.39889000",
    "longitude": "18.37222000",
    "wikiDataId": null
  },
  {
    "id": 54503,
    "name": "Grad Beli Manastir",
    "state_id": 740,
    "state_code": "14",
    "country_id": 55,
    "country_code": "HR",
    "latitude": "45.77219000",
    "longitude": "18.61084000",
    "wikiDataId": null
  },
  {
    "id": 54511,
    "name": "Grad Donji Miholjac",
    "state_id": 740,
    "state_code": "14",
    "country_id": 55,
    "country_code": "HR",
    "latitude": "45.75000000",
    "longitude": "18.16667000",
    "wikiDataId": null
  },
  {
    "id": 54533,
    "name": "Grad Našice",
    "state_id": 740,
    "state_code": "14",
    "country_id": 55,
    "country_code": "HR",
    "latitude": "45.50000000",
    "longitude": "18.10000000",
    "wikiDataId": null
  },
  {
    "id": 54540,
    "name": "Grad Osijek",
    "state_id": 740,
    "state_code": "14",
    "country_id": 55,
    "country_code": "HR",
    "latitude": "45.58333000",
    "longitude": "18.66667000",
    "wikiDataId": null
  },
  {
    "id": 54556,
    "name": "Grad Valpovo",
    "state_id": 740,
    "state_code": "14",
    "country_id": 55,
    "country_code": "HR",
    "latitude": "45.66667000",
    "longitude": "18.41667000",
    "wikiDataId": null
  },
  {
    "id": 54610,
    "name": "Jagodnjak",
    "state_id": 740,
    "state_code": "14",
    "country_id": 55,
    "country_code": "HR",
    "latitude": "45.69917000",
    "longitude": "18.57694000",
    "wikiDataId": null
  },
  {
    "id": 54619,
    "name": "Jelisavac",
    "state_id": 740,
    "state_code": "14",
    "country_id": 55,
    "country_code": "HR",
    "latitude": "45.52889000",
    "longitude": "18.15611000",
    "wikiDataId": null
  },
  {
    "id": 54624,
    "name": "Josipovac",
    "state_id": 740,
    "state_code": "14",
    "country_id": 55,
    "country_code": "HR",
    "latitude": "45.58278000",
    "longitude": "18.58139000",
    "wikiDataId": null
  },
  {
    "id": 54632,
    "name": "Karanac",
    "state_id": 740,
    "state_code": "14",
    "country_id": 55,
    "country_code": "HR",
    "latitude": "45.76056000",
    "longitude": "18.68444000",
    "wikiDataId": null
  },
  {
    "id": 54651,
    "name": "Kneževi Vinogradi",
    "state_id": 740,
    "state_code": "14",
    "country_id": 55,
    "country_code": "HR",
    "latitude": "45.75028000",
    "longitude": "18.73306000",
    "wikiDataId": null
  },
  {
    "id": 54664,
    "name": "Koška",
    "state_id": 740,
    "state_code": "14",
    "country_id": 55,
    "country_code": "HR",
    "latitude": "45.54528000",
    "longitude": "18.28583000",
    "wikiDataId": null
  },
  {
    "id": 54680,
    "name": "Kuševac",
    "state_id": 740,
    "state_code": "14",
    "country_id": 55,
    "country_code": "HR",
    "latitude": "45.34778000",
    "longitude": "18.42889000",
    "wikiDataId": null
  },
  {
    "id": 54682,
    "name": "Ladimirevci",
    "state_id": 740,
    "state_code": "14",
    "country_id": 55,
    "country_code": "HR",
    "latitude": "45.62556000",
    "longitude": "18.44861000",
    "wikiDataId": null
  },
  {
    "id": 54683,
    "name": "Laslovo",
    "state_id": 740,
    "state_code": "14",
    "country_id": 55,
    "country_code": "HR",
    "latitude": "45.41500000",
    "longitude": "18.69611000",
    "wikiDataId": null
  },
  {
    "id": 54709,
    "name": "Magadenovac",
    "state_id": 740,
    "state_code": "14",
    "country_id": 55,
    "country_code": "HR",
    "latitude": "45.66159000",
    "longitude": "18.18679000",
    "wikiDataId": null
  },
  {
    "id": 54715,
    "name": "Marijanci",
    "state_id": 740,
    "state_code": "14",
    "country_id": 55,
    "country_code": "HR",
    "latitude": "45.66645000",
    "longitude": "18.29284000",
    "wikiDataId": null
  },
  {
    "id": 54717,
    "name": "Marjanci",
    "state_id": 740,
    "state_code": "14",
    "country_id": 55,
    "country_code": "HR",
    "latitude": "45.66694000",
    "longitude": "18.29222000",
    "wikiDataId": null
  },
  {
    "id": 54718,
    "name": "Markovac Našički",
    "state_id": 740,
    "state_code": "14",
    "country_id": 55,
    "country_code": "HR",
    "latitude": "45.49389000",
    "longitude": "18.12556000",
    "wikiDataId": null
  },
  {
    "id": 54720,
    "name": "Martin",
    "state_id": 740,
    "state_code": "14",
    "country_id": 55,
    "country_code": "HR",
    "latitude": "45.49222000",
    "longitude": "18.06667000",
    "wikiDataId": null
  },
  {
    "id": 54748,
    "name": "Našice",
    "state_id": 740,
    "state_code": "14",
    "country_id": 55,
    "country_code": "HR",
    "latitude": "45.48861000",
    "longitude": "18.08778000",
    "wikiDataId": null
  },
  {
    "id": 54792,
    "name": "Osijek",
    "state_id": 740,
    "state_code": "14",
    "country_id": 55,
    "country_code": "HR",
    "latitude": "45.55111000",
    "longitude": "18.69389000",
    "wikiDataId": null
  },
  {
    "id": 54804,
    "name": "Petlovac",
    "state_id": 740,
    "state_code": "14",
    "country_id": 55,
    "country_code": "HR",
    "latitude": "45.75833000",
    "longitude": "18.52806000",
    "wikiDataId": null
  },
  {
    "id": 54806,
    "name": "Petrijevci",
    "state_id": 740,
    "state_code": "14",
    "country_id": 55,
    "country_code": "HR",
    "latitude": "45.61278000",
    "longitude": "18.53528000",
    "wikiDataId": null
  },
  {
    "id": 54810,
    "name": "Piškorevci",
    "state_id": 740,
    "state_code": "14",
    "country_id": 55,
    "country_code": "HR",
    "latitude": "45.25528000",
    "longitude": "18.40417000",
    "wikiDataId": null
  },
  {
    "id": 54814,
    "name": "Podgorač",
    "state_id": 740,
    "state_code": "14",
    "country_id": 55,
    "country_code": "HR",
    "latitude": "45.45861000",
    "longitude": "18.22278000",
    "wikiDataId": null
  },
  {
    "id": 54816,
    "name": "Podravska Moslavina",
    "state_id": 740,
    "state_code": "14",
    "country_id": 55,
    "country_code": "HR",
    "latitude": "45.78456000",
    "longitude": "17.98410000",
    "wikiDataId": null
  },
  {
    "id": 54877,
    "name": "Sarvaš",
    "state_id": 740,
    "state_code": "14",
    "country_id": 55,
    "country_code": "HR",
    "latitude": "45.52722000",
    "longitude": "18.83750000",
    "wikiDataId": null
  },
  {
    "id": 54878,
    "name": "Satnica Đakovačka",
    "state_id": 740,
    "state_code": "14",
    "country_id": 55,
    "country_code": "HR",
    "latitude": "45.35367000",
    "longitude": "18.37729000",
    "wikiDataId": null
  },
  {
    "id": 54883,
    "name": "Semeljci",
    "state_id": 740,
    "state_code": "14",
    "country_id": 55,
    "country_code": "HR",
    "latitude": "45.36056000",
    "longitude": "18.54361000",
    "wikiDataId": null
  },
  {
    "id": 55031,
    "name": "Široko Polje",
    "state_id": 740,
    "state_code": "14",
    "country_id": 55,
    "country_code": "HR",
    "latitude": "45.40528000",
    "longitude": "18.47250000",
    "wikiDataId": null
  },
  {
    "id": 55034,
    "name": "Šodolovci",
    "state_id": 740,
    "state_code": "14",
    "country_id": 55,
    "country_code": "HR",
    "latitude": "45.40000000",
    "longitude": "18.62028000",
    "wikiDataId": null
  },
  {
    "id": 54916,
    "name": "Strizivojna",
    "state_id": 740,
    "state_code": "14",
    "country_id": 55,
    "country_code": "HR",
    "latitude": "45.22611000",
    "longitude": "18.42389000",
    "wikiDataId": null
  },
  {
    "id": 54935,
    "name": "Tenja",
    "state_id": 740,
    "state_code": "14",
    "country_id": 55,
    "country_code": "HR",
    "latitude": "45.49806000",
    "longitude": "18.74722000",
    "wikiDataId": null
  },
  {
    "id": 54952,
    "name": "Valpovo",
    "state_id": 740,
    "state_code": "14",
    "country_id": 55,
    "country_code": "HR",
    "latitude": "45.66083000",
    "longitude": "18.41861000",
    "wikiDataId": null
  },
  {
    "id": 54963,
    "name": "Velimirovac",
    "state_id": 740,
    "state_code": "14",
    "country_id": 55,
    "country_code": "HR",
    "latitude": "45.52361000",
    "longitude": "18.10944000",
    "wikiDataId": null
  },
  {
    "id": 54966,
    "name": "Viljevo",
    "state_id": 740,
    "state_code": "14",
    "country_id": 55,
    "country_code": "HR",
    "latitude": "45.75139000",
    "longitude": "18.06306000",
    "wikiDataId": null
  },
  {
    "id": 54975,
    "name": "Viškovci",
    "state_id": 740,
    "state_code": "14",
    "country_id": 55,
    "country_code": "HR",
    "latitude": "45.34500000",
    "longitude": "18.46222000",
    "wikiDataId": null
  },
  {
    "id": 54978,
    "name": "Višnjevac",
    "state_id": 740,
    "state_code": "14",
    "country_id": 55,
    "country_code": "HR",
    "latitude": "45.56861000",
    "longitude": "18.61389000",
    "wikiDataId": null
  },
  {
    "id": 54980,
    "name": "Vladislavci",
    "state_id": 740,
    "state_code": "14",
    "country_id": 55,
    "country_code": "HR",
    "latitude": "45.45944000",
    "longitude": "18.57417000",
    "wikiDataId": null
  },
  {
    "id": 54999,
    "name": "Vuka",
    "state_id": 740,
    "state_code": "14",
    "country_id": 55,
    "country_code": "HR",
    "latitude": "45.43389000",
    "longitude": "18.50500000",
    "wikiDataId": null
  }
]