[
  {
    "id": 48245,
    "name": "Amlwch",
    "state_id": 5458,
    "state_code": "AGY",
    "country_id": 232,
    "country_code": "GB",
    "latitude": "53.40986000",
    "longitude": "-4.34712000",
    "wikiDataId": null
  },
  {
    "id": 48250,
    "name": "Anglesey",
    "state_id": 5458,
    "state_code": "AGY",
    "country_id": 232,
    "country_code": "GB",
    "latitude": "53.25000000",
    "longitude": "-4.33333000",
    "wikiDataId": null
  },
  {
    "id": 48580,
    "name": "Bodedern",
    "state_id": 5458,
    "state_code": "AGY",
    "country_id": 232,
    "country_code": "GB",
    "latitude": "53.29232000",
    "longitude": "-4.50303000",
    "wikiDataId": null
  },
  {
    "id": 48812,
    "name": "Caernarfon",
    "state_id": 5458,
    "state_code": "AGY",
    "country_id": 232,
    "country_code": "GB",
    "latitude": "53.14126000",
    "longitude": "-4.27016000",
    "wikiDataId": null
  },
  {
    "id": 48902,
    "name": "Cemaes Bay",
    "state_id": 5458,
    "state_code": "AGY",
    "country_id": 232,
    "country_code": "GB",
    "latitude": "53.41211000",
    "longitude": "-4.45190000",
    "wikiDataId": null
  },
  {
    "id": 49619,
    "name": "Gaerwen",
    "state_id": 5458,
    "state_code": "AGY",
    "country_id": 232,
    "country_code": "GB",
    "latitude": "53.22112000",
    "longitude": "-4.27362000",
    "wikiDataId": null
  },
  {
    "id": 49971,
    "name": "Holyhead",
    "state_id": 5458,
    "state_code": "AGY",
    "country_id": 232,
    "country_code": "GB",
    "latitude": "53.30621000",
    "longitude": "-4.63211000",
    "wikiDataId": null
  },
  {
    "id": 50351,
    "name": "Llanerchymedd",
    "state_id": 5458,
    "state_code": "AGY",
    "country_id": 232,
    "country_code": "GB",
    "latitude": "53.33055000",
    "longitude": "-4.37700000",
    "wikiDataId": null
  },
  {
    "id": 50356,
    "name": "Llangefni",
    "state_id": 5458,
    "state_code": "AGY",
    "country_id": 232,
    "country_code": "GB",
    "latitude": "53.25561000",
    "longitude": "-4.31063000",
    "wikiDataId": null
  },
  {
    "id": 50672,
    "name": "Nefyn",
    "state_id": 5458,
    "state_code": "AGY",
    "country_id": 232,
    "country_code": "GB",
    "latitude": "52.93538000",
    "longitude": "-4.52250000",
    "wikiDataId": null
  },
  {
    "id": 51071,
    "name": "Rhosneigr",
    "state_id": 5458,
    "state_code": "AGY",
    "country_id": 232,
    "country_code": "GB",
    "latitude": "53.23186000",
    "longitude": "-4.51480000",
    "wikiDataId": null
  },
  {
    "id": 51714,
    "name": "Valley",
    "state_id": 5458,
    "state_code": "AGY",
    "country_id": 232,
    "country_code": "GB",
    "latitude": "53.28490000",
    "longitude": "-4.56644000",
    "wikiDataId": null
  }
]