[
  {
    "id": 10066,
    "name": "Abreu e Lima",
    "state_id": 2006,
    "state_code": "PE",
    "country_id": 31,
    "country_code": "BR",
    "latitude": "-7.86865000",
    "longitude": "-35.08171000",
    "wikiDataId": null
  },
  {
    "id": 10085,
    "name": "Afogados da Ingazeira",
    "state_id": 2006,
    "state_code": "PE",
    "country_id": 31,
    "country_code": "BR",
    "latitude": "-7.72298000",
    "longitude": "-37.61781000",
    "wikiDataId": null
  },
  {
    "id": 10089,
    "name": "Afrânio",
    "state_id": 2006,
    "state_code": "PE",
    "country_id": 31,
    "country_code": "BR",
    "latitude": "-8.62589000",
    "longitude": "-41.05768000",
    "wikiDataId": null
  },
  {
    "id": 10091,
    "name": "Agrestina",
    "state_id": 2006,
    "state_code": "PE",
    "country_id": 31,
    "country_code": "BR",
    "latitude": "-8.45191000",
    "longitude": "-35.93238000",
    "wikiDataId": null
  },
  {
    "id": 15663,
    "name": "Água Preta",
    "state_id": 2006,
    "state_code": "PE",
    "country_id": 31,
    "country_code": "BR",
    "latitude": "-8.70750000",
    "longitude": "-35.53056000",
    "wikiDataId": null
  },
  {
    "id": 15665,
    "name": "Águas Belas",
    "state_id": 2006,
    "state_code": "PE",
    "country_id": 31,
    "country_code": "BR",
    "latitude": "-9.11139000",
    "longitude": "-37.12306000",
    "wikiDataId": null
  },
  {
    "id": 10111,
    "name": "Alagoinha",
    "state_id": 2006,
    "state_code": "PE",
    "country_id": 31,
    "country_code": "BR",
    "latitude": "-8.53497000",
    "longitude": "-36.75607000",
    "wikiDataId": null
  },
  {
    "id": 10137,
    "name": "Aliança",
    "state_id": 2006,
    "state_code": "PE",
    "country_id": 31,
    "country_code": "BR",
    "latitude": "-7.59698000",
    "longitude": "-35.16536000",
    "wikiDataId": null
  },
  {
    "id": 10158,
    "name": "Altinho",
    "state_id": 2006,
    "state_code": "PE",
    "country_id": 31,
    "country_code": "BR",
    "latitude": "-8.45151000",
    "longitude": "-36.08155000",
    "wikiDataId": null
  },
  {
    "id": 10206,
    "name": "Amaraji",
    "state_id": 2006,
    "state_code": "PE",
    "country_id": 31,
    "country_code": "BR",
    "latitude": "-8.37192000",
    "longitude": "-35.48991000",
    "wikiDataId": null
  },
  {
    "id": 10250,
    "name": "Angelim",
    "state_id": 2006,
    "state_code": "PE",
    "country_id": 31,
    "country_code": "BR",
    "latitude": "-8.89154000",
    "longitude": "-36.27674000",
    "wikiDataId": null
  },
  {
    "id": 10370,
    "name": "Araçoiaba",
    "state_id": 2006,
    "state_code": "PE",
    "country_id": 31,
    "country_code": "BR",
    "latitude": "-7.79387000",
    "longitude": "-35.07645000",
    "wikiDataId": null
  },
  {
    "id": 10355,
    "name": "Araripina",
    "state_id": 2006,
    "state_code": "PE",
    "country_id": 31,
    "country_code": "BR",
    "latitude": "-7.57611000",
    "longitude": "-40.49833000",
    "wikiDataId": null
  },
  {
    "id": 10379,
    "name": "Arcoverde",
    "state_id": 2006,
    "state_code": "PE",
    "country_id": 31,
    "country_code": "BR",
    "latitude": "-8.41889000",
    "longitude": "-37.05389000",
    "wikiDataId": null
  },
  {
    "id": 10524,
    "name": "Barra de Guabiraba",
    "state_id": 2006,
    "state_code": "PE",
    "country_id": 31,
    "country_code": "BR",
    "latitude": "-8.39450000",
    "longitude": "-35.62054000",
    "wikiDataId": null
  },
  {
    "id": 10556,
    "name": "Barreiros",
    "state_id": 2006,
    "state_code": "PE",
    "country_id": 31,
    "country_code": "BR",
    "latitude": "-8.81833000",
    "longitude": "-35.18639000",
    "wikiDataId": null
  },
  {
    "id": 10617,
    "name": "Belém de Maria",
    "state_id": 2006,
    "state_code": "PE",
    "country_id": 31,
    "country_code": "BR",
    "latitude": "-8.57849000",
    "longitude": "-35.82495000",
    "wikiDataId": null
  },
  {
    "id": 10618,
    "name": "Belém de São Francisco",
    "state_id": 2006,
    "state_code": "PE",
    "country_id": 31,
    "country_code": "BR",
    "latitude": "-8.75389000",
    "longitude": "-38.96583000",
    "wikiDataId": null
  },
  {
    "id": 10621,
    "name": "Belém do São Francisco",
    "state_id": 2006,
    "state_code": "PE",
    "country_id": 31,
    "country_code": "BR",
    "latitude": "-8.53386000",
    "longitude": "-38.98166000",
    "wikiDataId": null
  },
  {
    "id": 10608,
    "name": "Belo Jardim",
    "state_id": 2006,
    "state_code": "PE",
    "country_id": 31,
    "country_code": "BR",
    "latitude": "-8.33556000",
    "longitude": "-36.42417000",
    "wikiDataId": null
  },
  {
    "id": 10643,
    "name": "Betânia",
    "state_id": 2006,
    "state_code": "PE",
    "country_id": 31,
    "country_code": "BR",
    "latitude": "-8.28789000",
    "longitude": "-37.97622000",
    "wikiDataId": null
  },
  {
    "id": 10645,
    "name": "Bezerros",
    "state_id": 2006,
    "state_code": "PE",
    "country_id": 31,
    "country_code": "BR",
    "latitude": "-8.23333000",
    "longitude": "-35.79694000",
    "wikiDataId": null
  },
  {
    "id": 10685,
    "name": "Bodocó",
    "state_id": 2006,
    "state_code": "PE",
    "country_id": 31,
    "country_code": "BR",
    "latitude": "-7.78881000",
    "longitude": "-39.95255000",
    "wikiDataId": null
  },
  {
    "id": 10690,
    "name": "Bom Conselho",
    "state_id": 2006,
    "state_code": "PE",
    "country_id": 31,
    "country_code": "BR",
    "latitude": "-9.16972000",
    "longitude": "-36.67972000",
    "wikiDataId": null
  },
  {
    "id": 10692,
    "name": "Bom Jardim",
    "state_id": 2006,
    "state_code": "PE",
    "country_id": 31,
    "country_code": "BR",
    "latitude": "-7.79583000",
    "longitude": "-35.58722000",
    "wikiDataId": null
  },
  {
    "id": 10736,
    "name": "Bonito",
    "state_id": 2006,
    "state_code": "PE",
    "country_id": 31,
    "country_code": "BR",
    "latitude": "-8.47028000",
    "longitude": "-35.72861000",
    "wikiDataId": null
  },
  {
    "id": 10799,
    "name": "Brejão",
    "state_id": 2006,
    "state_code": "PE",
    "country_id": 31,
    "country_code": "BR",
    "latitude": "-9.03600000",
    "longitude": "-36.56056000",
    "wikiDataId": null
  },
  {
    "id": 10786,
    "name": "Brejinho",
    "state_id": 2006,
    "state_code": "PE",
    "country_id": 31,
    "country_code": "BR",
    "latitude": "-7.34462000",
    "longitude": "-37.33463000",
    "wikiDataId": null
  },
  {
    "id": 10793,
    "name": "Brejo da Madre de Deus",
    "state_id": 2006,
    "state_code": "PE",
    "country_id": 31,
    "country_code": "BR",
    "latitude": "-8.14583000",
    "longitude": "-36.37111000",
    "wikiDataId": null
  },
  {
    "id": 10815,
    "name": "Buenos Aires",
    "state_id": 2006,
    "state_code": "PE",
    "country_id": 31,
    "country_code": "BR",
    "latitude": "-7.72000000",
    "longitude": "-35.32000000",
    "wikiDataId": null
  },
  {
    "id": 10839,
    "name": "Buíque",
    "state_id": 2006,
    "state_code": "PE",
    "country_id": 31,
    "country_code": "BR",
    "latitude": "-8.62306000",
    "longitude": "-37.15583000",
    "wikiDataId": null
  },
  {
    "id": 10852,
    "name": "Cabo",
    "state_id": 2006,
    "state_code": "PE",
    "country_id": 31,
    "country_code": "BR",
    "latitude": "-8.28333000",
    "longitude": "-35.03333000",
    "wikiDataId": null
  },
  {
    "id": 10855,
    "name": "Cabo de Santo Agostinho",
    "state_id": 2006,
    "state_code": "PE",
    "country_id": 31,
    "country_code": "BR",
    "latitude": "-8.27727000",
    "longitude": "-35.09090000",
    "wikiDataId": null
  },
  {
    "id": 10857,
    "name": "Cabrobó",
    "state_id": 2006,
    "state_code": "PE",
    "country_id": 31,
    "country_code": "BR",
    "latitude": "-8.51417000",
    "longitude": "-39.31000000",
    "wikiDataId": null
  },
  {
    "id": 10876,
    "name": "Cachoeirinha",
    "state_id": 2006,
    "state_code": "PE",
    "country_id": 31,
    "country_code": "BR",
    "latitude": "-8.48639000",
    "longitude": "-36.23306000",
    "wikiDataId": null
  },
  {
    "id": 10892,
    "name": "Caetés",
    "state_id": 2006,
    "state_code": "PE",
    "country_id": 31,
    "country_code": "BR",
    "latitude": "-8.77306000",
    "longitude": "-36.62250000",
    "wikiDataId": null
  },
  {
    "id": 10932,
    "name": "Calçado",
    "state_id": 2006,
    "state_code": "PE",
    "country_id": 31,
    "country_code": "BR",
    "latitude": "-8.73580000",
    "longitude": "-36.33149000",
    "wikiDataId": null
  },
  {
    "id": 10931,
    "name": "Calumbi",
    "state_id": 2006,
    "state_code": "PE",
    "country_id": 31,
    "country_code": "BR",
    "latitude": "-8.01910000",
    "longitude": "-38.09799000",
    "wikiDataId": null
  },
  {
    "id": 10941,
    "name": "Camaragibe",
    "state_id": 2006,
    "state_code": "PE",
    "country_id": 31,
    "country_code": "BR",
    "latitude": "-7.98780000",
    "longitude": "-34.99136000",
    "wikiDataId": null
  },
  {
    "id": 10954,
    "name": "Camocim de São Félix",
    "state_id": 2006,
    "state_code": "PE",
    "country_id": 31,
    "country_code": "BR",
    "latitude": "-8.35861000",
    "longitude": "-35.76194000",
    "wikiDataId": null
  },
  {
    "id": 11020,
    "name": "Camutanga",
    "state_id": 2006,
    "state_code": "PE",
    "country_id": 31,
    "country_code": "BR",
    "latitude": "-7.43515000",
    "longitude": "-35.30172000",
    "wikiDataId": null
  },
  {
    "id": 11045,
    "name": "Canhotinho",
    "state_id": 2006,
    "state_code": "PE",
    "country_id": 31,
    "country_code": "BR",
    "latitude": "-8.88222000",
    "longitude": "-36.19111000",
    "wikiDataId": null
  },
  {
    "id": 11092,
    "name": "Capoeiras",
    "state_id": 2006,
    "state_code": "PE",
    "country_id": 31,
    "country_code": "BR",
    "latitude": "-8.73472000",
    "longitude": "-36.62667000",
    "wikiDataId": null
  },
  {
    "id": 11157,
    "name": "Carnaíba",
    "state_id": 2006,
    "state_code": "PE",
    "country_id": 31,
    "country_code": "BR",
    "latitude": "-8.70000000",
    "longitude": "-37.66667000",
    "wikiDataId": null
  },
  {
    "id": 11156,
    "name": "Carnaubeira da Penha",
    "state_id": 2006,
    "state_code": "PE",
    "country_id": 31,
    "country_code": "BR",
    "latitude": "-8.42648000",
    "longitude": "-38.76523000",
    "wikiDataId": null
  },
  {
    "id": 11162,
    "name": "Carpina",
    "state_id": 2006,
    "state_code": "PE",
    "country_id": 31,
    "country_code": "BR",
    "latitude": "-7.85083000",
    "longitude": "-35.25472000",
    "wikiDataId": null
  },
  {
    "id": 11166,
    "name": "Caruaru",
    "state_id": 2006,
    "state_code": "PE",
    "country_id": 31,
    "country_code": "BR",
    "latitude": "-8.17924000",
    "longitude": "-36.02794000",
    "wikiDataId": null
  },
  {
    "id": 11181,
    "name": "Casinhas",
    "state_id": 2006,
    "state_code": "PE",
    "country_id": 31,
    "country_code": "BR",
    "latitude": "-7.75811000",
    "longitude": "-35.69922000",
    "wikiDataId": null
  },
  {
    "id": 11201,
    "name": "Catende",
    "state_id": 2006,
    "state_code": "PE",
    "country_id": 31,
    "country_code": "BR",
    "latitude": "-8.66667000",
    "longitude": "-35.71667000",
    "wikiDataId": null
  },
  {
    "id": 11231,
    "name": "Cedro",
    "state_id": 2006,
    "state_code": "PE",
    "country_id": 31,
    "country_code": "BR",
    "latitude": "-7.71879000",
    "longitude": "-39.23334000",
    "wikiDataId": null
  },
  {
    "id": 11288,
    "name": "Chã de Alegria",
    "state_id": 2006,
    "state_code": "PE",
    "country_id": 31,
    "country_code": "BR",
    "latitude": "-7.99013000",
    "longitude": "-35.18974000",
    "wikiDataId": null
  },
  {
    "id": 11286,
    "name": "Chã Grande",
    "state_id": 2006,
    "state_code": "PE",
    "country_id": 31,
    "country_code": "BR",
    "latitude": "-8.23833000",
    "longitude": "-35.46167000",
    "wikiDataId": null
  },
  {
    "id": 11335,
    "name": "Colônia Leopoldina",
    "state_id": 2006,
    "state_code": "PE",
    "country_id": 31,
    "country_code": "BR",
    "latitude": "-8.90889000",
    "longitude": "-35.72500000",
    "wikiDataId": null
  },
  {
    "id": 11369,
    "name": "Condado",
    "state_id": 2006,
    "state_code": "PE",
    "country_id": 31,
    "country_code": "BR",
    "latitude": "-7.58583000",
    "longitude": "-35.10583000",
    "wikiDataId": null
  },
  {
    "id": 11435,
    "name": "Correntes",
    "state_id": 2006,
    "state_code": "PE",
    "country_id": 31,
    "country_code": "BR",
    "latitude": "-9.13378000",
    "longitude": "-36.32033000",
    "wikiDataId": null
  },
  {
    "id": 11437,
    "name": "Cortês",
    "state_id": 2006,
    "state_code": "PE",
    "country_id": 31,
    "country_code": "BR",
    "latitude": "-8.44254000",
    "longitude": "-35.53378000",
    "wikiDataId": null
  },
  {
    "id": 11513,
    "name": "Cumaru",
    "state_id": 2006,
    "state_code": "PE",
    "country_id": 31,
    "country_code": "BR",
    "latitude": "-8.00611000",
    "longitude": "-35.69722000",
    "wikiDataId": null
  },
  {
    "id": 11520,
    "name": "Cupira",
    "state_id": 2006,
    "state_code": "PE",
    "country_id": 31,
    "country_code": "BR",
    "latitude": "-8.61667000",
    "longitude": "-35.95000000",
    "wikiDataId": null
  },
  {
    "id": 11540,
    "name": "Custódia",
    "state_id": 2006,
    "state_code": "PE",
    "country_id": 31,
    "country_code": "BR",
    "latitude": "-8.12882000",
    "longitude": "-37.66208000",
    "wikiDataId": null
  },
  {
    "id": 11649,
    "name": "Dormentes",
    "state_id": 2006,
    "state_code": "PE",
    "country_id": 31,
    "country_code": "BR",
    "latitude": "-8.43020000",
    "longitude": "-40.59717000",
    "wikiDataId": null
  },
  {
    "id": 11724,
    "name": "Escada",
    "state_id": 2006,
    "state_code": "PE",
    "country_id": 31,
    "country_code": "BR",
    "latitude": "-8.35917000",
    "longitude": "-35.22361000",
    "wikiDataId": null
  },
  {
    "id": 11769,
    "name": "Exu",
    "state_id": 2006,
    "state_code": "PE",
    "country_id": 31,
    "country_code": "BR",
    "latitude": "-7.51194000",
    "longitude": "-39.72417000",
    "wikiDataId": null
  },
  {
    "id": 11790,
    "name": "Feira Nova",
    "state_id": 2006,
    "state_code": "PE",
    "country_id": 31,
    "country_code": "BR",
    "latitude": "-7.93474000",
    "longitude": "-35.39248000",
    "wikiDataId": null
  },
  {
    "id": 11807,
    "name": "Fernando de Noronha",
    "state_id": 2006,
    "state_code": "PE",
    "country_id": 31,
    "country_code": "BR",
    "latitude": "-3.85071000",
    "longitude": "-32.41997000",
    "wikiDataId": null
  },
  {
    "id": 11808,
    "name": "Fernando de Noronha (Distrito Estadual)",
    "state_id": 2006,
    "state_code": "PE",
    "country_id": 31,
    "country_code": "BR",
    "latitude": "-3.84028000",
    "longitude": "-32.41083000",
    "wikiDataId": null
  },
  {
    "id": 11813,
    "name": "Ferreiros",
    "state_id": 2006,
    "state_code": "PE",
    "country_id": 31,
    "country_code": "BR",
    "latitude": "-7.48644000",
    "longitude": "-35.19997000",
    "wikiDataId": null
  },
  {
    "id": 11830,
    "name": "Flores",
    "state_id": 2006,
    "state_code": "PE",
    "country_id": 31,
    "country_code": "BR",
    "latitude": "-7.86806000",
    "longitude": "-37.97472000",
    "wikiDataId": null
  },
  {
    "id": 11834,
    "name": "Floresta",
    "state_id": 2006,
    "state_code": "PE",
    "country_id": 31,
    "country_code": "BR",
    "latitude": "-8.60111000",
    "longitude": "-38.56861000",
    "wikiDataId": null
  },
  {
    "id": 11895,
    "name": "Frei Miguelinho",
    "state_id": 2006,
    "state_code": "PE",
    "country_id": 31,
    "country_code": "BR",
    "latitude": "-7.94208000",
    "longitude": "-35.89073000",
    "wikiDataId": null
  },
  {
    "id": 11915,
    "name": "Gameleira",
    "state_id": 2006,
    "state_code": "PE",
    "country_id": 31,
    "country_code": "BR",
    "latitude": "-8.58444000",
    "longitude": "-35.38667000",
    "wikiDataId": null
  },
  {
    "id": 11919,
    "name": "Garanhuns",
    "state_id": 2006,
    "state_code": "PE",
    "country_id": 31,
    "country_code": "BR",
    "latitude": "-8.88202000",
    "longitude": "-36.50216000",
    "wikiDataId": null
  },
  {
    "id": 11953,
    "name": "Glória do Goitá",
    "state_id": 2006,
    "state_code": "PE",
    "country_id": 31,
    "country_code": "BR",
    "latitude": "-8.03865000",
    "longitude": "-35.34006000",
    "wikiDataId": null
  },
  {
    "id": 11957,
    "name": "Goiana",
    "state_id": 2006,
    "state_code": "PE",
    "country_id": 31,
    "country_code": "BR",
    "latitude": "-7.56056000",
    "longitude": "-35.00250000",
    "wikiDataId": null
  },
  {
    "id": 11997,
    "name": "Granito",
    "state_id": 2006,
    "state_code": "PE",
    "country_id": 31,
    "country_code": "BR",
    "latitude": "-7.74380000",
    "longitude": "-39.64021000",
    "wikiDataId": null
  },
  {
    "id": 12002,
    "name": "Gravatá",
    "state_id": 2006,
    "state_code": "PE",
    "country_id": 31,
    "country_code": "BR",
    "latitude": "-8.20111000",
    "longitude": "-35.56472000",
    "wikiDataId": null
  },
  {
    "id": 12011,
    "name": "Guabiraba",
    "state_id": 2006,
    "state_code": "PE",
    "country_id": 31,
    "country_code": "BR",
    "latitude": "-8.41667000",
    "longitude": "-35.66667000",
    "wikiDataId": null
  },
  {
    "id": 12118,
    "name": "Iati",
    "state_id": 2006,
    "state_code": "PE",
    "country_id": 31,
    "country_code": "BR",
    "latitude": "-9.19129000",
    "longitude": "-36.94946000",
    "wikiDataId": null
  },
  {
    "id": 12139,
    "name": "Ibimirim",
    "state_id": 2006,
    "state_code": "PE",
    "country_id": 31,
    "country_code": "BR",
    "latitude": "-8.54056000",
    "longitude": "-37.69028000",
    "wikiDataId": null
  },
  {
    "id": 12147,
    "name": "Ibirajuba",
    "state_id": 2006,
    "state_code": "PE",
    "country_id": 31,
    "country_code": "BR",
    "latitude": "-8.61290000",
    "longitude": "-36.15399000",
    "wikiDataId": null
  },
  {
    "id": 12188,
    "name": "Igarassu",
    "state_id": 2006,
    "state_code": "PE",
    "country_id": 31,
    "country_code": "BR",
    "latitude": "-7.83417000",
    "longitude": "-34.90639000",
    "wikiDataId": null
  },
  {
    "id": 12197,
    "name": "Iguaraci",
    "state_id": 2006,
    "state_code": "PE",
    "country_id": 31,
    "country_code": "BR",
    "latitude": "-7.84183000",
    "longitude": "-37.40822000",
    "wikiDataId": null
  },
  {
    "id": 12211,
    "name": "Ilha de Itamaracá",
    "state_id": 2006,
    "state_code": "PE",
    "country_id": 31,
    "country_code": "BR",
    "latitude": "-7.74665000",
    "longitude": "-34.84728000",
    "wikiDataId": null
  },
  {
    "id": 12228,
    "name": "Inajá",
    "state_id": 2006,
    "state_code": "PE",
    "country_id": 31,
    "country_code": "BR",
    "latitude": "-8.78778000",
    "longitude": "-37.78853000",
    "wikiDataId": null
  },
  {
    "id": 12243,
    "name": "Ingazeira",
    "state_id": 2006,
    "state_code": "PE",
    "country_id": 31,
    "country_code": "BR",
    "latitude": "-7.71728000",
    "longitude": "-37.42461000",
    "wikiDataId": null
  },
  {
    "id": 12283,
    "name": "Ipojuca",
    "state_id": 2006,
    "state_code": "PE",
    "country_id": 31,
    "country_code": "BR",
    "latitude": "-8.39889000",
    "longitude": "-35.06389000",
    "wikiDataId": null
  },
  {
    "id": 12290,
    "name": "Ipubi",
    "state_id": 2006,
    "state_code": "PE",
    "country_id": 31,
    "country_code": "BR",
    "latitude": "-7.65194000",
    "longitude": "-40.14889000",
    "wikiDataId": null
  },
  {
    "id": 12344,
    "name": "Itacuruba",
    "state_id": 2006,
    "state_code": "PE",
    "country_id": 31,
    "country_code": "BR",
    "latitude": "-8.76952000",
    "longitude": "-38.71917000",
    "wikiDataId": null
  },
  {
    "id": 12467,
    "name": "Itaíba",
    "state_id": 2006,
    "state_code": "PE",
    "country_id": 31,
    "country_code": "BR",
    "latitude": "-8.94750000",
    "longitude": "-37.42278000",
    "wikiDataId": null
  },
  {
    "id": 12375,
    "name": "Itamaracá",
    "state_id": 2006,
    "state_code": "PE",
    "country_id": 31,
    "country_code": "BR",
    "latitude": "-7.74778000",
    "longitude": "-34.82556000",
    "wikiDataId": null
  },
  {
    "id": 12385,
    "name": "Itambé",
    "state_id": 2006,
    "state_code": "PE",
    "country_id": 31,
    "country_code": "BR",
    "latitude": "-7.44733000",
    "longitude": "-35.17356000",
    "wikiDataId": null
  },
  {
    "id": 12412,
    "name": "Itapetim",
    "state_id": 2006,
    "state_code": "PE",
    "country_id": 31,
    "country_code": "BR",
    "latitude": "-7.39642000",
    "longitude": "-37.13113000",
    "wikiDataId": null
  },
  {
    "id": 12426,
    "name": "Itapissuma",
    "state_id": 2006,
    "state_code": "PE",
    "country_id": 31,
    "country_code": "BR",
    "latitude": "-7.77639000",
    "longitude": "-34.89222000",
    "wikiDataId": null
  },
  {
    "id": 12446,
    "name": "Itaquitinga",
    "state_id": 2006,
    "state_code": "PE",
    "country_id": 31,
    "country_code": "BR",
    "latitude": "-7.66778000",
    "longitude": "-35.10167000",
    "wikiDataId": null
  },
  {
    "id": 12508,
    "name": "Jaboatão",
    "state_id": 2006,
    "state_code": "PE",
    "country_id": 31,
    "country_code": "BR",
    "latitude": "-8.18028000",
    "longitude": "-35.00139000",
    "wikiDataId": null
  },
  {
    "id": 12509,
    "name": "Jaboatão dos Guararapes",
    "state_id": 2006,
    "state_code": "PE",
    "country_id": 31,
    "country_code": "BR",
    "latitude": "-8.14568000",
    "longitude": "-34.97381000",
    "wikiDataId": null
  },
  {
    "id": 12577,
    "name": "Jaqueira",
    "state_id": 2006,
    "state_code": "PE",
    "country_id": 31,
    "country_code": "BR",
    "latitude": "-8.73880000",
    "longitude": "-35.79850000",
    "wikiDataId": null
  },
  {
    "id": 12599,
    "name": "Jataúba",
    "state_id": 2006,
    "state_code": "PE",
    "country_id": 31,
    "country_code": "BR",
    "latitude": "-8.05299000",
    "longitude": "-36.57103000",
    "wikiDataId": null
  },
  {
    "id": 12602,
    "name": "Jatobá",
    "state_id": 2006,
    "state_code": "PE",
    "country_id": 31,
    "country_code": "BR",
    "latitude": "-9.18306000",
    "longitude": "-38.26889000",
    "wikiDataId": null
  },
  {
    "id": 12657,
    "name": "João Alfredo",
    "state_id": 2006,
    "state_code": "PE",
    "country_id": 31,
    "country_code": "BR",
    "latitude": "-7.85583000",
    "longitude": "-35.58833000",
    "wikiDataId": null
  },
  {
    "id": 12638,
    "name": "Joaquim Nabuco",
    "state_id": 2006,
    "state_code": "PE",
    "country_id": 31,
    "country_code": "BR",
    "latitude": "-8.62444000",
    "longitude": "-35.53333000",
    "wikiDataId": null
  },
  {
    "id": 12676,
    "name": "Jucati",
    "state_id": 2006,
    "state_code": "PE",
    "country_id": 31,
    "country_code": "BR",
    "latitude": "-8.75067000",
    "longitude": "-36.47750000",
    "wikiDataId": null
  },
  {
    "id": 12690,
    "name": "Jupi",
    "state_id": 2006,
    "state_code": "PE",
    "country_id": 31,
    "country_code": "BR",
    "latitude": "-8.71547000",
    "longitude": "-36.39397000",
    "wikiDataId": null
  },
  {
    "id": 12697,
    "name": "Jurema",
    "state_id": 2006,
    "state_code": "PE",
    "country_id": 31,
    "country_code": "BR",
    "latitude": "-8.78579000",
    "longitude": "-36.13364000",
    "wikiDataId": null
  },
  {
    "id": 12753,
    "name": "Lagoa de Itaenga",
    "state_id": 2006,
    "state_code": "PE",
    "country_id": 31,
    "country_code": "BR",
    "latitude": "-7.90293000",
    "longitude": "-35.29323000",
    "wikiDataId": null
  },
  {
    "id": 12758,
    "name": "Lagoa do Carro",
    "state_id": 2006,
    "state_code": "PE",
    "country_id": 31,
    "country_code": "BR",
    "latitude": "-7.85419000",
    "longitude": "-35.33637000",
    "wikiDataId": null
  },
  {
    "id": 12759,
    "name": "Lagoa do Itaenga",
    "state_id": 2006,
    "state_code": "PE",
    "country_id": 31,
    "country_code": "BR",
    "latitude": "-7.93611000",
    "longitude": "-35.29028000",
    "wikiDataId": null
  },
  {
    "id": 12761,
    "name": "Lagoa do Ouro",
    "state_id": 2006,
    "state_code": "PE",
    "country_id": 31,
    "country_code": "BR",
    "latitude": "-9.16636000",
    "longitude": "-36.48221000",
    "wikiDataId": null
  },
  {
    "id": 12765,
    "name": "Lagoa dos Gatos",
    "state_id": 2006,
    "state_code": "PE",
    "country_id": 31,
    "country_code": "BR",
    "latitude": "-8.67965000",
    "longitude": "-35.88979000",
    "wikiDataId": null
  },
  {
    "id": 12738,
    "name": "Lagoa Grande",
    "state_id": 2006,
    "state_code": "PE",
    "country_id": 31,
    "country_code": "BR",
    "latitude": "-8.78698000",
    "longitude": "-40.25356000",
    "wikiDataId": null
  },
  {
    "id": 12781,
    "name": "Lajedo",
    "state_id": 2006,
    "state_code": "PE",
    "country_id": 31,
    "country_code": "BR",
    "latitude": "-8.66361000",
    "longitude": "-36.32000000",
    "wikiDataId": null
  },
  {
    "id": 12831,
    "name": "Limoeiro",
    "state_id": 2006,
    "state_code": "PE",
    "country_id": 31,
    "country_code": "BR",
    "latitude": "-7.85092000",
    "longitude": "-35.44512000",
    "wikiDataId": null
  },
  {
    "id": 12886,
    "name": "Macaparana",
    "state_id": 2006,
    "state_code": "PE",
    "country_id": 31,
    "country_code": "BR",
    "latitude": "-7.52866000",
    "longitude": "-35.44430000",
    "wikiDataId": null
  },
  {
    "id": 12901,
    "name": "Machados",
    "state_id": 2006,
    "state_code": "PE",
    "country_id": 31,
    "country_code": "BR",
    "latitude": "-7.71477000",
    "longitude": "-35.51882000",
    "wikiDataId": null
  },
  {
    "id": 12938,
    "name": "Manari",
    "state_id": 2006,
    "state_code": "PE",
    "country_id": 31,
    "country_code": "BR",
    "latitude": "-8.88175000",
    "longitude": "-37.58760000",
    "wikiDataId": null
  },
  {
    "id": 12975,
    "name": "Maraial",
    "state_id": 2006,
    "state_code": "PE",
    "country_id": 31,
    "country_code": "BR",
    "latitude": "-8.78250000",
    "longitude": "-35.80889000",
    "wikiDataId": null
  },
  {
    "id": 13140,
    "name": "Mirandiba",
    "state_id": 2006,
    "state_code": "PE",
    "country_id": 31,
    "country_code": "BR",
    "latitude": "-8.13454000",
    "longitude": "-38.74089000",
    "wikiDataId": null
  },
  {
    "id": 13230,
    "name": "Moreilândia",
    "state_id": 2006,
    "state_code": "PE",
    "country_id": 31,
    "country_code": "BR",
    "latitude": "-7.63092000",
    "longitude": "-39.52167000",
    "wikiDataId": null
  },
  {
    "id": 13232,
    "name": "Moreno",
    "state_id": 2006,
    "state_code": "PE",
    "country_id": 31,
    "country_code": "BR",
    "latitude": "-8.11861000",
    "longitude": "-35.09222000",
    "wikiDataId": null
  },
  {
    "id": 13313,
    "name": "Nazaré da Mata",
    "state_id": 2006,
    "state_code": "PE",
    "country_id": 31,
    "country_code": "BR",
    "latitude": "-7.74167000",
    "longitude": "-35.22778000",
    "wikiDataId": null
  },
  {
    "id": 13502,
    "name": "Olinda",
    "state_id": 2006,
    "state_code": "PE",
    "country_id": 31,
    "country_code": "BR",
    "latitude": "-8.00889000",
    "longitude": "-34.85528000",
    "wikiDataId": null
  },
  {
    "id": 13523,
    "name": "Orobó",
    "state_id": 2006,
    "state_code": "PE",
    "country_id": 31,
    "country_code": "BR",
    "latitude": "-7.74500000",
    "longitude": "-35.60222000",
    "wikiDataId": null
  },
  {
    "id": 13524,
    "name": "Orocó",
    "state_id": 2006,
    "state_code": "PE",
    "country_id": 31,
    "country_code": "BR",
    "latitude": "-8.49405000",
    "longitude": "-39.57790000",
    "wikiDataId": null
  },
  {
    "id": 13532,
    "name": "Ouricuri",
    "state_id": 2006,
    "state_code": "PE",
    "country_id": 31,
    "country_code": "BR",
    "latitude": "-7.88250000",
    "longitude": "-40.08167000",
    "wikiDataId": null
  },
  {
    "id": 13583,
    "name": "Palmares",
    "state_id": 2006,
    "state_code": "PE",
    "country_id": 31,
    "country_code": "BR",
    "latitude": "-8.68333000",
    "longitude": "-35.59167000",
    "wikiDataId": null
  },
  {
    "id": 13600,
    "name": "Palmeirina",
    "state_id": 2006,
    "state_code": "PE",
    "country_id": 31,
    "country_code": "BR",
    "latitude": "-9.02961000",
    "longitude": "-36.24198000",
    "wikiDataId": null
  },
  {
    "id": 13615,
    "name": "Panelas",
    "state_id": 2006,
    "state_code": "PE",
    "country_id": 31,
    "country_code": "BR",
    "latitude": "-8.66651000",
    "longitude": "-36.04783000",
    "wikiDataId": null
  },
  {
    "id": 13642,
    "name": "Paranatama",
    "state_id": 2006,
    "state_code": "PE",
    "country_id": 31,
    "country_code": "BR",
    "latitude": "-8.89811000",
    "longitude": "-36.68199000",
    "wikiDataId": null
  },
  {
    "id": 13679,
    "name": "Parnamirim",
    "state_id": 2006,
    "state_code": "PE",
    "country_id": 31,
    "country_code": "BR",
    "latitude": "-8.09056000",
    "longitude": "-39.57833000",
    "wikiDataId": null
  },
  {
    "id": 13695,
    "name": "Passira",
    "state_id": 2006,
    "state_code": "PE",
    "country_id": 31,
    "country_code": "BR",
    "latitude": "-7.99500000",
    "longitude": "-35.58056000",
    "wikiDataId": null
  },
  {
    "id": 13719,
    "name": "Paudalho",
    "state_id": 2006,
    "state_code": "PE",
    "country_id": 31,
    "country_code": "BR",
    "latitude": "-7.94302000",
    "longitude": "-35.13559000",
    "wikiDataId": null
  },
  {
    "id": 13725,
    "name": "Paulista",
    "state_id": 2006,
    "state_code": "PE",
    "country_id": 31,
    "country_code": "BR",
    "latitude": "-7.94083000",
    "longitude": "-34.87306000",
    "wikiDataId": null
  },
  {
    "id": 13745,
    "name": "Pedra",
    "state_id": 2006,
    "state_code": "PE",
    "country_id": 31,
    "country_code": "BR",
    "latitude": "-8.49694000",
    "longitude": "-36.94083000",
    "wikiDataId": null
  },
  {
    "id": 13816,
    "name": "Pesqueira",
    "state_id": 2006,
    "state_code": "PE",
    "country_id": 31,
    "country_code": "BR",
    "latitude": "-8.35778000",
    "longitude": "-36.69639000",
    "wikiDataId": null
  },
  {
    "id": 13819,
    "name": "Petrolândia",
    "state_id": 2006,
    "state_code": "PE",
    "country_id": 31,
    "country_code": "BR",
    "latitude": "-8.84265000",
    "longitude": "-38.30348000",
    "wikiDataId": null
  },
  {
    "id": 13817,
    "name": "Petrolina",
    "state_id": 2006,
    "state_code": "PE",
    "country_id": 31,
    "country_code": "BR",
    "latitude": "-9.39861000",
    "longitude": "-40.50083000",
    "wikiDataId": null
  },
  {
    "id": 14054,
    "name": "Poção",
    "state_id": 2006,
    "state_code": "PE",
    "country_id": 31,
    "country_code": "BR",
    "latitude": "-8.21385000",
    "longitude": "-36.72266000",
    "wikiDataId": null
  },
  {
    "id": 13952,
    "name": "Pombos",
    "state_id": 2006,
    "state_code": "PE",
    "country_id": 31,
    "country_code": "BR",
    "latitude": "-8.22536000",
    "longitude": "-35.41692000",
    "wikiDataId": null
  },
  {
    "id": 14101,
    "name": "Primavera",
    "state_id": 2006,
    "state_code": "PE",
    "country_id": 31,
    "country_code": "BR",
    "latitude": "-8.33678000",
    "longitude": "-35.37539000",
    "wikiDataId": null
  },
  {
    "id": 14153,
    "name": "Quipapá",
    "state_id": 2006,
    "state_code": "PE",
    "country_id": 31,
    "country_code": "BR",
    "latitude": "-8.82778000",
    "longitude": "-36.01167000",
    "wikiDataId": null
  },
  {
    "id": 14159,
    "name": "Quixaba",
    "state_id": 2006,
    "state_code": "PE",
    "country_id": 31,
    "country_code": "BR",
    "latitude": "-7.72105000",
    "longitude": "-37.87276000",
    "wikiDataId": null
  },
  {
    "id": 14179,
    "name": "Recife",
    "state_id": 2006,
    "state_code": "PE",
    "country_id": 31,
    "country_code": "BR",
    "latitude": "-8.05389000",
    "longitude": "-34.88111000",
    "wikiDataId": null
  },
  {
    "id": 14212,
    "name": "Riacho das Almas",
    "state_id": 2006,
    "state_code": "PE",
    "country_id": 31,
    "country_code": "BR",
    "latitude": "-8.05397000",
    "longitude": "-35.82633000",
    "wikiDataId": null
  },
  {
    "id": 14236,
    "name": "Ribeirão",
    "state_id": 2006,
    "state_code": "PE",
    "country_id": 31,
    "country_code": "BR",
    "latitude": "-8.50755000",
    "longitude": "-35.39342000",
    "wikiDataId": null
  },
  {
    "id": 14274,
    "name": "Rio Formoso",
    "state_id": 2006,
    "state_code": "PE",
    "country_id": 31,
    "country_code": "BR",
    "latitude": "-8.66877000",
    "longitude": "-35.16277000",
    "wikiDataId": null
  },
  {
    "id": 14375,
    "name": "Sairé",
    "state_id": 2006,
    "state_code": "PE",
    "country_id": 31,
    "country_code": "BR",
    "latitude": "-8.30128000",
    "longitude": "-35.68372000",
    "wikiDataId": null
  },
  {
    "id": 14381,
    "name": "Salgadinho",
    "state_id": 2006,
    "state_code": "PE",
    "country_id": 31,
    "country_code": "BR",
    "latitude": "-7.92406000",
    "longitude": "-35.59677000",
    "wikiDataId": null
  },
  {
    "id": 14386,
    "name": "Salgueiro",
    "state_id": 2006,
    "state_code": "PE",
    "country_id": 31,
    "country_code": "BR",
    "latitude": "-8.07417000",
    "longitude": "-39.11917000",
    "wikiDataId": null
  },
  {
    "id": 14392,
    "name": "Saloá",
    "state_id": 2006,
    "state_code": "PE",
    "country_id": 31,
    "country_code": "BR",
    "latitude": "-9.06487000",
    "longitude": "-36.76158000",
    "wikiDataId": null
  },
  {
    "id": 14415,
    "name": "Sanharó",
    "state_id": 2006,
    "state_code": "PE",
    "country_id": 31,
    "country_code": "BR",
    "latitude": "-8.29191000",
    "longitude": "-36.52169000",
    "wikiDataId": null
  },
  {
    "id": 14439,
    "name": "Santa Cruz",
    "state_id": 2006,
    "state_code": "PE",
    "country_id": 31,
    "country_code": "BR",
    "latitude": "-8.30615000",
    "longitude": "-40.31890000",
    "wikiDataId": null
  },
  {
    "id": 14442,
    "name": "Santa Cruz da Baixa Verde",
    "state_id": 2006,
    "state_code": "PE",
    "country_id": 31,
    "country_code": "BR",
    "latitude": "-7.84821000",
    "longitude": "-38.15341000",
    "wikiDataId": null
  },
  {
    "id": 14452,
    "name": "Santa Cruz do Capibaribe",
    "state_id": 2006,
    "state_code": "PE",
    "country_id": 31,
    "country_code": "BR",
    "latitude": "-7.95750000",
    "longitude": "-36.20472000",
    "wikiDataId": null
  },
  {
    "id": 14462,
    "name": "Santa Filomena",
    "state_id": 2006,
    "state_code": "PE",
    "country_id": 31,
    "country_code": "BR",
    "latitude": "-8.28797000",
    "longitude": "-40.59304000",
    "wikiDataId": null
  },
  {
    "id": 14505,
    "name": "Santa Maria da Boa Vista",
    "state_id": 2006,
    "state_code": "PE",
    "country_id": 31,
    "country_code": "BR",
    "latitude": "-8.80778000",
    "longitude": "-39.82556000",
    "wikiDataId": null
  },
  {
    "id": 14511,
    "name": "Santa Maria do Cambucá",
    "state_id": 2006,
    "state_code": "PE",
    "country_id": 31,
    "country_code": "BR",
    "latitude": "-7.81441000",
    "longitude": "-35.88175000",
    "wikiDataId": null
  },
  {
    "id": 14558,
    "name": "Santa Terezinha",
    "state_id": 2006,
    "state_code": "PE",
    "country_id": 31,
    "country_code": "BR",
    "latitude": "-7.42664000",
    "longitude": "-37.44422000",
    "wikiDataId": null
  },
  {
    "id": 14833,
    "name": "São Benedito do Sul",
    "state_id": 2006,
    "state_code": "PE",
    "country_id": 31,
    "country_code": "BR",
    "latitude": "-8.77212000",
    "longitude": "-35.90168000",
    "wikiDataId": null
  },
  {
    "id": 14843,
    "name": "São Bento do Una",
    "state_id": 2006,
    "state_code": "PE",
    "country_id": 31,
    "country_code": "BR",
    "latitude": "-8.53733000",
    "longitude": "-36.48122000",
    "wikiDataId": null
  },
  {
    "id": 14854,
    "name": "São Caitano",
    "state_id": 2006,
    "state_code": "PE",
    "country_id": 31,
    "country_code": "BR",
    "latitude": "-8.33931000",
    "longitude": "-36.16156000",
    "wikiDataId": null
  },
  {
    "id": 14999,
    "name": "São João",
    "state_id": 2006,
    "state_code": "PE",
    "country_id": 31,
    "country_code": "BR",
    "latitude": "-8.86322000",
    "longitude": "-36.39102000",
    "wikiDataId": null
  },
  {
    "id": 14933,
    "name": "São Joaquim do Monte",
    "state_id": 2006,
    "state_code": "PE",
    "country_id": 31,
    "country_code": "BR",
    "latitude": "-8.43250000",
    "longitude": "-35.80444000",
    "wikiDataId": null
  },
  {
    "id": 14942,
    "name": "São José da Coroa Grande",
    "state_id": 2006,
    "state_code": "PE",
    "country_id": 31,
    "country_code": "BR",
    "latitude": "-8.89778000",
    "longitude": "-35.14778000",
    "wikiDataId": null
  },
  {
    "id": 14961,
    "name": "São José do Belmonte",
    "state_id": 2006,
    "state_code": "PE",
    "country_id": 31,
    "country_code": "BR",
    "latitude": "-7.86139000",
    "longitude": "-38.75972000",
    "wikiDataId": null
  },
  {
    "id": 14970,
    "name": "São José do Egito",
    "state_id": 2006,
    "state_code": "PE",
    "country_id": 31,
    "country_code": "BR",
    "latitude": "-7.47889000",
    "longitude": "-37.27444000",
    "wikiDataId": null
  },
  {
    "id": 15053,
    "name": "São Lourenço da Mata",
    "state_id": 2006,
    "state_code": "PE",
    "country_id": 31,
    "country_code": "BR",
    "latitude": "-8.00222000",
    "longitude": "-35.01833000",
    "wikiDataId": null
  },
  {
    "id": 15171,
    "name": "São Vicente Férrer",
    "state_id": 2006,
    "state_code": "PE",
    "country_id": 31,
    "country_code": "BR",
    "latitude": "-7.60222000",
    "longitude": "-35.50216000",
    "wikiDataId": null
  },
  {
    "id": 14734,
    "name": "Serra Talhada",
    "state_id": 2006,
    "state_code": "PE",
    "country_id": 31,
    "country_code": "BR",
    "latitude": "-7.99194000",
    "longitude": "-38.29833000",
    "wikiDataId": null
  },
  {
    "id": 14754,
    "name": "Serrita",
    "state_id": 2006,
    "state_code": "PE",
    "country_id": 31,
    "country_code": "BR",
    "latitude": "-7.84008000",
    "longitude": "-39.40812000",
    "wikiDataId": null
  },
  {
    "id": 14759,
    "name": "Sertânia",
    "state_id": 2006,
    "state_code": "PE",
    "country_id": 31,
    "country_code": "BR",
    "latitude": "-8.07361000",
    "longitude": "-37.26444000",
    "wikiDataId": null
  },
  {
    "id": 14793,
    "name": "Sirinhaém",
    "state_id": 2006,
    "state_code": "PE",
    "country_id": 31,
    "country_code": "BR",
    "latitude": "-8.59083000",
    "longitude": "-35.11611000",
    "wikiDataId": null
  },
  {
    "id": 14805,
    "name": "Solidão",
    "state_id": 2006,
    "state_code": "PE",
    "country_id": 31,
    "country_code": "BR",
    "latitude": "-7.59117000",
    "longitude": "-37.65945000",
    "wikiDataId": null
  },
  {
    "id": 14826,
    "name": "Surubim",
    "state_id": 2006,
    "state_code": "PE",
    "country_id": 31,
    "country_code": "BR",
    "latitude": "-7.83306000",
    "longitude": "-35.75472000",
    "wikiDataId": null
  },
  {
    "id": 15187,
    "name": "Tabira",
    "state_id": 2006,
    "state_code": "PE",
    "country_id": 31,
    "country_code": "BR",
    "latitude": "-7.59075000",
    "longitude": "-37.49202000",
    "wikiDataId": null
  },
  {
    "id": 15193,
    "name": "Tacaimbó",
    "state_id": 2006,
    "state_code": "PE",
    "country_id": 31,
    "country_code": "BR",
    "latitude": "-8.32284000",
    "longitude": "-36.24711000",
    "wikiDataId": null
  },
  {
    "id": 15194,
    "name": "Tacaratu",
    "state_id": 2006,
    "state_code": "PE",
    "country_id": 31,
    "country_code": "BR",
    "latitude": "-8.95680000",
    "longitude": "-38.07649000",
    "wikiDataId": null
  },
  {
    "id": 15208,
    "name": "Tamandaré",
    "state_id": 2006,
    "state_code": "PE",
    "country_id": 31,
    "country_code": "BR",
    "latitude": "-8.74874000",
    "longitude": "-35.13941000",
    "wikiDataId": null
  },
  {
    "id": 15247,
    "name": "Taquaritinga do Norte",
    "state_id": 2006,
    "state_code": "PE",
    "country_id": 31,
    "country_code": "BR",
    "latitude": "-7.84571000",
    "longitude": "-36.12633000",
    "wikiDataId": null
  },
  {
    "id": 15287,
    "name": "Terezinha",
    "state_id": 2006,
    "state_code": "PE",
    "country_id": 31,
    "country_code": "BR",
    "latitude": "-9.08773000",
    "longitude": "-36.61210000",
    "wikiDataId": null
  },
  {
    "id": 15291,
    "name": "Terra Nova",
    "state_id": 2006,
    "state_code": "PE",
    "country_id": 31,
    "country_code": "BR",
    "latitude": "-8.16981000",
    "longitude": "-39.39098000",
    "wikiDataId": null
  },
  {
    "id": 15311,
    "name": "Timbaúba",
    "state_id": 2006,
    "state_code": "PE",
    "country_id": 31,
    "country_code": "BR",
    "latitude": "-7.53194000",
    "longitude": "-35.35625000",
    "wikiDataId": null
  },
  {
    "id": 15337,
    "name": "Toritama",
    "state_id": 2006,
    "state_code": "PE",
    "country_id": 31,
    "country_code": "BR",
    "latitude": "-7.99823000",
    "longitude": "-36.06332000",
    "wikiDataId": null
  },
  {
    "id": 15346,
    "name": "Tracunhaém",
    "state_id": 2006,
    "state_code": "PE",
    "country_id": 31,
    "country_code": "BR",
    "latitude": "-7.72460000",
    "longitude": "-35.15480000",
    "wikiDataId": null
  },
  {
    "id": 15360,
    "name": "Trindade",
    "state_id": 2006,
    "state_code": "PE",
    "country_id": 31,
    "country_code": "BR",
    "latitude": "-7.78327000",
    "longitude": "-40.33408000",
    "wikiDataId": null
  },
  {
    "id": 15363,
    "name": "Triunfo",
    "state_id": 2006,
    "state_code": "PE",
    "country_id": 31,
    "country_code": "BR",
    "latitude": "-7.84766000",
    "longitude": "-38.05176000",
    "wikiDataId": null
  },
  {
    "id": 15399,
    "name": "Tupanatinga",
    "state_id": 2006,
    "state_code": "PE",
    "country_id": 31,
    "country_code": "BR",
    "latitude": "-8.67328000",
    "longitude": "-37.34532000",
    "wikiDataId": null
  },
  {
    "id": 15404,
    "name": "Tuparetama",
    "state_id": 2006,
    "state_code": "PE",
    "country_id": 31,
    "country_code": "BR",
    "latitude": "-7.71335000",
    "longitude": "-37.24523000",
    "wikiDataId": null
  },
  {
    "id": 15529,
    "name": "Venturosa",
    "state_id": 2006,
    "state_code": "PE",
    "country_id": 31,
    "country_code": "BR",
    "latitude": "-8.60330000",
    "longitude": "-36.79818000",
    "wikiDataId": null
  },
  {
    "id": 15539,
    "name": "Verdejante",
    "state_id": 2006,
    "state_code": "PE",
    "country_id": 31,
    "country_code": "BR",
    "latitude": "-7.98470000",
    "longitude": "-38.99816000",
    "wikiDataId": null
  },
  {
    "id": 15544,
    "name": "Vertente do Lério",
    "state_id": 2006,
    "state_code": "PE",
    "country_id": 31,
    "country_code": "BR",
    "latitude": "-7.78986000",
    "longitude": "-35.80318000",
    "wikiDataId": null
  },
  {
    "id": 15545,
    "name": "Vertentes",
    "state_id": 2006,
    "state_code": "PE",
    "country_id": 31,
    "country_code": "BR",
    "latitude": "-7.90936000",
    "longitude": "-35.97775000",
    "wikiDataId": null
  },
  {
    "id": 15559,
    "name": "Vicência",
    "state_id": 2006,
    "state_code": "PE",
    "country_id": 31,
    "country_code": "BR",
    "latitude": "-7.65645000",
    "longitude": "-35.39117000",
    "wikiDataId": null
  },
  {
    "id": 15601,
    "name": "Vitória de Santo Antão",
    "state_id": 2006,
    "state_code": "PE",
    "country_id": 31,
    "country_code": "BR",
    "latitude": "-8.11806000",
    "longitude": "-35.29139000",
    "wikiDataId": null
  },
  {
    "id": 15640,
    "name": "Xexéu",
    "state_id": 2006,
    "state_code": "PE",
    "country_id": 31,
    "country_code": "BR",
    "latitude": "-8.86469000",
    "longitude": "-35.64275000",
    "wikiDataId": null
  }
]