[
  {
    "id": 89933,
    "name": "Alimănești",
    "state_id": 4738,
    "state_code": "OT",
    "country_id": 181,
    "country_code": "RO",
    "latitude": "44.25693000",
    "longitude": "24.53895000",
    "wikiDataId": null
  },
  {
    "id": 89942,
    "name": "Alunișu",
    "state_id": 4738,
    "state_code": "OT",
    "country_id": 181,
    "country_code": "RO",
    "latitude": "44.71667000",
    "longitude": "24.55000000",
    "wikiDataId": null
  },
  {
    "id": 90472,
    "name": "Băbiciu",
    "state_id": 4738,
    "state_code": "OT",
    "country_id": 181,
    "country_code": "RO",
    "latitude": "44.03333000",
    "longitude": "24.56667000",
    "wikiDataId": null
  },
  {
    "id": 90021,
    "name": "Bacea",
    "state_id": 4738,
    "state_code": "OT",
    "country_id": 181,
    "country_code": "RO",
    "latitude": "44.39824000",
    "longitude": "24.63759000",
    "wikiDataId": null
  },
  {
    "id": 90524,
    "name": "Bălănești",
    "state_id": 4738,
    "state_code": "OT",
    "country_id": 181,
    "country_code": "RO",
    "latitude": "44.24970000",
    "longitude": "24.48216000",
    "wikiDataId": null
  },
  {
    "id": 90041,
    "name": "Baldovineşti",
    "state_id": 4738,
    "state_code": "OT",
    "country_id": 181,
    "country_code": "RO",
    "latitude": "44.38333000",
    "longitude": "24.05000000",
    "wikiDataId": null
  },
  {
    "id": 90050,
    "name": "Balş",
    "state_id": 4738,
    "state_code": "OT",
    "country_id": 181,
    "country_code": "RO",
    "latitude": "44.35000000",
    "longitude": "24.10000000",
    "wikiDataId": null
  },
  {
    "id": 90515,
    "name": "Bălteni",
    "state_id": 4738,
    "state_code": "OT",
    "country_id": 181,
    "country_code": "RO",
    "latitude": "44.44755430",
    "longitude": "24.53643730",
    "wikiDataId": null
  },
  {
    "id": 90549,
    "name": "Bărăștii de Vede",
    "state_id": 4738,
    "state_code": "OT",
    "country_id": 181,
    "country_code": "RO",
    "latitude": "44.71601000",
    "longitude": "24.65919000",
    "wikiDataId": null
  },
  {
    "id": 90065,
    "name": "Barza",
    "state_id": 4738,
    "state_code": "OT",
    "country_id": 181,
    "country_code": "RO",
    "latitude": "44.33333000",
    "longitude": "24.78333000",
    "wikiDataId": null
  },
  {
    "id": 90140,
    "name": "Bircii",
    "state_id": 4738,
    "state_code": "OT",
    "country_id": 181,
    "country_code": "RO",
    "latitude": "44.51673000",
    "longitude": "24.60324000",
    "wikiDataId": null
  },
  {
    "id": 90168,
    "name": "Bobiceşti",
    "state_id": 4738,
    "state_code": "OT",
    "country_id": 181,
    "country_code": "RO",
    "latitude": "44.38333000",
    "longitude": "24.15000000",
    "wikiDataId": null
  },
  {
    "id": 90320,
    "name": "Brâncoveni",
    "state_id": 4738,
    "state_code": "OT",
    "country_id": 181,
    "country_code": "RO",
    "latitude": "44.31667000",
    "longitude": "24.30000000",
    "wikiDataId": null
  },
  {
    "id": 90267,
    "name": "Braneț",
    "state_id": 4738,
    "state_code": "OT",
    "country_id": 181,
    "country_code": "RO",
    "latitude": "44.32576000",
    "longitude": "24.17792000",
    "wikiDataId": null
  },
  {
    "id": 90273,
    "name": "Brastavățu",
    "state_id": 4738,
    "state_code": "OT",
    "country_id": 181,
    "country_code": "RO",
    "latitude": "43.90634000",
    "longitude": "24.40784000",
    "wikiDataId": null
  },
  {
    "id": 90291,
    "name": "Brebeni",
    "state_id": 4738,
    "state_code": "OT",
    "country_id": 181,
    "country_code": "RO",
    "latitude": "44.36667000",
    "longitude": "24.45000000",
    "wikiDataId": null
  },
  {
    "id": 90349,
    "name": "Bucinişu",
    "state_id": 4738,
    "state_code": "OT",
    "country_id": 181,
    "country_code": "RO",
    "latitude": "43.95000000",
    "longitude": "24.25000000",
    "wikiDataId": null
  },
  {
    "id": 90437,
    "name": "Bușca",
    "state_id": 4738,
    "state_code": "OT",
    "country_id": 181,
    "country_code": "RO",
    "latitude": "44.11166000",
    "longitude": "24.80238000",
    "wikiDataId": null
  },
  {
    "id": 93841,
    "name": "Călinești",
    "state_id": 4738,
    "state_code": "OT",
    "country_id": 181,
    "country_code": "RO",
    "latitude": "44.07727000",
    "longitude": "24.68796000",
    "wikiDataId": null
  },
  {
    "id": 93847,
    "name": "Călui",
    "state_id": 4738,
    "state_code": "OT",
    "country_id": 181,
    "country_code": "RO",
    "latitude": "44.45297000",
    "longitude": "24.06360000",
    "wikiDataId": null
  },
  {
    "id": 90572,
    "name": "Caracal",
    "state_id": 4738,
    "state_code": "OT",
    "country_id": 181,
    "country_code": "RO",
    "latitude": "44.11667000",
    "longitude": "24.35000000",
    "wikiDataId": null
  },
  {
    "id": 93816,
    "name": "Cârlogani",
    "state_id": 4738,
    "state_code": "OT",
    "country_id": 181,
    "country_code": "RO",
    "latitude": "44.51667000",
    "longitude": "24.15000000",
    "wikiDataId": null
  },
  {
    "id": 90590,
    "name": "Catanele",
    "state_id": 4738,
    "state_code": "OT",
    "country_id": 181,
    "country_code": "RO",
    "latitude": "44.38199000",
    "longitude": "24.56145000",
    "wikiDataId": null
  },
  {
    "id": 90616,
    "name": "Cepari",
    "state_id": 4738,
    "state_code": "OT",
    "country_id": 181,
    "country_code": "RO",
    "latitude": "44.49733000",
    "longitude": "24.17122000",
    "wikiDataId": null
  },
  {
    "id": 90651,
    "name": "Cezieni",
    "state_id": 4738,
    "state_code": "OT",
    "country_id": 181,
    "country_code": "RO",
    "latitude": "44.18333000",
    "longitude": "24.26667000",
    "wikiDataId": null
  },
  {
    "id": 90702,
    "name": "Cilieni",
    "state_id": 4738,
    "state_code": "OT",
    "country_id": 181,
    "country_code": "RO",
    "latitude": "43.90000000",
    "longitude": "24.61667000",
    "wikiDataId": null
  },
  {
    "id": 90798,
    "name": "Coloneşti",
    "state_id": 4738,
    "state_code": "OT",
    "country_id": 181,
    "country_code": "RO",
    "latitude": "44.65000000",
    "longitude": "24.66667000",
    "wikiDataId": null
  },
  {
    "id": 90807,
    "name": "Comanca",
    "state_id": 4738,
    "state_code": "OT",
    "country_id": 181,
    "country_code": "RO",
    "latitude": "44.07790000",
    "longitude": "24.35863000",
    "wikiDataId": null
  },
  {
    "id": 90810,
    "name": "Comani",
    "state_id": 4738,
    "state_code": "OT",
    "country_id": 181,
    "country_code": "RO",
    "latitude": "44.18286000",
    "longitude": "24.49160000",
    "wikiDataId": null
  },
  {
    "id": 91201,
    "name": "Comuna Băbiciu",
    "state_id": 4738,
    "state_code": "OT",
    "country_id": 181,
    "country_code": "RO",
    "latitude": "44.03230000",
    "longitude": "24.56533000",
    "wikiDataId": null
  },
  {
    "id": 90925,
    "name": "Comuna Baldovineşti",
    "state_id": 4738,
    "state_code": "OT",
    "country_id": 181,
    "country_code": "RO",
    "latitude": "44.39195000",
    "longitude": "24.03898000",
    "wikiDataId": null
  },
  {
    "id": 91198,
    "name": "Comuna Bãrãşti",
    "state_id": 4738,
    "state_code": "OT",
    "country_id": 181,
    "country_code": "RO",
    "latitude": "44.70852000",
    "longitude": "24.64470000",
    "wikiDataId": null
  },
  {
    "id": 91196,
    "name": "Comuna Bârza",
    "state_id": 4738,
    "state_code": "OT",
    "country_id": 181,
    "country_code": "RO",
    "latitude": "44.32693000",
    "longitude": "24.15990000",
    "wikiDataId": null
  },
  {
    "id": 91011,
    "name": "Comuna Bobiceşti",
    "state_id": 4738,
    "state_code": "OT",
    "country_id": 181,
    "country_code": "RO",
    "latitude": "44.39321000",
    "longitude": "24.14215000",
    "wikiDataId": null
  },
  {
    "id": 91110,
    "name": "Comuna Brâncoveni",
    "state_id": 4738,
    "state_code": "OT",
    "country_id": 181,
    "country_code": "RO",
    "latitude": "44.31488000",
    "longitude": "24.32941000",
    "wikiDataId": null
  },
  {
    "id": 91081,
    "name": "Comuna Brastavăţu",
    "state_id": 4738,
    "state_code": "OT",
    "country_id": 181,
    "country_code": "RO",
    "latitude": "43.91553000",
    "longitude": "24.41135000",
    "wikiDataId": null
  },
  {
    "id": 91091,
    "name": "Comuna Brebeni",
    "state_id": 4738,
    "state_code": "OT",
    "country_id": 181,
    "country_code": "RO",
    "latitude": "44.35956000",
    "longitude": "24.44360000",
    "wikiDataId": null
  },
  {
    "id": 91128,
    "name": "Comuna Bucinişu",
    "state_id": 4738,
    "state_code": "OT",
    "country_id": 181,
    "country_code": "RO",
    "latitude": "43.94202000",
    "longitude": "24.25463000",
    "wikiDataId": null
  },
  {
    "id": 91562,
    "name": "Comuna Cãlui",
    "state_id": 4738,
    "state_code": "OT",
    "country_id": 181,
    "country_code": "RO",
    "latitude": "44.45600000",
    "longitude": "24.04953000",
    "wikiDataId": null
  },
  {
    "id": 91553,
    "name": "Comuna Cârlogani",
    "state_id": 4738,
    "state_code": "OT",
    "country_id": 181,
    "country_code": "RO",
    "latitude": "44.51990000",
    "longitude": "24.16007000",
    "wikiDataId": null
  },
  {
    "id": 91307,
    "name": "Comuna Cezieni",
    "state_id": 4738,
    "state_code": "OT",
    "country_id": 181,
    "country_code": "RO",
    "latitude": "44.18245000",
    "longitude": "24.26846000",
    "wikiDataId": null
  },
  {
    "id": 91337,
    "name": "Comuna Cilieni",
    "state_id": 4738,
    "state_code": "OT",
    "country_id": 181,
    "country_code": "RO",
    "latitude": "43.90206000",
    "longitude": "24.61470000",
    "wikiDataId": null
  },
  {
    "id": 91399,
    "name": "Comuna Coloneşti",
    "state_id": 4738,
    "state_code": "OT",
    "country_id": 181,
    "country_code": "RO",
    "latitude": "44.62345000",
    "longitude": "24.67666000",
    "wikiDataId": null
  },
  {
    "id": 91428,
    "name": "Comuna Corbu",
    "state_id": 4738,
    "state_code": "OT",
    "country_id": 181,
    "country_code": "RO",
    "latitude": "44.45514000",
    "longitude": "24.71639000",
    "wikiDataId": null
  },
  {
    "id": 91463,
    "name": "Comuna Coteana",
    "state_id": 4738,
    "state_code": "OT",
    "country_id": 181,
    "country_code": "RO",
    "latitude": "44.30133000",
    "longitude": "24.46638000",
    "wikiDataId": null
  },
  {
    "id": 91512,
    "name": "Comuna Crâmpoia",
    "state_id": 4738,
    "state_code": "OT",
    "country_id": 181,
    "country_code": "RO",
    "latitude": "44.30513000",
    "longitude": "24.72742000",
    "wikiDataId": null
  },
  {
    "id": 91525,
    "name": "Comuna Cungrea",
    "state_id": 4738,
    "state_code": "OT",
    "country_id": 181,
    "country_code": "RO",
    "latitude": "44.68497000",
    "longitude": "24.39274000",
    "wikiDataId": null
  },
  {
    "id": 91530,
    "name": "Comuna Curtişoara",
    "state_id": 4738,
    "state_code": "OT",
    "country_id": 181,
    "country_code": "RO",
    "latitude": "44.48175000",
    "longitude": "24.34214000",
    "wikiDataId": null
  },
  {
    "id": 91737,
    "name": "Comuna Dăneasa",
    "state_id": 4738,
    "state_code": "OT",
    "country_id": 181,
    "country_code": "RO",
    "latitude": "44.11390000",
    "longitude": "24.56597000",
    "wikiDataId": null
  },
  {
    "id": 91620,
    "name": "Comuna Deveselu",
    "state_id": 4738,
    "state_code": "OT",
    "country_id": 181,
    "country_code": "RO",
    "latitude": "44.06569000",
    "longitude": "24.37351000",
    "wikiDataId": null
  },
  {
    "id": 91638,
    "name": "Comuna Dobreţu",
    "state_id": 4738,
    "state_code": "OT",
    "country_id": 181,
    "country_code": "RO",
    "latitude": "44.49164000",
    "longitude": "23.95302000",
    "wikiDataId": null
  },
  {
    "id": 91640,
    "name": "Comuna Dobrosloveni",
    "state_id": 4738,
    "state_code": "OT",
    "country_id": 181,
    "country_code": "RO",
    "latitude": "44.17356000",
    "longitude": "24.36558000",
    "wikiDataId": null
  },
  {
    "id": 91641,
    "name": "Comuna Dobroteasa",
    "state_id": 4738,
    "state_code": "OT",
    "country_id": 181,
    "country_code": "RO",
    "latitude": "44.77107000",
    "longitude": "24.32810000",
    "wikiDataId": null
  },
  {
    "id": 91645,
    "name": "Comuna Dobrun",
    "state_id": 4738,
    "state_code": "OT",
    "country_id": 181,
    "country_code": "RO",
    "latitude": "44.25323000",
    "longitude": "24.23299000",
    "wikiDataId": null
  },
  {
    "id": 91688,
    "name": "Comuna Drăghiceni",
    "state_id": 4738,
    "state_code": "OT",
    "country_id": 181,
    "country_code": "RO",
    "latitude": "44.12694000",
    "longitude": "24.25611000",
    "wikiDataId": null
  },
  {
    "id": 91819,
    "name": "Comuna Făgeţelu",
    "state_id": 4738,
    "state_code": "OT",
    "country_id": 181,
    "country_code": "RO",
    "latitude": "44.78429000",
    "longitude": "24.54421000",
    "wikiDataId": null
  },
  {
    "id": 91821,
    "name": "Comuna Fălcoiu",
    "state_id": 4738,
    "state_code": "OT",
    "country_id": 181,
    "country_code": "RO",
    "latitude": "44.23774000",
    "longitude": "24.37601000",
    "wikiDataId": null
  },
  {
    "id": 91824,
    "name": "Comuna Fărcaşele",
    "state_id": 4738,
    "state_code": "OT",
    "country_id": 181,
    "country_code": "RO",
    "latitude": "44.15057000",
    "longitude": "24.43283000",
    "wikiDataId": null
  },
  {
    "id": 91986,
    "name": "Comuna Găneasa",
    "state_id": 4738,
    "state_code": "OT",
    "country_id": 181,
    "country_code": "RO",
    "latitude": "44.42129000",
    "longitude": "24.26774000",
    "wikiDataId": null
  },
  {
    "id": 91970,
    "name": "Comuna Gârcov",
    "state_id": 4738,
    "state_code": "OT",
    "country_id": 181,
    "country_code": "RO",
    "latitude": "43.77342000",
    "longitude": "24.62709000",
    "wikiDataId": null
  },
  {
    "id": 91988,
    "name": "Comuna Găvăneşti",
    "state_id": 4738,
    "state_code": "OT",
    "country_id": 181,
    "country_code": "RO",
    "latitude": "44.41403000",
    "longitude": "24.00867000",
    "wikiDataId": null
  },
  {
    "id": 91857,
    "name": "Comuna Ghimpeţeni",
    "state_id": 4738,
    "state_code": "OT",
    "country_id": 181,
    "country_code": "RO",
    "latitude": "44.29002000",
    "longitude": "24.78303000",
    "wikiDataId": null
  },
  {
    "id": 91878,
    "name": "Comuna Giuvărăşti",
    "state_id": 4738,
    "state_code": "OT",
    "country_id": 181,
    "country_code": "RO",
    "latitude": "43.79412000",
    "longitude": "24.68729000",
    "wikiDataId": null
  },
  {
    "id": 91906,
    "name": "Comuna Gostavăţu",
    "state_id": 4738,
    "state_code": "OT",
    "country_id": 181,
    "country_code": "RO",
    "latitude": "44.08028000",
    "longitude": "24.53283000",
    "wikiDataId": null
  },
  {
    "id": 91933,
    "name": "Comuna Grãdinari",
    "state_id": 4738,
    "state_code": "OT",
    "country_id": 181,
    "country_code": "RO",
    "latitude": "44.56736000",
    "longitude": "24.27761000",
    "wikiDataId": null
  },
  {
    "id": 91934,
    "name": "Comuna Grãdinile",
    "state_id": 4738,
    "state_code": "OT",
    "country_id": 181,
    "country_code": "RO",
    "latitude": "43.94973000",
    "longitude": "24.39228000",
    "wikiDataId": null
  },
  {
    "id": 91923,
    "name": "Comuna Grojdibodu",
    "state_id": 4738,
    "state_code": "OT",
    "country_id": 181,
    "country_code": "RO",
    "latitude": "43.75562000",
    "longitude": "24.26073000",
    "wikiDataId": null
  },
  {
    "id": 91950,
    "name": "Comuna Gura Padinii",
    "state_id": 4738,
    "state_code": "OT",
    "country_id": 181,
    "country_code": "RO",
    "latitude": "43.76276000",
    "longitude": "24.31690000",
    "wikiDataId": null
  },
  {
    "id": 92053,
    "name": "Comuna Ianca",
    "state_id": 4738,
    "state_code": "OT",
    "country_id": 181,
    "country_code": "RO",
    "latitude": "43.77472000",
    "longitude": "24.19165000",
    "wikiDataId": null
  },
  {
    "id": 92054,
    "name": "Comuna Iancu Jianu",
    "state_id": 4738,
    "state_code": "OT",
    "country_id": 181,
    "country_code": "RO",
    "latitude": "44.51807000",
    "longitude": "24.01257000",
    "wikiDataId": null
  },
  {
    "id": 92060,
    "name": "Comuna Icoana",
    "state_id": 4738,
    "state_code": "OT",
    "country_id": 181,
    "country_code": "RO",
    "latitude": "44.40682000",
    "longitude": "24.72551000",
    "wikiDataId": null
  },
  {
    "id": 92101,
    "name": "Comuna Izbiceni",
    "state_id": 4738,
    "state_code": "OT",
    "country_id": 181,
    "country_code": "RO",
    "latitude": "43.82418000",
    "longitude": "24.66415000",
    "wikiDataId": null
  },
  {
    "id": 92104,
    "name": "Comuna Izvoarele",
    "state_id": 4738,
    "state_code": "OT",
    "country_id": 181,
    "country_code": "RO",
    "latitude": "44.25958000",
    "longitude": "24.53144000",
    "wikiDataId": null
  },
  {
    "id": 92145,
    "name": "Comuna Leleasca",
    "state_id": 4738,
    "state_code": "OT",
    "country_id": 181,
    "country_code": "RO",
    "latitude": "44.75768000",
    "longitude": "24.43708000",
    "wikiDataId": null
  },
  {
    "id": 92415,
    "name": "Comuna Mărunţei",
    "state_id": 4738,
    "state_code": "OT",
    "country_id": 181,
    "country_code": "RO",
    "latitude": "44.23679000",
    "longitude": "24.46583000",
    "wikiDataId": null
  },
  {
    "id": 92279,
    "name": "Comuna Mihăeşti",
    "state_id": 4738,
    "state_code": "OT",
    "country_id": 181,
    "country_code": "RO",
    "latitude": "44.11870000",
    "longitude": "24.79663000",
    "wikiDataId": null
  },
  {
    "id": 92289,
    "name": "Comuna Milcov",
    "state_id": 4738,
    "state_code": "OT",
    "country_id": 181,
    "country_code": "RO",
    "latitude": "44.37396000",
    "longitude": "24.38004000",
    "wikiDataId": null
  },
  {
    "id": 92334,
    "name": "Comuna Morunglav",
    "state_id": 4738,
    "state_code": "OT",
    "country_id": 181,
    "country_code": "RO",
    "latitude": "44.47266000",
    "longitude": "24.11686000",
    "wikiDataId": null
  },
  {
    "id": 92342,
    "name": "Comuna Movileni",
    "state_id": 4738,
    "state_code": "OT",
    "country_id": 181,
    "country_code": "RO",
    "latitude": "44.38368000",
    "longitude": "24.64075000",
    "wikiDataId": null
  },
  {
    "id": 92443,
    "name": "Comuna Nicolae Titulescu",
    "state_id": 4738,
    "state_code": "OT",
    "country_id": 181,
    "country_code": "RO",
    "latitude": "44.27008000",
    "longitude": "24.75897000",
    "wikiDataId": null
  },
  {
    "id": 92473,
    "name": "Comuna Obârşia",
    "state_id": 4738,
    "state_code": "OT",
    "country_id": 181,
    "country_code": "RO",
    "latitude": "43.89063000",
    "longitude": "24.32188000",
    "wikiDataId": null
  },
  {
    "id": 92470,
    "name": "Comuna Oboga",
    "state_id": 4738,
    "state_code": "OT",
    "country_id": 181,
    "country_code": "RO",
    "latitude": "44.42448000",
    "longitude": "24.08724000",
    "wikiDataId": null
  },
  {
    "id": 92502,
    "name": "Comuna Oporelu",
    "state_id": 4738,
    "state_code": "OT",
    "country_id": 181,
    "country_code": "RO",
    "latitude": "44.58682000",
    "longitude": "24.42410000",
    "wikiDataId": null
  },
  {
    "id": 92504,
    "name": "Comuna Optaşi-Mãgura",
    "state_id": 4738,
    "state_code": "OT",
    "country_id": 181,
    "country_code": "RO",
    "latitude": "44.57944000",
    "longitude": "24.65183000",
    "wikiDataId": null
  },
  {
    "id": 92509,
    "name": "Comuna Orlea",
    "state_id": 4738,
    "state_code": "OT",
    "country_id": 181,
    "country_code": "RO",
    "latitude": "43.75430000",
    "longitude": "24.36775000",
    "wikiDataId": null
  },
  {
    "id": 92515,
    "name": "Comuna Osica de Jos",
    "state_id": 4738,
    "state_code": "OT",
    "country_id": 181,
    "country_code": "RO",
    "latitude": "44.23800000",
    "longitude": "24.29502000",
    "wikiDataId": null
  },
  {
    "id": 92516,
    "name": "Comuna Osica de Sus",
    "state_id": 4738,
    "state_code": "OT",
    "country_id": 181,
    "country_code": "RO",
    "latitude": "44.27268000",
    "longitude": "24.33730000",
    "wikiDataId": null
  },
  {
    "id": 92709,
    "name": "Comuna Pârşcoveni",
    "state_id": 4738,
    "state_code": "OT",
    "country_id": 181,
    "country_code": "RO",
    "latitude": "44.29678000",
    "longitude": "24.21836000",
    "wikiDataId": null
  },
  {
    "id": 92552,
    "name": "Comuna Perieţi",
    "state_id": 4738,
    "state_code": "OT",
    "country_id": 181,
    "country_code": "RO",
    "latitude": "44.40468000",
    "longitude": "24.55611000",
    "wikiDataId": null
  },
  {
    "id": 92595,
    "name": "Comuna Pleşoiu",
    "state_id": 4738,
    "state_code": "OT",
    "country_id": 181,
    "country_code": "RO",
    "latitude": "44.48165000",
    "longitude": "24.24212000",
    "wikiDataId": null
  },
  {
    "id": 92608,
    "name": "Comuna Poboru",
    "state_id": 4738,
    "state_code": "OT",
    "country_id": 181,
    "country_code": "RO",
    "latitude": "44.68335000",
    "longitude": "24.48678000",
    "wikiDataId": null
  },
  {
    "id": 92677,
    "name": "Comuna Priseaca",
    "state_id": 4738,
    "state_code": "OT",
    "country_id": 181,
    "country_code": "RO",
    "latitude": "44.51206000",
    "longitude": "24.43787000",
    "wikiDataId": null
  },
  {
    "id": 92742,
    "name": "Comuna Radomireşti",
    "state_id": 4738,
    "state_code": "OT",
    "country_id": 181,
    "country_code": "RO",
    "latitude": "44.11049000",
    "longitude": "24.67816000",
    "wikiDataId": null
  },
  {
    "id": 92758,
    "name": "Comuna Redea",
    "state_id": 4738,
    "state_code": "OT",
    "country_id": 181,
    "country_code": "RO",
    "latitude": "44.04157000",
    "longitude": "24.30677000",
    "wikiDataId": null
  },
  {
    "id": 92792,
    "name": "Comuna Rotunda",
    "state_id": 4738,
    "state_code": "OT",
    "country_id": 181,
    "country_code": "RO",
    "latitude": "43.98427000",
    "longitude": "24.31402000",
    "wikiDataId": null
  },
  {
    "id": 92816,
    "name": "Comuna Rusăneşti",
    "state_id": 4738,
    "state_code": "OT",
    "country_id": 181,
    "country_code": "RO",
    "latitude": "43.94385000",
    "longitude": "24.59498000",
    "wikiDataId": null
  },
  {
    "id": 93045,
    "name": "Comuna Sâmbureşti",
    "state_id": 4738,
    "state_code": "OT",
    "country_id": 181,
    "country_code": "RO",
    "latitude": "44.81131000",
    "longitude": "24.39922000",
    "wikiDataId": null
  },
  {
    "id": 92906,
    "name": "Comuna Scărişoara",
    "state_id": 4738,
    "state_code": "OT",
    "country_id": 181,
    "country_code": "RO",
    "latitude": "43.98528000",
    "longitude": "24.58333000",
    "wikiDataId": null
  },
  {
    "id": 92887,
    "name": "Comuna Schitu",
    "state_id": 4738,
    "state_code": "OT",
    "country_id": 181,
    "country_code": "RO",
    "latitude": "44.35679000",
    "longitude": "24.55926000",
    "wikiDataId": null
  },
  {
    "id": 92907,
    "name": "Comuna Seaca",
    "state_id": 4738,
    "state_code": "OT",
    "country_id": 181,
    "country_code": "RO",
    "latitude": "44.15159000",
    "longitude": "24.76149000",
    "wikiDataId": null
  },
  {
    "id": 93509,
    "name": "Comuna Şerbăneşti",
    "state_id": 4738,
    "state_code": "OT",
    "country_id": 181,
    "country_code": "RO",
    "latitude": "44.33607000",
    "longitude": "24.68782000",
    "wikiDataId": null
  },
  {
    "id": 92961,
    "name": "Comuna Slătioara",
    "state_id": 4738,
    "state_code": "OT",
    "country_id": 181,
    "country_code": "RO",
    "latitude": "44.41545000",
    "longitude": "24.32082000",
    "wikiDataId": null
  },
  {
    "id": 93542,
    "name": "Comuna Şopârliţa",
    "state_id": 4738,
    "state_code": "OT",
    "country_id": 181,
    "country_code": "RO",
    "latitude": "44.27705000",
    "longitude": "24.27743000",
    "wikiDataId": null
  },
  {
    "id": 92982,
    "name": "Comuna Spineni",
    "state_id": 4738,
    "state_code": "OT",
    "country_id": 181,
    "country_code": "RO",
    "latitude": "44.71808000",
    "longitude": "24.55897000",
    "wikiDataId": null
  },
  {
    "id": 92984,
    "name": "Comuna Sprâncenata",
    "state_id": 4738,
    "state_code": "OT",
    "country_id": 181,
    "country_code": "RO",
    "latitude": "44.06110000",
    "longitude": "24.63984000",
    "wikiDataId": null
  },
  {
    "id": 93549,
    "name": "Comuna Ştefan cel Mare",
    "state_id": 4738,
    "state_code": "OT",
    "country_id": 181,
    "country_code": "RO",
    "latitude": "43.81174000",
    "longitude": "24.22262000",
    "wikiDataId": null
  },
  {
    "id": 92991,
    "name": "Comuna Stoeneşti",
    "state_id": 4738,
    "state_code": "OT",
    "country_id": 181,
    "country_code": "RO",
    "latitude": "44.11675000",
    "longitude": "24.49720000",
    "wikiDataId": null
  },
  {
    "id": 92995,
    "name": "Comuna Stoicăneşti",
    "state_id": 4738,
    "state_code": "OT",
    "country_id": 181,
    "country_code": "RO",
    "latitude": "44.18568000",
    "longitude": "24.64267000",
    "wikiDataId": null
  },
  {
    "id": 93002,
    "name": "Comuna Strejeşti",
    "state_id": 4738,
    "state_code": "OT",
    "country_id": 181,
    "country_code": "RO",
    "latitude": "44.52733000",
    "longitude": "24.27036000",
    "wikiDataId": null
  },
  {
    "id": 93010,
    "name": "Comuna Studina",
    "state_id": 4738,
    "state_code": "OT",
    "country_id": 181,
    "country_code": "RO",
    "latitude": "43.96784000",
    "longitude": "24.42136000",
    "wikiDataId": null
  },
  {
    "id": 93243,
    "name": "Comuna Tătuleşti",
    "state_id": 4738,
    "state_code": "OT",
    "country_id": 181,
    "country_code": "RO",
    "latitude": "44.66386000",
    "longitude": "24.61405000",
    "wikiDataId": null
  },
  {
    "id": 93144,
    "name": "Comuna Teslui",
    "state_id": 4738,
    "state_code": "OT",
    "country_id": 181,
    "country_code": "RO",
    "latitude": "44.51316000",
    "longitude": "24.35600000",
    "wikiDataId": null
  },
  {
    "id": 93147,
    "name": "Comuna Tia Mare",
    "state_id": 4738,
    "state_code": "OT",
    "country_id": 181,
    "country_code": "RO",
    "latitude": "43.86417000",
    "longitude": "24.63883000",
    "wikiDataId": null
  },
  {
    "id": 93174,
    "name": "Comuna Topana",
    "state_id": 4738,
    "state_code": "OT",
    "country_id": 181,
    "country_code": "RO",
    "latitude": "44.84319000",
    "longitude": "24.52827000",
    "wikiDataId": null
  },
  {
    "id": 93186,
    "name": "Comuna Traian",
    "state_id": 4738,
    "state_code": "OT",
    "country_id": 181,
    "country_code": "RO",
    "latitude": "44.02337000",
    "longitude": "24.45586000",
    "wikiDataId": null
  },
  {
    "id": 93201,
    "name": "Comuna Tufeni",
    "state_id": 4738,
    "state_code": "OT",
    "country_id": 181,
    "country_code": "RO",
    "latitude": "44.34718000",
    "longitude": "24.78986000",
    "wikiDataId": null
  },
  {
    "id": 93285,
    "name": "Comuna Urzica",
    "state_id": 4738,
    "state_code": "OT",
    "country_id": 181,
    "country_code": "RO",
    "latitude": "43.86055000",
    "longitude": "24.27497000",
    "wikiDataId": null
  },
  {
    "id": 93453,
    "name": "Comuna Vădastra",
    "state_id": 4738,
    "state_code": "OT",
    "country_id": 181,
    "country_code": "RO",
    "latitude": "43.86497000",
    "longitude": "24.38069000",
    "wikiDataId": null
  },
  {
    "id": 93455,
    "name": "Comuna Vădăstriţa",
    "state_id": 4738,
    "state_code": "OT",
    "country_id": 181,
    "country_code": "RO",
    "latitude": "43.84531000",
    "longitude": "24.34017000",
    "wikiDataId": null
  },
  {
    "id": 93427,
    "name": "Comuna Vâlcele",
    "state_id": 4738,
    "state_code": "OT",
    "country_id": 181,
    "country_code": "RO",
    "latitude": "44.28923000",
    "longitude": "24.54968000",
    "wikiDataId": null
  },
  {
    "id": 93312,
    "name": "Comuna Valea Mare",
    "state_id": 4738,
    "state_code": "OT",
    "country_id": 181,
    "country_code": "RO",
    "latitude": "44.44188000",
    "longitude": "24.46120000",
    "wikiDataId": null
  },
  {
    "id": 93459,
    "name": "Comuna Văleni",
    "state_id": 4738,
    "state_code": "OT",
    "country_id": 181,
    "country_code": "RO",
    "latitude": "44.21882000",
    "longitude": "24.79748000",
    "wikiDataId": null
  },
  {
    "id": 93344,
    "name": "Comuna Verguleasa",
    "state_id": 4738,
    "state_code": "OT",
    "country_id": 181,
    "country_code": "RO",
    "latitude": "44.64128000",
    "longitude": "24.34234000",
    "wikiDataId": null
  },
  {
    "id": 93377,
    "name": "Comuna Vişina",
    "state_id": 4738,
    "state_code": "OT",
    "country_id": 181,
    "country_code": "RO",
    "latitude": "43.86618000",
    "longitude": "24.45469000",
    "wikiDataId": null
  },
  {
    "id": 93370,
    "name": "Comuna Vitomireşti",
    "state_id": 4738,
    "state_code": "OT",
    "country_id": 181,
    "country_code": "RO",
    "latitude": "44.85194000",
    "longitude": "24.37704000",
    "wikiDataId": null
  },
  {
    "id": 93392,
    "name": "Comuna Vlădila",
    "state_id": 4738,
    "state_code": "OT",
    "country_id": 181,
    "country_code": "RO",
    "latitude": "44.00114000",
    "longitude": "24.40993000",
    "wikiDataId": null
  },
  {
    "id": 93396,
    "name": "Comuna Voineasa",
    "state_id": 4738,
    "state_code": "OT",
    "country_id": 181,
    "country_code": "RO",
    "latitude": "44.28949000",
    "longitude": "24.15529000",
    "wikiDataId": null
  },
  {
    "id": 93415,
    "name": "Comuna Vulpeni",
    "state_id": 4738,
    "state_code": "OT",
    "country_id": 181,
    "country_code": "RO",
    "latitude": "44.45854000",
    "longitude": "23.92718000",
    "wikiDataId": null
  },
  {
    "id": 93419,
    "name": "Comuna Vultureşti",
    "state_id": 4738,
    "state_code": "OT",
    "country_id": 181,
    "country_code": "RO",
    "latitude": "44.72993000",
    "longitude": "24.33354000",
    "wikiDataId": null
  },
  {
    "id": 93610,
    "name": "Corabia",
    "state_id": 4738,
    "state_code": "OT",
    "country_id": 181,
    "country_code": "RO",
    "latitude": "43.77513000",
    "longitude": "24.50146000",
    "wikiDataId": null
  },
  {
    "id": 93617,
    "name": "Corbu",
    "state_id": 4738,
    "state_code": "OT",
    "country_id": 181,
    "country_code": "RO",
    "latitude": "44.48333000",
    "longitude": "24.71667000",
    "wikiDataId": null
  },
  {
    "id": 93672,
    "name": "Coteana",
    "state_id": 4738,
    "state_code": "OT",
    "country_id": 181,
    "country_code": "RO",
    "latitude": "44.30000000",
    "longitude": "24.46667000",
    "wikiDataId": null
  },
  {
    "id": 93750,
    "name": "Crăciunei",
    "state_id": 4738,
    "state_code": "OT",
    "country_id": 181,
    "country_code": "RO",
    "latitude": "44.14575000",
    "longitude": "24.66309000",
    "wikiDataId": null
  },
  {
    "id": 93746,
    "name": "Crâmpoia",
    "state_id": 4738,
    "state_code": "OT",
    "country_id": 181,
    "country_code": "RO",
    "latitude": "44.30215000",
    "longitude": "24.74513000",
    "wikiDataId": null
  },
  {
    "id": 93745,
    "name": "Crușovu",
    "state_id": 4738,
    "state_code": "OT",
    "country_id": 181,
    "country_code": "RO",
    "latitude": "43.92473000",
    "longitude": "24.41486000",
    "wikiDataId": null
  },
  {
    "id": 93770,
    "name": "Cungrea",
    "state_id": 4738,
    "state_code": "OT",
    "country_id": 181,
    "country_code": "RO",
    "latitude": "44.66667000",
    "longitude": "24.38333000",
    "wikiDataId": null
  },
  {
    "id": 93777,
    "name": "Curtişoara",
    "state_id": 4738,
    "state_code": "OT",
    "country_id": 181,
    "country_code": "RO",
    "latitude": "44.50000000",
    "longitude": "24.33333000",
    "wikiDataId": null
  },
  {
    "id": 94125,
    "name": "Dăneasa",
    "state_id": 4738,
    "state_code": "OT",
    "country_id": 181,
    "country_code": "RO",
    "latitude": "44.15000000",
    "longitude": "24.56667000",
    "wikiDataId": null
  },
  {
    "id": 93912,
    "name": "Dejești",
    "state_id": 4738,
    "state_code": "OT",
    "country_id": 181,
    "country_code": "RO",
    "latitude": "44.83093000",
    "longitude": "24.35648000",
    "wikiDataId": null
  },
  {
    "id": 93930,
    "name": "Deveselu",
    "state_id": 4738,
    "state_code": "OT",
    "country_id": 181,
    "country_code": "RO",
    "latitude": "44.06667000",
    "longitude": "24.38333000",
    "wikiDataId": null
  },
  {
    "id": 93943,
    "name": "Doanca",
    "state_id": 4738,
    "state_code": "OT",
    "country_id": 181,
    "country_code": "RO",
    "latitude": "43.84870000",
    "longitude": "24.64949000",
    "wikiDataId": null
  },
  {
    "id": 93956,
    "name": "Dobreţu",
    "state_id": 4738,
    "state_code": "OT",
    "country_id": 181,
    "country_code": "RO",
    "latitude": "44.50000000",
    "longitude": "23.95000000",
    "wikiDataId": null
  },
  {
    "id": 93963,
    "name": "Dobrosloveni",
    "state_id": 4738,
    "state_code": "OT",
    "country_id": 181,
    "country_code": "RO",
    "latitude": "44.18333000",
    "longitude": "24.36667000",
    "wikiDataId": null
  },
  {
    "id": 93964,
    "name": "Dobroteasa",
    "state_id": 4738,
    "state_code": "OT",
    "country_id": 181,
    "country_code": "RO",
    "latitude": "44.78333000",
    "longitude": "24.38333000",
    "wikiDataId": null
  },
  {
    "id": 93967,
    "name": "Dobrotinet",
    "state_id": 4738,
    "state_code": "OT",
    "country_id": 181,
    "country_code": "RO",
    "latitude": "44.47957000",
    "longitude": "24.34730000",
    "wikiDataId": null
  },
  {
    "id": 93970,
    "name": "Dobrun",
    "state_id": 4738,
    "state_code": "OT",
    "country_id": 181,
    "country_code": "RO",
    "latitude": "44.26667000",
    "longitude": "24.21667000",
    "wikiDataId": null
  },
  {
    "id": 94061,
    "name": "Drăgăneşti-Olt",
    "state_id": 4738,
    "state_code": "OT",
    "country_id": 181,
    "country_code": "RO",
    "latitude": "44.16667000",
    "longitude": "24.53333000",
    "wikiDataId": null
  },
  {
    "id": 94038,
    "name": "Drăghiceni",
    "state_id": 4738,
    "state_code": "OT",
    "country_id": 181,
    "country_code": "RO",
    "latitude": "44.13333000",
    "longitude": "24.25000000",
    "wikiDataId": null
  },
  {
    "id": 94028,
    "name": "Dranovățu",
    "state_id": 4738,
    "state_code": "OT",
    "country_id": 181,
    "country_code": "RO",
    "latitude": "44.43619000",
    "longitude": "24.27894000",
    "wikiDataId": null
  },
  {
    "id": 94098,
    "name": "Dumitrești",
    "state_id": 4738,
    "state_code": "OT",
    "country_id": 181,
    "country_code": "RO",
    "latitude": "44.68370000",
    "longitude": "24.31628000",
    "wikiDataId": null
  },
  {
    "id": 94255,
    "name": "Făgeţelu",
    "state_id": 4738,
    "state_code": "OT",
    "country_id": 181,
    "country_code": "RO",
    "latitude": "44.78333000",
    "longitude": "24.53333000",
    "wikiDataId": null
  },
  {
    "id": 94258,
    "name": "Fălcoiu",
    "state_id": 4738,
    "state_code": "OT",
    "country_id": 181,
    "country_code": "RO",
    "latitude": "44.23333000",
    "longitude": "24.36667000",
    "wikiDataId": null
  },
  {
    "id": 94262,
    "name": "Fărcaşele",
    "state_id": 4738,
    "state_code": "OT",
    "country_id": 181,
    "country_code": "RO",
    "latitude": "44.15000000",
    "longitude": "24.43333000",
    "wikiDataId": null
  },
  {
    "id": 94264,
    "name": "Fărcașu de Jos",
    "state_id": 4738,
    "state_code": "OT",
    "country_id": 181,
    "country_code": "RO",
    "latitude": "44.13539000",
    "longitude": "24.45901000",
    "wikiDataId": null
  },
  {
    "id": 94509,
    "name": "Găneasa",
    "state_id": 4738,
    "state_code": "OT",
    "country_id": 181,
    "country_code": "RO",
    "latitude": "44.41667000",
    "longitude": "24.28333000",
    "wikiDataId": null
  },
  {
    "id": 94488,
    "name": "Gârcov",
    "state_id": 4738,
    "state_code": "OT",
    "country_id": 181,
    "country_code": "RO",
    "latitude": "43.75910000",
    "longitude": "24.61577000",
    "wikiDataId": null
  },
  {
    "id": 94516,
    "name": "Găvănești",
    "state_id": 4738,
    "state_code": "OT",
    "country_id": 181,
    "country_code": "RO",
    "latitude": "44.41724000",
    "longitude": "24.01654000",
    "wikiDataId": null
  },
  {
    "id": 94324,
    "name": "Ghimpați",
    "state_id": 4738,
    "state_code": "OT",
    "country_id": 181,
    "country_code": "RO",
    "latitude": "44.15359000",
    "longitude": "24.42698000",
    "wikiDataId": null
  },
  {
    "id": 94326,
    "name": "Ghimpețeni",
    "state_id": 4738,
    "state_code": "OT",
    "country_id": 181,
    "country_code": "RO",
    "latitude": "44.28101000",
    "longitude": "24.77458000",
    "wikiDataId": null
  },
  {
    "id": 94331,
    "name": "Ghioca",
    "state_id": 4738,
    "state_code": "OT",
    "country_id": 181,
    "country_code": "RO",
    "latitude": "44.31667000",
    "longitude": "24.73333000",
    "wikiDataId": null
  },
  {
    "id": 94356,
    "name": "Giuvărăşti",
    "state_id": 4738,
    "state_code": "OT",
    "country_id": 181,
    "country_code": "RO",
    "latitude": "43.80000000",
    "longitude": "24.70000000",
    "wikiDataId": null
  },
  {
    "id": 94392,
    "name": "Gostavăţu",
    "state_id": 4738,
    "state_code": "OT",
    "country_id": 181,
    "country_code": "RO",
    "latitude": "44.08333000",
    "longitude": "24.53333000",
    "wikiDataId": null
  },
  {
    "id": 94434,
    "name": "Grădinari",
    "state_id": 4738,
    "state_code": "OT",
    "country_id": 181,
    "country_code": "RO",
    "latitude": "44.56667000",
    "longitude": "24.26667000",
    "wikiDataId": null
  },
  {
    "id": 94410,
    "name": "Greci",
    "state_id": 4738,
    "state_code": "OT",
    "country_id": 181,
    "country_code": "RO",
    "latitude": "44.33025000",
    "longitude": "24.55923000",
    "wikiDataId": null
  },
  {
    "id": 94418,
    "name": "Grojdibodu",
    "state_id": 4738,
    "state_code": "OT",
    "country_id": 181,
    "country_code": "RO",
    "latitude": "43.75000000",
    "longitude": "24.26667000",
    "wikiDataId": null
  },
  {
    "id": 94421,
    "name": "Gropșani",
    "state_id": 4738,
    "state_code": "OT",
    "country_id": 181,
    "country_code": "RO",
    "latitude": "44.44072000",
    "longitude": "23.97047000",
    "wikiDataId": null
  },
  {
    "id": 94452,
    "name": "Gura Căluiu",
    "state_id": 4738,
    "state_code": "OT",
    "country_id": 181,
    "country_code": "RO",
    "latitude": "44.45903000",
    "longitude": "24.03547000",
    "wikiDataId": null
  },
  {
    "id": 94457,
    "name": "Gura Padinii",
    "state_id": 4738,
    "state_code": "OT",
    "country_id": 181,
    "country_code": "RO",
    "latitude": "43.75704000",
    "longitude": "24.31615000",
    "wikiDataId": null
  },
  {
    "id": 94619,
    "name": "Ianca",
    "state_id": 4738,
    "state_code": "OT",
    "country_id": 181,
    "country_code": "RO",
    "latitude": "43.78333000",
    "longitude": "24.18333000",
    "wikiDataId": null
  },
  {
    "id": 94621,
    "name": "Iancu Jianu",
    "state_id": 4738,
    "state_code": "OT",
    "country_id": 181,
    "country_code": "RO",
    "latitude": "44.50000000",
    "longitude": "24.03333000",
    "wikiDataId": null
  },
  {
    "id": 94635,
    "name": "Icoana",
    "state_id": 4738,
    "state_code": "OT",
    "country_id": 181,
    "country_code": "RO",
    "latitude": "44.41667000",
    "longitude": "24.71667000",
    "wikiDataId": null
  },
  {
    "id": 94685,
    "name": "Ipotești",
    "state_id": 4738,
    "state_code": "OT",
    "country_id": 181,
    "country_code": "RO",
    "latitude": "44.31560420",
    "longitude": "24.39841530",
    "wikiDataId": null
  },
  {
    "id": 94699,
    "name": "Izbiceni",
    "state_id": 4738,
    "state_code": "OT",
    "country_id": 181,
    "country_code": "RO",
    "latitude": "43.83333000",
    "longitude": "24.65000000",
    "wikiDataId": null
  },
  {
    "id": 94704,
    "name": "Izvoarele",
    "state_id": 4738,
    "state_code": "OT",
    "country_id": 181,
    "country_code": "RO",
    "latitude": "44.26667000",
    "longitude": "24.51667000",
    "wikiDataId": null
  },
  {
    "id": 94734,
    "name": "Jieni",
    "state_id": 4738,
    "state_code": "OT",
    "country_id": 181,
    "country_code": "RO",
    "latitude": "43.95095000",
    "longitude": "24.59349000",
    "wikiDataId": null
  },
  {
    "id": 94772,
    "name": "Leleasca",
    "state_id": 4738,
    "state_code": "OT",
    "country_id": 181,
    "country_code": "RO",
    "latitude": "44.78333000",
    "longitude": "24.43333000",
    "wikiDataId": null
  },
  {
    "id": 95270,
    "name": "Mărgineni Slobozia",
    "state_id": 4738,
    "state_code": "OT",
    "country_id": 181,
    "country_code": "RO",
    "latitude": "44.53121000",
    "longitude": "24.55675000",
    "wikiDataId": null
  },
  {
    "id": 95282,
    "name": "Mărunţei",
    "state_id": 4738,
    "state_code": "OT",
    "country_id": 181,
    "country_code": "RO",
    "latitude": "44.20000000",
    "longitude": "24.46667000",
    "wikiDataId": null
  },
  {
    "id": 94989,
    "name": "Mihăeşti",
    "state_id": 4738,
    "state_code": "OT",
    "country_id": 181,
    "country_code": "RO",
    "latitude": "44.13333000",
    "longitude": "24.78333000",
    "wikiDataId": null
  },
  {
    "id": 95074,
    "name": "Morunglav",
    "state_id": 4738,
    "state_code": "OT",
    "country_id": 181,
    "country_code": "RO",
    "latitude": "44.46667000",
    "longitude": "24.11667000",
    "wikiDataId": null
  },
  {
    "id": 95082,
    "name": "Movileni",
    "state_id": 4738,
    "state_code": "OT",
    "country_id": 181,
    "country_code": "RO",
    "latitude": "44.36667000",
    "longitude": "24.65000000",
    "wikiDataId": null
  },
  {
    "id": 95123,
    "name": "Municipiul Caracal",
    "state_id": 4738,
    "state_code": "OT",
    "country_id": 181,
    "country_code": "RO",
    "latitude": "44.11273000",
    "longitude": "24.35089000",
    "wikiDataId": null
  },
  {
    "id": 95183,
    "name": "Municipiul Slatina",
    "state_id": 4738,
    "state_code": "OT",
    "country_id": 181,
    "country_code": "RO",
    "latitude": "44.44276000",
    "longitude": "24.36745000",
    "wikiDataId": null
  },
  {
    "id": 95315,
    "name": "Negreni",
    "state_id": 4738,
    "state_code": "OT",
    "country_id": 181,
    "country_code": "RO",
    "latitude": "44.56848000",
    "longitude": "24.59535000",
    "wikiDataId": null
  },
  {
    "id": 95339,
    "name": "Nicolae Titulescu",
    "state_id": 4738,
    "state_code": "OT",
    "country_id": 181,
    "country_code": "RO",
    "latitude": "44.30000000",
    "longitude": "24.80000000",
    "wikiDataId": null
  },
  {
    "id": 95389,
    "name": "Obârşia",
    "state_id": 4738,
    "state_code": "OT",
    "country_id": 181,
    "country_code": "RO",
    "latitude": "43.88333000",
    "longitude": "24.33333000",
    "wikiDataId": null
  },
  {
    "id": 95386,
    "name": "Oboga",
    "state_id": 4738,
    "state_code": "OT",
    "country_id": 181,
    "country_code": "RO",
    "latitude": "44.41667000",
    "longitude": "24.10000000",
    "wikiDataId": null
  },
  {
    "id": 95425,
    "name": "Olari",
    "state_id": 4738,
    "state_code": "OT",
    "country_id": 181,
    "country_code": "RO",
    "latitude": "44.30783000",
    "longitude": "24.20857000",
    "wikiDataId": null
  },
  {
    "id": 95442,
    "name": "Oporelu",
    "state_id": 4738,
    "state_code": "OT",
    "country_id": 181,
    "country_code": "RO",
    "latitude": "44.60000000",
    "longitude": "24.41667000",
    "wikiDataId": null
  },
  {
    "id": 95444,
    "name": "Optaşi",
    "state_id": 4738,
    "state_code": "OT",
    "country_id": 181,
    "country_code": "RO",
    "latitude": "44.58333000",
    "longitude": "24.65000000",
    "wikiDataId": null
  },
  {
    "id": 95457,
    "name": "Oraş Balş",
    "state_id": 4738,
    "state_code": "OT",
    "country_id": 181,
    "country_code": "RO",
    "latitude": "44.36546000",
    "longitude": "24.11321000",
    "wikiDataId": null
  },
  {
    "id": 95498,
    "name": "Oraş Corabia",
    "state_id": 4738,
    "state_code": "OT",
    "country_id": 181,
    "country_code": "RO",
    "latitude": "43.80248000",
    "longitude": "24.47028000",
    "wikiDataId": null
  },
  {
    "id": 95510,
    "name": "Oraş Drãgãneşti-Olt",
    "state_id": 4738,
    "state_code": "OT",
    "country_id": 181,
    "country_code": "RO",
    "latitude": "44.17618000",
    "longitude": "24.50836000",
    "wikiDataId": null
  },
  {
    "id": 95567,
    "name": "Oraş Piatra-Olt",
    "state_id": 4738,
    "state_code": "OT",
    "country_id": 181,
    "country_code": "RO",
    "latitude": "44.37560000",
    "longitude": "24.28332000",
    "wikiDataId": null
  },
  {
    "id": 95572,
    "name": "Oraş Potcoava",
    "state_id": 4738,
    "state_code": "OT",
    "country_id": 181,
    "country_code": "RO",
    "latitude": "44.47992000",
    "longitude": "24.64172000",
    "wikiDataId": null
  },
  {
    "id": 95584,
    "name": "Oraş Scorniceşti",
    "state_id": 4738,
    "state_code": "OT",
    "country_id": 181,
    "country_code": "RO",
    "latitude": "44.56790000",
    "longitude": "24.55394000",
    "wikiDataId": null
  },
  {
    "id": 95659,
    "name": "Orlea",
    "state_id": 4738,
    "state_code": "OT",
    "country_id": 181,
    "country_code": "RO",
    "latitude": "43.75000000",
    "longitude": "24.38333000",
    "wikiDataId": null
  },
  {
    "id": 95660,
    "name": "Orlea Nouă",
    "state_id": 4738,
    "state_code": "OT",
    "country_id": 181,
    "country_code": "RO",
    "latitude": "43.75522000",
    "longitude": "24.35834000",
    "wikiDataId": null
  },
  {
    "id": 95672,
    "name": "Osica de Jos",
    "state_id": 4738,
    "state_code": "OT",
    "country_id": 181,
    "country_code": "RO",
    "latitude": "44.24439000",
    "longitude": "24.27926000",
    "wikiDataId": null
  },
  {
    "id": 95673,
    "name": "Osica de Sus",
    "state_id": 4738,
    "state_code": "OT",
    "country_id": 181,
    "country_code": "RO",
    "latitude": "44.25000000",
    "longitude": "24.31667000",
    "wikiDataId": null
  },
  {
    "id": 96003,
    "name": "Pârşcoveni",
    "state_id": 4738,
    "state_code": "OT",
    "country_id": 181,
    "country_code": "RO",
    "latitude": "44.30000000",
    "longitude": "24.23333000",
    "wikiDataId": null
  },
  {
    "id": 95733,
    "name": "Perieţi",
    "state_id": 4738,
    "state_code": "OT",
    "country_id": 181,
    "country_code": "RO",
    "latitude": "44.40000000",
    "longitude": "24.55000000",
    "wikiDataId": null
  },
  {
    "id": 95768,
    "name": "Piatra",
    "state_id": 4738,
    "state_code": "OT",
    "country_id": 181,
    "country_code": "RO",
    "latitude": "44.36054000",
    "longitude": "24.29557000",
    "wikiDataId": null
  },
  {
    "id": 95772,
    "name": "Piatra Olt",
    "state_id": 4738,
    "state_code": "OT",
    "country_id": 181,
    "country_code": "RO",
    "latitude": "44.36667000",
    "longitude": "24.26667000",
    "wikiDataId": null
  },
  {
    "id": 95812,
    "name": "Pleşoiu",
    "state_id": 4738,
    "state_code": "OT",
    "country_id": 181,
    "country_code": "RO",
    "latitude": "44.46667000",
    "longitude": "24.26667000",
    "wikiDataId": null
  },
  {
    "id": 95837,
    "name": "Poboru",
    "state_id": 4738,
    "state_code": "OT",
    "country_id": 181,
    "country_code": "RO",
    "latitude": "44.66667000",
    "longitude": "24.50000000",
    "wikiDataId": null
  },
  {
    "id": 95928,
    "name": "Potcoava",
    "state_id": 4738,
    "state_code": "OT",
    "country_id": 181,
    "country_code": "RO",
    "latitude": "44.48333000",
    "longitude": "24.65000000",
    "wikiDataId": null
  },
  {
    "id": 95929,
    "name": "Potcoava Fălcoeni",
    "state_id": 4738,
    "state_code": "OT",
    "country_id": 181,
    "country_code": "RO",
    "latitude": "44.49484000",
    "longitude": "24.61650000",
    "wikiDataId": null
  },
  {
    "id": 95930,
    "name": "Potelu",
    "state_id": 4738,
    "state_code": "OT",
    "country_id": 181,
    "country_code": "RO",
    "latitude": "43.76577000",
    "longitude": "24.20535000",
    "wikiDataId": null
  },
  {
    "id": 95932,
    "name": "Potlogeni",
    "state_id": 4738,
    "state_code": "OT",
    "country_id": 181,
    "country_code": "RO",
    "latitude": "43.87995000",
    "longitude": "24.63092000",
    "wikiDataId": null
  },
  {
    "id": 95954,
    "name": "Priseaca",
    "state_id": 4738,
    "state_code": "OT",
    "country_id": 181,
    "country_code": "RO",
    "latitude": "44.51667000",
    "longitude": "24.45000000",
    "wikiDataId": null
  },
  {
    "id": 96053,
    "name": "Radomireşti",
    "state_id": 4738,
    "state_code": "OT",
    "country_id": 181,
    "country_code": "RO",
    "latitude": "44.11667000",
    "longitude": "24.68333000",
    "wikiDataId": null
  },
  {
    "id": 96074,
    "name": "Redea",
    "state_id": 4738,
    "state_code": "OT",
    "country_id": 181,
    "country_code": "RO",
    "latitude": "44.05000000",
    "longitude": "24.30000000",
    "wikiDataId": null
  },
  {
    "id": 96121,
    "name": "Rotunda",
    "state_id": 4738,
    "state_code": "OT",
    "country_id": 181,
    "country_code": "RO",
    "latitude": "43.98333000",
    "longitude": "24.31667000",
    "wikiDataId": null
  },
  {
    "id": 96162,
    "name": "Rusăneşti",
    "state_id": 4738,
    "state_code": "OT",
    "country_id": 181,
    "country_code": "RO",
    "latitude": "43.93333000",
    "longitude": "24.60000000",
    "wikiDataId": null
  },
  {
    "id": 96518,
    "name": "Sâmbureşti",
    "state_id": 4738,
    "state_code": "OT",
    "country_id": 181,
    "country_code": "RO",
    "latitude": "44.80000000",
    "longitude": "24.41667000",
    "wikiDataId": null
  },
  {
    "id": 96297,
    "name": "Scărişoara",
    "state_id": 4738,
    "state_code": "OT",
    "country_id": 181,
    "country_code": "RO",
    "latitude": "44.00000000",
    "longitude": "24.56667000",
    "wikiDataId": null
  },
  {
    "id": 96269,
    "name": "Schitu",
    "state_id": 4738,
    "state_code": "OT",
    "country_id": 181,
    "country_code": "RO",
    "latitude": "44.35000000",
    "longitude": "24.56667000",
    "wikiDataId": null
  },
  {
    "id": 96278,
    "name": "Scorniceşti",
    "state_id": 4738,
    "state_code": "OT",
    "country_id": 181,
    "country_code": "RO",
    "latitude": "44.56667000",
    "longitude": "24.55000000",
    "wikiDataId": null
  },
  {
    "id": 96298,
    "name": "Seaca",
    "state_id": 4738,
    "state_code": "OT",
    "country_id": 181,
    "country_code": "RO",
    "latitude": "44.16667000",
    "longitude": "24.75000000",
    "wikiDataId": null
  },
  {
    "id": 97039,
    "name": "Şerbăneşti",
    "state_id": 4738,
    "state_code": "OT",
    "country_id": 181,
    "country_code": "RO",
    "latitude": "44.33333000",
    "longitude": "24.70000000",
    "wikiDataId": null
  },
  {
    "id": 96354,
    "name": "Sinești",
    "state_id": 4738,
    "state_code": "OT",
    "country_id": 181,
    "country_code": "RO",
    "latitude": "44.46777000",
    "longitude": "24.66585000",
    "wikiDataId": null
  },
  {
    "id": 96361,
    "name": "Slatina",
    "state_id": 4738,
    "state_code": "OT",
    "country_id": 181,
    "country_code": "RO",
    "latitude": "44.43333000",
    "longitude": "24.36667000",
    "wikiDataId": null
  },
  {
    "id": 96384,
    "name": "Slătioara",
    "state_id": 4738,
    "state_code": "OT",
    "country_id": 181,
    "country_code": "RO",
    "latitude": "44.40000000",
    "longitude": "24.31667000",
    "wikiDataId": null
  },
  {
    "id": 96385,
    "name": "Slăveni",
    "state_id": 4738,
    "state_code": "OT",
    "country_id": 181,
    "country_code": "RO",
    "latitude": "44.08558000",
    "longitude": "24.52843000",
    "wikiDataId": null
  },
  {
    "id": 97072,
    "name": "Şopârliţa",
    "state_id": 4738,
    "state_code": "OT",
    "country_id": 181,
    "country_code": "RO",
    "latitude": "44.28333000",
    "longitude": "24.28333000",
    "wikiDataId": null
  },
  {
    "id": 96418,
    "name": "Sprâncenata",
    "state_id": 4738,
    "state_code": "OT",
    "country_id": 181,
    "country_code": "RO",
    "latitude": "44.08333000",
    "longitude": "24.63333000",
    "wikiDataId": null
  },
  {
    "id": 96484,
    "name": "Stăvaru",
    "state_id": 4738,
    "state_code": "OT",
    "country_id": 181,
    "country_code": "RO",
    "latitude": "43.86445000",
    "longitude": "24.25902000",
    "wikiDataId": null
  },
  {
    "id": 97079,
    "name": "Ştefan cel Mare",
    "state_id": 4738,
    "state_code": "OT",
    "country_id": 181,
    "country_code": "RO",
    "latitude": "43.81124000",
    "longitude": "24.22039000",
    "wikiDataId": null
  },
  {
    "id": 96432,
    "name": "Stoeneşti",
    "state_id": 4738,
    "state_code": "OT",
    "country_id": 181,
    "country_code": "RO",
    "latitude": "44.11667000",
    "longitude": "24.50000000",
    "wikiDataId": null
  },
  {
    "id": 96438,
    "name": "Stoicăneşti",
    "state_id": 4738,
    "state_code": "OT",
    "country_id": 181,
    "country_code": "RO",
    "latitude": "44.18333000",
    "longitude": "24.63333000",
    "wikiDataId": null
  },
  {
    "id": 96450,
    "name": "Strejeşti",
    "state_id": 4738,
    "state_code": "OT",
    "country_id": 181,
    "country_code": "RO",
    "latitude": "44.53333000",
    "longitude": "24.26667000",
    "wikiDataId": null
  },
  {
    "id": 96451,
    "name": "Strejeștii de Sus",
    "state_id": 4738,
    "state_code": "OT",
    "country_id": 181,
    "country_code": "RO",
    "latitude": "44.54389000",
    "longitude": "24.22772000",
    "wikiDataId": null
  },
  {
    "id": 96465,
    "name": "Studina",
    "state_id": 4738,
    "state_code": "OT",
    "country_id": 181,
    "country_code": "RO",
    "latitude": "43.96667000",
    "longitude": "24.41667000",
    "wikiDataId": null
  },
  {
    "id": 96466,
    "name": "Studinița",
    "state_id": 4738,
    "state_code": "OT",
    "country_id": 181,
    "country_code": "RO",
    "latitude": "43.97691000",
    "longitude": "24.42668000",
    "wikiDataId": null
  },
  {
    "id": 96616,
    "name": "Tătuleşti",
    "state_id": 4738,
    "state_code": "OT",
    "country_id": 181,
    "country_code": "RO",
    "latitude": "44.63333000",
    "longitude": "24.63333000",
    "wikiDataId": null
  },
  {
    "id": 106087,
    "name": "Teslui",
    "state_id": 4738,
    "state_code": "OT",
    "country_id": 181,
    "country_code": "RO",
    "latitude": "44.51667000",
    "longitude": "24.36667000",
    "wikiDataId": null
  },
  {
    "id": 106092,
    "name": "Tia Mare",
    "state_id": 4738,
    "state_code": "OT",
    "country_id": 181,
    "country_code": "RO",
    "latitude": "43.86667000",
    "longitude": "24.63333000",
    "wikiDataId": null
  },
  {
    "id": 106128,
    "name": "Topana",
    "state_id": 4738,
    "state_code": "OT",
    "country_id": 181,
    "country_code": "RO",
    "latitude": "44.81667000",
    "longitude": "24.51667000",
    "wikiDataId": null
  },
  {
    "id": 106150,
    "name": "Traian",
    "state_id": 4738,
    "state_code": "OT",
    "country_id": 181,
    "country_code": "RO",
    "latitude": "44.01667000",
    "longitude": "24.45000000",
    "wikiDataId": null
  },
  {
    "id": 106170,
    "name": "Tufeni",
    "state_id": 4738,
    "state_code": "OT",
    "country_id": 181,
    "country_code": "RO",
    "latitude": "44.36667000",
    "longitude": "24.78333000",
    "wikiDataId": null
  },
  {
    "id": 96683,
    "name": "Ursa",
    "state_id": 4738,
    "state_code": "OT",
    "country_id": 181,
    "country_code": "RO",
    "latitude": "43.78783000",
    "longitude": "24.63787000",
    "wikiDataId": null
  },
  {
    "id": 96685,
    "name": "Urzica",
    "state_id": 4738,
    "state_code": "OT",
    "country_id": 181,
    "country_code": "RO",
    "latitude": "43.85670000",
    "longitude": "24.28952000",
    "wikiDataId": null
  },
  {
    "id": 96953,
    "name": "Vădastra",
    "state_id": 4738,
    "state_code": "OT",
    "country_id": 181,
    "country_code": "RO",
    "latitude": "43.86667000",
    "longitude": "24.36667000",
    "wikiDataId": null
  },
  {
    "id": 96956,
    "name": "Vădăstriţa",
    "state_id": 4738,
    "state_code": "OT",
    "country_id": 181,
    "country_code": "RO",
    "latitude": "43.85000000",
    "longitude": "24.33333000",
    "wikiDataId": null
  },
  {
    "id": 96919,
    "name": "Vâlcele",
    "state_id": 4738,
    "state_code": "OT",
    "country_id": 181,
    "country_code": "RO",
    "latitude": "44.28263000",
    "longitude": "24.54376000",
    "wikiDataId": null
  },
  {
    "id": 96924,
    "name": "Vâlcelele de Sus",
    "state_id": 4738,
    "state_code": "OT",
    "country_id": 181,
    "country_code": "RO",
    "latitude": "44.28461000",
    "longitude": "24.55821000",
    "wikiDataId": null
  },
  {
    "id": 96733,
    "name": "Valea Mare",
    "state_id": 4738,
    "state_code": "OT",
    "country_id": 181,
    "country_code": "RO",
    "latitude": "44.46667000",
    "longitude": "24.43333000",
    "wikiDataId": null
  },
  {
    "id": 96740,
    "name": "Valea Merilor",
    "state_id": 4738,
    "state_code": "OT",
    "country_id": 181,
    "country_code": "RO",
    "latitude": "44.47169000",
    "longitude": "24.65611000",
    "wikiDataId": null
  },
  {
    "id": 96961,
    "name": "Văleni",
    "state_id": 4738,
    "state_code": "OT",
    "country_id": 181,
    "country_code": "RO",
    "latitude": "44.23333000",
    "longitude": "24.78333000",
    "wikiDataId": null
  },
  {
    "id": 96788,
    "name": "Verguleasa",
    "state_id": 4738,
    "state_code": "OT",
    "country_id": 181,
    "country_code": "RO",
    "latitude": "44.65000000",
    "longitude": "24.31667000",
    "wikiDataId": null
  },
  {
    "id": 96850,
    "name": "Vişina",
    "state_id": 4738,
    "state_code": "OT",
    "country_id": 181,
    "country_code": "RO",
    "latitude": "43.86667000",
    "longitude": "24.45000000",
    "wikiDataId": null
  },
  {
    "id": 96853,
    "name": "Vișina Nouă",
    "state_id": 4738,
    "state_code": "OT",
    "country_id": 181,
    "country_code": "RO",
    "latitude": "43.87131440",
    "longitude": "24.41412530",
    "wikiDataId": null
  },
  {
    "id": 96842,
    "name": "Vitănești",
    "state_id": 4738,
    "state_code": "OT",
    "country_id": 181,
    "country_code": "RO",
    "latitude": "44.52722410",
    "longitude": "24.69502520",
    "wikiDataId": null
  },
  {
    "id": 96840,
    "name": "Vitomireşti",
    "state_id": 4738,
    "state_code": "OT",
    "country_id": 181,
    "country_code": "RO",
    "latitude": "44.86667000",
    "longitude": "24.40000000",
    "wikiDataId": null
  },
  {
    "id": 96868,
    "name": "Vlădila",
    "state_id": 4738,
    "state_code": "OT",
    "country_id": 181,
    "country_code": "RO",
    "latitude": "44.00000000",
    "longitude": "24.40000000",
    "wikiDataId": null
  },
  {
    "id": 96878,
    "name": "Voineasa",
    "state_id": 4738,
    "state_code": "OT",
    "country_id": 181,
    "country_code": "RO",
    "latitude": "44.28333000",
    "longitude": "24.13333000",
    "wikiDataId": null
  },
  {
    "id": 96906,
    "name": "Vulpeni",
    "state_id": 4738,
    "state_code": "OT",
    "country_id": 181,
    "country_code": "RO",
    "latitude": "44.46667000",
    "longitude": "23.91667000",
    "wikiDataId": null
  },
  {
    "id": 96909,
    "name": "Vultureşti",
    "state_id": 4738,
    "state_code": "OT",
    "country_id": 181,
    "country_code": "RO",
    "latitude": "44.73333000",
    "longitude": "24.31667000",
    "wikiDataId": null
  }
]