[
  {
    "id": 88934,
    "name": "Alfândega da Fé",
    "state_id": 2229,
    "state_code": "04",
    "country_id": 177,
    "country_code": "PT",
    "latitude": "41.34315000",
    "longitude": "-6.96112000",
    "wikiDataId": null
  },
  {
    "id": 89030,
    "name": "Belver",
    "state_id": 2229,
    "state_code": "04",
    "country_id": 177,
    "country_code": "PT",
    "latitude": "41.24696000",
    "longitude": "-7.27594000",
    "wikiDataId": null
  },
  {
    "id": 89047,
    "name": "Bragança Municipality",
    "state_id": 2229,
    "state_code": "04",
    "country_id": 177,
    "country_code": "PT",
    "latitude": "41.75608000",
    "longitude": "-6.75535000",
    "wikiDataId": null
  },
  {
    "id": 89094,
    "name": "Carrazeda de Anciães",
    "state_id": 2229,
    "state_code": "04",
    "country_id": 177,
    "country_code": "PT",
    "latitude": "41.24247000",
    "longitude": "-7.30721000",
    "wikiDataId": null
  },
  {
    "id": 89095,
    "name": "Carrazeda de Ansiães",
    "state_id": 2229,
    "state_code": "04",
    "country_id": 177,
    "country_code": "PT",
    "latitude": "41.23424000",
    "longitude": "-7.31129000",
    "wikiDataId": null
  },
  {
    "id": 89194,
    "name": "Freixo de Espada à Cinta",
    "state_id": 2229,
    "state_code": "04",
    "country_id": 177,
    "country_code": "PT",
    "latitude": "41.09033000",
    "longitude": "-6.80648000",
    "wikiDataId": null
  },
  {
    "id": 89260,
    "name": "Macedo de Cavaleiros",
    "state_id": 2229,
    "state_code": "04",
    "country_id": 177,
    "country_code": "PT",
    "latitude": "41.55132000",
    "longitude": "-6.93355000",
    "wikiDataId": null
  },
  {
    "id": 89305,
    "name": "Miranda do Douro",
    "state_id": 2229,
    "state_code": "04",
    "country_id": 177,
    "country_code": "PT",
    "latitude": "41.49692000",
    "longitude": "-6.27308000",
    "wikiDataId": null
  },
  {
    "id": 89306,
    "name": "Mirandela",
    "state_id": 2229,
    "state_code": "04",
    "country_id": 177,
    "country_code": "PT",
    "latitude": "41.50098000",
    "longitude": "-7.19185000",
    "wikiDataId": null
  },
  {
    "id": 89307,
    "name": "Mogadouro",
    "state_id": 2229,
    "state_code": "04",
    "country_id": 177,
    "country_code": "PT",
    "latitude": "41.34034000",
    "longitude": "-6.71187000",
    "wikiDataId": null
  },
  {
    "id": 89487,
    "name": "Samil",
    "state_id": 2229,
    "state_code": "04",
    "country_id": 177,
    "country_code": "PT",
    "latitude": "41.77632000",
    "longitude": "-6.75698000",
    "wikiDataId": null
  },
  {
    "id": 89526,
    "name": "Sendim",
    "state_id": 2229,
    "state_code": "04",
    "country_id": 177,
    "country_code": "PT",
    "latitude": "41.38739000",
    "longitude": "-6.42625000",
    "wikiDataId": null
  },
  {
    "id": 89606,
    "name": "Torre de Moncorvo",
    "state_id": 2229,
    "state_code": "04",
    "country_id": 177,
    "country_code": "PT",
    "latitude": "41.17454000",
    "longitude": "-7.05364000",
    "wikiDataId": null
  },
  {
    "id": 89648,
    "name": "Vila Flor",
    "state_id": 2229,
    "state_code": "04",
    "country_id": 177,
    "country_code": "PT",
    "latitude": "41.31429000",
    "longitude": "-7.15071000",
    "wikiDataId": null
  },
  {
    "id": 89682,
    "name": "Vimioso",
    "state_id": 2229,
    "state_code": "04",
    "country_id": 177,
    "country_code": "PT",
    "latitude": "41.57287000",
    "longitude": "-6.52087000",
    "wikiDataId": null
  },
  {
    "id": 89683,
    "name": "Vinhais",
    "state_id": 2229,
    "state_code": "04",
    "country_id": 177,
    "country_code": "PT",
    "latitude": "41.83509000",
    "longitude": "-7.00501000",
    "wikiDataId": null
  }
]