[
  {
    "id": 150198,
    "name": "Abibeiglou",
    "state_id": 3934,
    "state_code": "24",
    "country_id": 103,
    "country_code": "IR",
    "latitude": "38.28362000",
    "longitude": "48.54482890",
    "wikiDataId": null
  },
  {
    "id": 150199,
    "name": "Anbaran",
    "state_id": 3934,
    "state_code": "24",
    "country_id": 103,
    "country_code": "IR",
    "latitude": "38.48843440",
    "longitude": "48.41767760",
    "wikiDataId": null
  },
  {
    "id": 134568,
    "name": "Ardabil",
    "state_id": 3934,
    "state_code": "24",
    "country_id": 103,
    "country_code": "IR",
    "latitude": "38.24980000",
    "longitude": "48.29330000",
    "wikiDataId": null
  },
  {
    "id": 150187,
    "name": "Aslan Duz",
    "state_id": 3934,
    "state_code": "24",
    "country_id": 103,
    "country_code": "IR",
    "latitude": "39.44298680",
    "longitude": "47.40042690",
    "wikiDataId": null
  },
  {
    "id": 134602,
    "name": "Bileh Savar",
    "state_id": 3934,
    "state_code": "24",
    "country_id": 103,
    "country_code": "IR",
    "latitude": "39.37961000",
    "longitude": "48.35463000",
    "wikiDataId": null
  },
  {
    "id": 150186,
    "name": "Eslāmābād",
    "state_id": 3934,
    "state_code": "24",
    "country_id": 103,
    "country_code": "IR",
    "latitude": "38.13110480",
    "longitude": "47.93918600",
    "wikiDataId": null
  },
  {
    "id": 150194,
    "name": "Fakhrabad",
    "state_id": 3934,
    "state_code": "24",
    "country_id": 103,
    "country_code": "IR",
    "latitude": "38.52260140",
    "longitude": "47.85339830",
    "wikiDataId": null
  },
  {
    "id": 134882,
    "name": "Germi",
    "state_id": 3934,
    "state_code": "24",
    "country_id": 103,
    "country_code": "IR",
    "latitude": "39.00000000",
    "longitude": "47.95000000",
    "wikiDataId": null
  },
  {
    "id": 150190,
    "name": "Hashjin",
    "state_id": 3934,
    "state_code": "24",
    "country_id": 103,
    "country_code": "IR",
    "latitude": "37.36980870",
    "longitude": "48.31333280",
    "wikiDataId": null
  },
  {
    "id": 150184,
    "name": "Hir",
    "state_id": 3934,
    "state_code": "24",
    "country_id": 103,
    "country_code": "IR",
    "latitude": "38.07953040",
    "longitude": "48.48940360",
    "wikiDataId": null
  },
  {
    "id": 150185,
    "name": "Jafarabad",
    "state_id": 3934,
    "state_code": "24",
    "country_id": 103,
    "country_code": "IR",
    "latitude": "39.42213160",
    "longitude": "48.07888930",
    "wikiDataId": null
  },
  {
    "id": 134911,
    "name": "Khalkhal",
    "state_id": 3934,
    "state_code": "24",
    "country_id": 103,
    "country_code": "IR",
    "latitude": "37.40604000",
    "longitude": "48.54466000",
    "wikiDataId": null
  },
  {
    "id": 150192,
    "name": "Kivi",
    "state_id": 3934,
    "state_code": "24",
    "country_id": 103,
    "country_code": "IR",
    "latitude": "37.69312310",
    "longitude": "48.32075700",
    "wikiDataId": null
  },
  {
    "id": 150189,
    "name": "Kolor",
    "state_id": 3934,
    "state_code": "24",
    "country_id": 103,
    "country_code": "IR",
    "latitude": "37.38848590",
    "longitude": "48.71668330",
    "wikiDataId": null
  },
  {
    "id": 134932,
    "name": "Kowsar",
    "state_id": 3934,
    "state_code": "24",
    "country_id": 103,
    "country_code": "IR",
    "latitude": "37.72142000",
    "longitude": "48.26985000",
    "wikiDataId": null
  },
  {
    "id": 150200,
    "name": "Kuraim",
    "state_id": 3934,
    "state_code": "24",
    "country_id": 103,
    "country_code": "IR",
    "latitude": "37.95500000",
    "longitude": "48.23555600",
    "wikiDataId": null
  },
  {
    "id": 150196,
    "name": "Lahroud",
    "state_id": 3934,
    "state_code": "24",
    "country_id": 103,
    "country_code": "IR",
    "latitude": "38.50801930",
    "longitude": "47.82212370",
    "wikiDataId": null
  },
  {
    "id": 134964,
    "name": "Meshgin Shahr",
    "state_id": 3934,
    "state_code": "24",
    "country_id": 103,
    "country_code": "IR",
    "latitude": "38.43333000",
    "longitude": "47.75000000",
    "wikiDataId": null
  },
  {
    "id": 150197,
    "name": "Moradlu",
    "state_id": 3934,
    "state_code": "24",
    "country_id": 103,
    "country_code": "IR",
    "latitude": "38.74800000",
    "longitude": "47.74016620",
    "wikiDataId": null
  },
  {
    "id": 134976,
    "name": "Namin",
    "state_id": 3934,
    "state_code": "24",
    "country_id": 103,
    "country_code": "IR",
    "latitude": "38.38333000",
    "longitude": "48.51667000",
    "wikiDataId": null
  },
  {
    "id": 134986,
    "name": "Nir",
    "state_id": 3934,
    "state_code": "24",
    "country_id": 103,
    "country_code": "IR",
    "latitude": "38.00000000",
    "longitude": "48.08333000",
    "wikiDataId": null
  },
  {
    "id": 134722,
    "name": "Omidcheh",
    "state_id": 3934,
    "state_code": "24",
    "country_id": 103,
    "country_code": "IR",
    "latitude": "38.28667000",
    "longitude": "48.14139000",
    "wikiDataId": null
  },
  {
    "id": 134731,
    "name": "Parsabad",
    "state_id": 3934,
    "state_code": "24",
    "country_id": 103,
    "country_code": "IR",
    "latitude": "39.64820000",
    "longitude": "47.91740000",
    "wikiDataId": null
  },
  {
    "id": 150195,
    "name": "Qasabeh",
    "state_id": 3934,
    "state_code": "24",
    "country_id": 103,
    "country_code": "IR",
    "latitude": "38.38781300",
    "longitude": "47.53829230",
    "wikiDataId": null
  },
  {
    "id": 150193,
    "name": "Razi",
    "state_id": 3934,
    "state_code": "24",
    "country_id": 103,
    "country_code": "IR",
    "latitude": "38.62486600",
    "longitude": "48.08286670",
    "wikiDataId": null
  },
  {
    "id": 150191,
    "name": "Sarein",
    "state_id": 3934,
    "state_code": "24",
    "country_id": 103,
    "country_code": "IR",
    "latitude": "38.14643470",
    "longitude": "48.05716020",
    "wikiDataId": null
  },
  {
    "id": 135031,
    "name": "Sareyn",
    "state_id": 3934,
    "state_code": "24",
    "country_id": 103,
    "country_code": "IR",
    "latitude": "38.18333000",
    "longitude": "47.98333000",
    "wikiDataId": null
  },
  {
    "id": 150188,
    "name": "Tazakand",
    "state_id": 3934,
    "state_code": "24",
    "country_id": 103,
    "country_code": "IR",
    "latitude": "39.10450420",
    "longitude": "44.89902010",
    "wikiDataId": null
  }
]