[
  {
    "id": 149239,
    "name": "Buenavista",
    "state_id": 2902,
    "state_code": "SUC",
    "country_id": 48,
    "country_code": "CO",
    "latitude": "9.31972222",
    "longitude": "-74.97166777",
    "wikiDataId": null
  },
  {
    "id": 20623,
    "name": "Caimito",
    "state_id": 2902,
    "state_code": "SUC",
    "country_id": 48,
    "country_code": "CO",
    "latitude": "8.78834000",
    "longitude": "-75.13583000",
    "wikiDataId": null
  },
  {
    "id": 20676,
    "name": "Chalán",
    "state_id": 2902,
    "state_code": "SUC",
    "country_id": 48,
    "country_code": "CO",
    "latitude": "9.54765000",
    "longitude": "-75.31128000",
    "wikiDataId": null
  },
  {
    "id": 20719,
    "name": "Coloso",
    "state_id": 2902,
    "state_code": "SUC",
    "country_id": 48,
    "country_code": "CO",
    "latitude": "9.51176000",
    "longitude": "-75.36233000",
    "wikiDataId": null
  },
  {
    "id": 20739,
    "name": "Corozal",
    "state_id": 2902,
    "state_code": "SUC",
    "country_id": 48,
    "country_code": "CO",
    "latitude": "9.31847000",
    "longitude": "-75.29330000",
    "wikiDataId": null
  },
  {
    "id": 20744,
    "name": "Coveñas",
    "state_id": 2902,
    "state_code": "SUC",
    "country_id": 48,
    "country_code": "CO",
    "latitude": "9.40254000",
    "longitude": "-75.68029000",
    "wikiDataId": null
  },
  {
    "id": 20825,
    "name": "El Roble",
    "state_id": 2902,
    "state_code": "SUC",
    "country_id": 48,
    "country_code": "CO",
    "latitude": "9.10193000",
    "longitude": "-75.19508000",
    "wikiDataId": null
  },
  {
    "id": 20877,
    "name": "Galeras",
    "state_id": 2902,
    "state_code": "SUC",
    "country_id": 48,
    "country_code": "CO",
    "latitude": "9.16095000",
    "longitude": "-75.04811000",
    "wikiDataId": null
  },
  {
    "id": 20912,
    "name": "Guaranda",
    "state_id": 2902,
    "state_code": "SUC",
    "country_id": 48,
    "country_code": "CO",
    "latitude": "8.46746000",
    "longitude": "-74.53617000",
    "wikiDataId": null
  },
  {
    "id": 21007,
    "name": "La Unión",
    "state_id": 2902,
    "state_code": "SUC",
    "country_id": 48,
    "country_code": "CO",
    "latitude": "8.84965000",
    "longitude": "-75.27942000",
    "wikiDataId": null
  },
  {
    "id": 21034,
    "name": "Los Palmitos",
    "state_id": 2902,
    "state_code": "SUC",
    "country_id": 48,
    "country_code": "CO",
    "latitude": "9.37899000",
    "longitude": "-75.26769000",
    "wikiDataId": null
  },
  {
    "id": 21052,
    "name": "Majagual",
    "state_id": 2902,
    "state_code": "SUC",
    "country_id": 48,
    "country_code": "CO",
    "latitude": "8.53500000",
    "longitude": "-74.71499000",
    "wikiDataId": null
  },
  {
    "id": 21107,
    "name": "Morroa",
    "state_id": 2902,
    "state_code": "SUC",
    "country_id": 48,
    "country_code": "CO",
    "latitude": "9.33348000",
    "longitude": "-75.30542000",
    "wikiDataId": null
  },
  {
    "id": 21157,
    "name": "Ovejas",
    "state_id": 2902,
    "state_code": "SUC",
    "country_id": 48,
    "country_code": "CO",
    "latitude": "9.54083000",
    "longitude": "-75.18333000",
    "wikiDataId": null
  },
  {
    "id": 21174,
    "name": "Palmito",
    "state_id": 2902,
    "state_code": "SUC",
    "country_id": 48,
    "country_code": "CO",
    "latitude": "9.33667000",
    "longitude": "-75.56333000",
    "wikiDataId": null
  },
  {
    "id": 21327,
    "name": "Sampués",
    "state_id": 2902,
    "state_code": "SUC",
    "country_id": 48,
    "country_code": "CO",
    "latitude": "9.18361000",
    "longitude": "-75.38167000",
    "wikiDataId": null
  },
  {
    "id": 21340,
    "name": "San Benito Abad",
    "state_id": 2902,
    "state_code": "SUC",
    "country_id": 48,
    "country_code": "CO",
    "latitude": "8.78833000",
    "longitude": "-74.95666000",
    "wikiDataId": null
  },
  {
    "id": 21374,
    "name": "San Juan de Betulia",
    "state_id": 2902,
    "state_code": "SUC",
    "country_id": 48,
    "country_code": "CO",
    "latitude": "9.27345000",
    "longitude": "-75.24103000",
    "wikiDataId": null
  },
  {
    "id": 21382,
    "name": "San Luis de Sincé",
    "state_id": 2902,
    "state_code": "SUC",
    "country_id": 48,
    "country_code": "CO",
    "latitude": "9.24391000",
    "longitude": "-75.14675000",
    "wikiDataId": null
  },
  {
    "id": 21383,
    "name": "San Marcos",
    "state_id": 2902,
    "state_code": "SUC",
    "country_id": 48,
    "country_code": "CO",
    "latitude": "8.58333000",
    "longitude": "-75.16667000",
    "wikiDataId": null
  },
  {
    "id": 21391,
    "name": "San Onofre",
    "state_id": 2902,
    "state_code": "SUC",
    "country_id": 48,
    "country_code": "CO",
    "latitude": "9.73586000",
    "longitude": "-75.52626000",
    "wikiDataId": null
  },
  {
    "id": 21395,
    "name": "San Pedro",
    "state_id": 2902,
    "state_code": "SUC",
    "country_id": 48,
    "country_code": "CO",
    "latitude": "9.39560000",
    "longitude": "-75.06476000",
    "wikiDataId": null
  },
  {
    "id": 21438,
    "name": "Santiago de Tolú",
    "state_id": 2902,
    "state_code": "SUC",
    "country_id": 48,
    "country_code": "CO",
    "latitude": "9.52392000",
    "longitude": "-75.58139000",
    "wikiDataId": null
  },
  {
    "id": 21461,
    "name": "Sincelejo",
    "state_id": 2902,
    "state_code": "SUC",
    "country_id": 48,
    "country_code": "CO",
    "latitude": "9.30472000",
    "longitude": "-75.39778000",
    "wikiDataId": null
  },
  {
    "id": 21487,
    "name": "Sucre",
    "state_id": 2902,
    "state_code": "SUC",
    "country_id": 48,
    "country_code": "CO",
    "latitude": "8.81136000",
    "longitude": "-74.72084000",
    "wikiDataId": null
  },
  {
    "id": 21539,
    "name": "Tolú Viejo",
    "state_id": 2902,
    "state_code": "SUC",
    "country_id": 48,
    "country_code": "CO",
    "latitude": "9.45082000",
    "longitude": "-75.43864000",
    "wikiDataId": null
  }
]