[
  {
    "id": 88924,
    "name": "Alcácer do Sal",
    "state_id": 2242,
    "state_code": "15",
    "country_id": 177,
    "country_code": "PT",
    "latitude": "38.37326000",
    "longitude": "-8.51444000",
    "wikiDataId": null
  },
  {
    "id": 88921,
    "name": "Alcochete",
    "state_id": 2242,
    "state_code": "15",
    "country_id": 177,
    "country_code": "PT",
    "latitude": "38.73827000",
    "longitude": "-8.97936000",
    "wikiDataId": null
  },
  {
    "id": 88927,
    "name": "Aldeia de Paio Pires",
    "state_id": 2242,
    "state_code": "15",
    "country_id": 177,
    "country_code": "PT",
    "latitude": "38.61667000",
    "longitude": "-9.08333000",
    "wikiDataId": null
  },
  {
    "id": 88940,
    "name": "Alhos Vedros",
    "state_id": 2242,
    "state_code": "15",
    "country_id": 177,
    "country_code": "PT",
    "latitude": "38.65486000",
    "longitude": "-9.02368000",
    "wikiDataId": null
  },
  {
    "id": 88945,
    "name": "Almada",
    "state_id": 2242,
    "state_code": "15",
    "country_id": 177,
    "country_code": "PT",
    "latitude": "38.67902000",
    "longitude": "-9.15690000",
    "wikiDataId": null
  },
  {
    "id": 88965,
    "name": "Amora",
    "state_id": 2242,
    "state_code": "15",
    "country_id": 177,
    "country_code": "PT",
    "latitude": "38.62961000",
    "longitude": "-9.11557000",
    "wikiDataId": null
  },
  {
    "id": 88992,
    "name": "Arrentela",
    "state_id": 2242,
    "state_code": "15",
    "country_id": 177,
    "country_code": "PT",
    "latitude": "38.62500000",
    "longitude": "-9.10151000",
    "wikiDataId": null
  },
  {
    "id": 89010,
    "name": "Azeitão",
    "state_id": 2242,
    "state_code": "15",
    "country_id": 177,
    "country_code": "PT",
    "latitude": "38.51919000",
    "longitude": "-9.01390000",
    "wikiDataId": null
  },
  {
    "id": 89021,
    "name": "Barreiro",
    "state_id": 2242,
    "state_code": "15",
    "country_id": 177,
    "country_code": "PT",
    "latitude": "38.66314000",
    "longitude": "-9.07240000",
    "wikiDataId": null
  },
  {
    "id": 89058,
    "name": "Cacilhas",
    "state_id": 2242,
    "state_code": "15",
    "country_id": 177,
    "country_code": "PT",
    "latitude": "38.68638000",
    "longitude": "-9.14938000",
    "wikiDataId": null
  },
  {
    "id": 89089,
    "name": "Caparica",
    "state_id": 2242,
    "state_code": "15",
    "country_id": 177,
    "country_code": "PT",
    "latitude": "38.66179000",
    "longitude": "-9.20032000",
    "wikiDataId": null
  },
  {
    "id": 89115,
    "name": "Cercal",
    "state_id": 2242,
    "state_code": "15",
    "country_id": 177,
    "country_code": "PT",
    "latitude": "37.80129000",
    "longitude": "-8.67400000",
    "wikiDataId": null
  },
  {
    "id": 89118,
    "name": "Charneca de Caparica",
    "state_id": 2242,
    "state_code": "15",
    "country_id": 177,
    "country_code": "PT",
    "latitude": "38.62032000",
    "longitude": "-9.19426000",
    "wikiDataId": null
  },
  {
    "id": 89124,
    "name": "Comporta",
    "state_id": 2242,
    "state_code": "15",
    "country_id": 177,
    "country_code": "PT",
    "latitude": "38.38059000",
    "longitude": "-8.78608000",
    "wikiDataId": null
  },
  {
    "id": 89128,
    "name": "Corroios",
    "state_id": 2242,
    "state_code": "15",
    "country_id": 177,
    "country_code": "PT",
    "latitude": "38.64004000",
    "longitude": "-9.15080000",
    "wikiDataId": null
  },
  {
    "id": 89132,
    "name": "Costa de Caparica",
    "state_id": 2242,
    "state_code": "15",
    "country_id": 177,
    "country_code": "PT",
    "latitude": "38.64458000",
    "longitude": "-9.23556000",
    "wikiDataId": null
  },
  {
    "id": 89215,
    "name": "Grândola",
    "state_id": 2242,
    "state_code": "15",
    "country_id": 177,
    "country_code": "PT",
    "latitude": "38.18999000",
    "longitude": "-8.61197000",
    "wikiDataId": null
  },
  {
    "id": 89236,
    "name": "Laranjeira",
    "state_id": 2242,
    "state_code": "15",
    "country_id": 177,
    "country_code": "PT",
    "latitude": "38.65599000",
    "longitude": "-9.15376000",
    "wikiDataId": null
  },
  {
    "id": 89240,
    "name": "Lavradio",
    "state_id": 2242,
    "state_code": "15",
    "country_id": 177,
    "country_code": "PT",
    "latitude": "38.66808000",
    "longitude": "-9.05204000",
    "wikiDataId": null
  },
  {
    "id": 89309,
    "name": "Moita",
    "state_id": 2242,
    "state_code": "15",
    "country_id": 177,
    "country_code": "PT",
    "latitude": "38.65854000",
    "longitude": "-9.01040000",
    "wikiDataId": null
  },
  {
    "id": 89326,
    "name": "Montijo",
    "state_id": 2242,
    "state_code": "15",
    "country_id": 177,
    "country_code": "PT",
    "latitude": "38.72990000",
    "longitude": "-8.69364000",
    "wikiDataId": null
  },
  {
    "id": 89377,
    "name": "Palmela",
    "state_id": 2242,
    "state_code": "15",
    "country_id": 177,
    "country_code": "PT",
    "latitude": "38.56902000",
    "longitude": "-8.90126000",
    "wikiDataId": null
  },
  {
    "id": 89406,
    "name": "Piedade",
    "state_id": 2242,
    "state_code": "15",
    "country_id": 177,
    "country_code": "PT",
    "latitude": "38.67005000",
    "longitude": "-9.15852000",
    "wikiDataId": null
  },
  {
    "id": 89407,
    "name": "Pinhal Novo",
    "state_id": 2242,
    "state_code": "15",
    "country_id": 177,
    "country_code": "PT",
    "latitude": "38.63106000",
    "longitude": "-8.91376000",
    "wikiDataId": null
  },
  {
    "id": 89426,
    "name": "Porto Covo",
    "state_id": 2242,
    "state_code": "15",
    "country_id": 177,
    "country_code": "PT",
    "latitude": "37.85256000",
    "longitude": "-8.79018000",
    "wikiDataId": null
  },
  {
    "id": 89436,
    "name": "Pragal",
    "state_id": 2242,
    "state_code": "15",
    "country_id": 177,
    "country_code": "PT",
    "latitude": "38.67459000",
    "longitude": "-9.16981000",
    "wikiDataId": null
  },
  {
    "id": 89450,
    "name": "Quinta do Anjo",
    "state_id": 2242,
    "state_code": "15",
    "country_id": 177,
    "country_code": "PT",
    "latitude": "38.56753000",
    "longitude": "-8.94228000",
    "wikiDataId": null
  },
  {
    "id": 89449,
    "name": "Quinta Do Conde",
    "state_id": 2242,
    "state_code": "15",
    "country_id": 177,
    "country_code": "PT",
    "latitude": "38.56528000",
    "longitude": "-9.04316000",
    "wikiDataId": null
  },
  {
    "id": 89478,
    "name": "Rosairinho",
    "state_id": 2242,
    "state_code": "15",
    "country_id": 177,
    "country_code": "PT",
    "latitude": "38.67734000",
    "longitude": "-9.00836000",
    "wikiDataId": null
  },
  {
    "id": 89489,
    "name": "Samouco",
    "state_id": 2242,
    "state_code": "15",
    "country_id": 177,
    "country_code": "PT",
    "latitude": "38.72035000",
    "longitude": "-9.00471000",
    "wikiDataId": null
  },
  {
    "id": 89511,
    "name": "Santiago do Cacém",
    "state_id": 2242,
    "state_code": "15",
    "country_id": 177,
    "country_code": "PT",
    "latitude": "38.02502000",
    "longitude": "-8.67577000",
    "wikiDataId": null
  },
  {
    "id": 89512,
    "name": "Santo André",
    "state_id": 2242,
    "state_code": "15",
    "country_id": 177,
    "country_code": "PT",
    "latitude": "38.06078000",
    "longitude": "-8.78220000",
    "wikiDataId": null
  },
  {
    "id": 89515,
    "name": "Santo António da Charneca",
    "state_id": 2242,
    "state_code": "15",
    "country_id": 177,
    "country_code": "PT",
    "latitude": "38.62561000",
    "longitude": "-9.03043000",
    "wikiDataId": null
  },
  {
    "id": 89522,
    "name": "Sarilhos Pequenos",
    "state_id": 2242,
    "state_code": "15",
    "country_id": 177,
    "country_code": "PT",
    "latitude": "38.68176000",
    "longitude": "-8.98231000",
    "wikiDataId": null
  },
  {
    "id": 89523,
    "name": "Seixal",
    "state_id": 2242,
    "state_code": "15",
    "country_id": 177,
    "country_code": "PT",
    "latitude": "38.61173000",
    "longitude": "-9.10371000",
    "wikiDataId": null
  },
  {
    "id": 89539,
    "name": "Sesimbra",
    "state_id": 2242,
    "state_code": "15",
    "country_id": 177,
    "country_code": "PT",
    "latitude": "38.49486000",
    "longitude": "-9.12011000",
    "wikiDataId": null
  },
  {
    "id": 89540,
    "name": "Setúbal",
    "state_id": 2242,
    "state_code": "15",
    "country_id": 177,
    "country_code": "PT",
    "latitude": "38.52440000",
    "longitude": "-8.88820000",
    "wikiDataId": null
  },
  {
    "id": 89545,
    "name": "Sines",
    "state_id": 2242,
    "state_code": "15",
    "country_id": 177,
    "country_code": "PT",
    "latitude": "37.95622000",
    "longitude": "-8.86979000",
    "wikiDataId": null
  },
  {
    "id": 89550,
    "name": "Sobreda",
    "state_id": 2242,
    "state_code": "15",
    "country_id": 177,
    "country_code": "PT",
    "latitude": "38.64961000",
    "longitude": "-9.18977000",
    "wikiDataId": null
  },
  {
    "id": 89609,
    "name": "Trafaria",
    "state_id": 2242,
    "state_code": "15",
    "country_id": 177,
    "country_code": "PT",
    "latitude": "38.67222000",
    "longitude": "-9.23268000",
    "wikiDataId": null
  }
]