[
  {
    "id": 48176,
    "name": "Abergele",
    "state_id": 2352,
    "state_code": "CWY",
    "country_id": 232,
    "country_code": "GB",
    "latitude": "53.28436000",
    "longitude": "-3.58220000",
    "wikiDataId": null
  },
  {
    "id": 48370,
    "name": "Bangor",
    "state_id": 2352,
    "state_code": "CWY",
    "country_id": 232,
    "country_code": "GB",
    "latitude": "53.22752000",
    "longitude": "-4.12936000",
    "wikiDataId": null
  },
  {
    "id": 48441,
    "name": "Beaumaris",
    "state_id": 2352,
    "state_code": "CWY",
    "country_id": 232,
    "country_code": "GB",
    "latitude": "53.26315000",
    "longitude": "-4.09233000",
    "wikiDataId": null
  },
  {
    "id": 48472,
    "name": "Benllech",
    "state_id": 2352,
    "state_code": "CWY",
    "country_id": 232,
    "country_code": "GB",
    "latitude": "53.32044000",
    "longitude": "-4.22607000",
    "wikiDataId": null
  },
  {
    "id": 48481,
    "name": "Bethesda",
    "state_id": 2352,
    "state_code": "CWY",
    "country_id": 232,
    "country_code": "GB",
    "latitude": "53.18150000",
    "longitude": "-4.05828000",
    "wikiDataId": null
  },
  {
    "id": 49078,
    "name": "Colwyn Bay",
    "state_id": 2352,
    "state_code": "CWY",
    "country_id": 232,
    "country_code": "GB",
    "latitude": "53.29483000",
    "longitude": "-3.72674000",
    "wikiDataId": null
  },
  {
    "id": 49255,
    "name": "Deganwy",
    "state_id": 2352,
    "state_code": "CWY",
    "country_id": 232,
    "country_code": "GB",
    "latitude": "53.30446000",
    "longitude": "-3.82735000",
    "wikiDataId": null
  },
  {
    "id": 49256,
    "name": "Deiniolen",
    "state_id": 2352,
    "state_code": "CWY",
    "country_id": 232,
    "country_code": "GB",
    "latitude": "53.14819000",
    "longitude": "-4.13185000",
    "wikiDataId": null
  },
  {
    "id": 50342,
    "name": "Llanberis",
    "state_id": 2352,
    "state_code": "CWY",
    "country_id": 232,
    "country_code": "GB",
    "latitude": "53.11809000",
    "longitude": "-4.12923000",
    "wikiDataId": null
  },
  {
    "id": 50347,
    "name": "Llandudno",
    "state_id": 2352,
    "state_code": "CWY",
    "country_id": 232,
    "country_code": "GB",
    "latitude": "53.32498000",
    "longitude": "-3.83148000",
    "wikiDataId": null
  },
  {
    "id": 50353,
    "name": "Llanfairfechan",
    "state_id": 2352,
    "state_code": "CWY",
    "country_id": 232,
    "country_code": "GB",
    "latitude": "53.25779000",
    "longitude": "-3.97423000",
    "wikiDataId": null
  },
  {
    "id": 50354,
    "name": "Llanfairpwllgwyngyll",
    "state_id": 2352,
    "state_code": "CWY",
    "country_id": 232,
    "country_code": "GB",
    "latitude": "53.22141000",
    "longitude": "-4.20329000",
    "wikiDataId": null
  },
  {
    "id": 50357,
    "name": "Llangoed",
    "state_id": 2352,
    "state_code": "CWY",
    "country_id": 232,
    "country_code": "GB",
    "latitude": "53.29420000",
    "longitude": "-4.08772000",
    "wikiDataId": null
  },
  {
    "id": 50367,
    "name": "Llanrug",
    "state_id": 2352,
    "state_code": "CWY",
    "country_id": 232,
    "country_code": "GB",
    "latitude": "53.14788000",
    "longitude": "-4.19596000",
    "wikiDataId": null
  },
  {
    "id": 50368,
    "name": "Llanrwst",
    "state_id": 2352,
    "state_code": "CWY",
    "country_id": 232,
    "country_code": "GB",
    "latitude": "53.14021000",
    "longitude": "-3.79527000",
    "wikiDataId": null
  },
  {
    "id": 50369,
    "name": "Llansantffraid Glan Conwy",
    "state_id": 2352,
    "state_code": "CWY",
    "country_id": 232,
    "country_code": "GB",
    "latitude": "53.26667000",
    "longitude": "-3.80000000",
    "wikiDataId": null
  },
  {
    "id": 50545,
    "name": "Menai Bridge",
    "state_id": 2352,
    "state_code": "CWY",
    "country_id": 232,
    "country_code": "GB",
    "latitude": "53.22775000",
    "longitude": "-4.16926000",
    "wikiDataId": null
  },
  {
    "id": 50610,
    "name": "Moelfre",
    "state_id": 2352,
    "state_code": "CWY",
    "country_id": 232,
    "country_code": "GB",
    "latitude": "53.35228000",
    "longitude": "-4.23734000",
    "wikiDataId": null
  },
  {
    "id": 50884,
    "name": "Penmaenmawr",
    "state_id": 2352,
    "state_code": "CWY",
    "country_id": 232,
    "country_code": "GB",
    "latitude": "53.26667000",
    "longitude": "-3.93333000",
    "wikiDataId": null
  },
  {
    "id": 51074,
    "name": "Rhyl",
    "state_id": 2352,
    "state_code": "CWY",
    "country_id": 232,
    "country_code": "GB",
    "latitude": "53.31929000",
    "longitude": "-3.49228000",
    "wikiDataId": null
  },
  {
    "id": 51665,
    "name": "Tregarth",
    "state_id": 2352,
    "state_code": "CWY",
    "country_id": 232,
    "country_code": "GB",
    "latitude": "53.19012000",
    "longitude": "-4.08780000",
    "wikiDataId": null
  },
  {
    "id": 52008,
    "name": "Y Felinheli",
    "state_id": 2352,
    "state_code": "CWY",
    "country_id": 232,
    "country_code": "GB",
    "latitude": "53.18737000",
    "longitude": "-4.20476000",
    "wikiDataId": null
  }
]