[
  {
    "id": 79686,
    "name": "Årøysund",
    "state_id": 5452,
    "state_code": "39",
    "country_id": 165,
    "country_code": "NO",
    "latitude": "59.18321000",
    "longitude": "10.45743000",
    "wikiDataId": null
  },
  {
    "id": 79689,
    "name": "Åsgårdstrand",
    "state_id": 5452,
    "state_code": "39",
    "country_id": 165,
    "country_code": "NO",
    "latitude": "59.34938000",
    "longitude": "10.46948000",
    "wikiDataId": null
  },
  {
    "id": 79065,
    "name": "Barkåker",
    "state_id": 5452,
    "state_code": "39",
    "country_id": 165,
    "country_code": "NO",
    "latitude": "59.31859000",
    "longitude": "10.38963000",
    "wikiDataId": null
  },
  {
    "id": 79070,
    "name": "Berger",
    "state_id": 5452,
    "state_code": "39",
    "country_id": 165,
    "country_code": "NO",
    "latitude": "59.54994000",
    "longitude": "10.38641000",
    "wikiDataId": null
  },
  {
    "id": 79168,
    "name": "Færder",
    "state_id": 5452,
    "state_code": "39",
    "country_id": 165,
    "country_code": "NO",
    "latitude": "59.22791000",
    "longitude": "10.41530000",
    "wikiDataId": null
  },
  {
    "id": 79195,
    "name": "Gullhaug",
    "state_id": 5452,
    "state_code": "39",
    "country_id": 165,
    "country_code": "NO",
    "latitude": "59.50130000",
    "longitude": "10.25224000",
    "wikiDataId": null
  },
  {
    "id": 79229,
    "name": "Holmestrand",
    "state_id": 5452,
    "state_code": "39",
    "country_id": 165,
    "country_code": "NO",
    "latitude": "59.48976000",
    "longitude": "10.31515000",
    "wikiDataId": null
  },
  {
    "id": 79236,
    "name": "Horten",
    "state_id": 5452,
    "state_code": "39",
    "country_id": 165,
    "country_code": "NO",
    "latitude": "59.41547000",
    "longitude": "10.48527000",
    "wikiDataId": null
  },
  {
    "id": 79304,
    "name": "Larvik",
    "state_id": 5452,
    "state_code": "39",
    "country_id": 165,
    "country_code": "NO",
    "latitude": "59.05234000",
    "longitude": "10.02701000",
    "wikiDataId": null
  },
  {
    "id": 79361,
    "name": "Melsomvik",
    "state_id": 5452,
    "state_code": "39",
    "country_id": 165,
    "country_code": "NO",
    "latitude": "59.22394000",
    "longitude": "10.33616000",
    "wikiDataId": null
  },
  {
    "id": 79482,
    "name": "Sandefjord",
    "state_id": 5452,
    "state_code": "39",
    "country_id": 165,
    "country_code": "NO",
    "latitude": "59.12881000",
    "longitude": "10.21971000",
    "wikiDataId": null
  },
  {
    "id": 79494,
    "name": "Selvik",
    "state_id": 5452,
    "state_code": "39",
    "country_id": 165,
    "country_code": "NO",
    "latitude": "59.56645000",
    "longitude": "10.26004000",
    "wikiDataId": null
  },
  {
    "id": 79495,
    "name": "Sem",
    "state_id": 5452,
    "state_code": "39",
    "country_id": 165,
    "country_code": "NO",
    "latitude": "59.28230000",
    "longitude": "10.33004000",
    "wikiDataId": null
  },
  {
    "id": 79518,
    "name": "Skoppum",
    "state_id": 5452,
    "state_code": "39",
    "country_id": 165,
    "country_code": "NO",
    "latitude": "59.38613000",
    "longitude": "10.41077000",
    "wikiDataId": null
  },
  {
    "id": 79539,
    "name": "Stavern",
    "state_id": 5452,
    "state_code": "39",
    "country_id": 165,
    "country_code": "NO",
    "latitude": "59.00000000",
    "longitude": "10.03333000",
    "wikiDataId": null
  },
  {
    "id": 79545,
    "name": "Stokke",
    "state_id": 5452,
    "state_code": "39",
    "country_id": 165,
    "country_code": "NO",
    "latitude": "59.22255000",
    "longitude": "10.30055000",
    "wikiDataId": null
  },
  {
    "id": 79570,
    "name": "Svelvik",
    "state_id": 5452,
    "state_code": "39",
    "country_id": 165,
    "country_code": "NO",
    "latitude": "59.60677000",
    "longitude": "10.40225000",
    "wikiDataId": null
  },
  {
    "id": 79596,
    "name": "Tjøme",
    "state_id": 5452,
    "state_code": "39",
    "country_id": 165,
    "country_code": "NO",
    "latitude": "59.11090000",
    "longitude": "10.39330000",
    "wikiDataId": null
  },
  {
    "id": 79619,
    "name": "Tønsberg",
    "state_id": 5452,
    "state_code": "39",
    "country_id": 165,
    "country_code": "NO",
    "latitude": "59.26754000",
    "longitude": "10.40762000",
    "wikiDataId": null
  }
]