[
  {
    "id": 48376,
    "name": "Bannockburn",
    "state_id": 2488,
    "state_code": "STG",
    "country_id": 232,
    "country_code": "GB",
    "latitude": "56.08978000",
    "longitude": "-3.91092000",
    "wikiDataId": null
  },
  {
    "id": 48680,
    "name": "Bridge of Allan",
    "state_id": 2488,
    "state_code": "STG",
    "country_id": 232,
    "country_code": "GB",
    "latitude": "56.15402000",
    "longitude": "-3.94631000",
    "wikiDataId": null
  },
  {
    "id": 48825,
    "name": "Callander",
    "state_id": 2488,
    "state_code": "STG",
    "country_id": 232,
    "country_code": "GB",
    "latitude": "56.24410000",
    "longitude": "-4.21637000",
    "wikiDataId": null
  },
  {
    "id": 49133,
    "name": "Cowie",
    "state_id": 2488,
    "state_code": "STG",
    "country_id": 232,
    "country_code": "GB",
    "latitude": "56.07974000",
    "longitude": "-3.86753000",
    "wikiDataId": null
  },
  {
    "id": 49315,
    "name": "Doune",
    "state_id": 2488,
    "state_code": "STG",
    "country_id": 232,
    "country_code": "GB",
    "latitude": "56.18995000",
    "longitude": "-4.05288000",
    "wikiDataId": null
  },
  {
    "id": 49344,
    "name": "Dunblane",
    "state_id": 2488,
    "state_code": "STG",
    "country_id": 232,
    "country_code": "GB",
    "latitude": "56.18843000",
    "longitude": "-3.96417000",
    "wikiDataId": null
  },
  {
    "id": 49523,
    "name": "Fallin",
    "state_id": 2488,
    "state_code": "STG",
    "country_id": 232,
    "country_code": "GB",
    "latitude": "56.10479000",
    "longitude": "-3.87616000",
    "wikiDataId": null
  },
  {
    "id": 50192,
    "name": "Kippen",
    "state_id": 2488,
    "state_code": "STG",
    "country_id": 232,
    "country_code": "GB",
    "latitude": "56.12673000",
    "longitude": "-4.17083000",
    "wikiDataId": null
  },
  {
    "id": 50548,
    "name": "Menstrie",
    "state_id": 2488,
    "state_code": "STG",
    "country_id": 232,
    "country_code": "GB",
    "latitude": "56.15138000",
    "longitude": "-3.85466000",
    "wikiDataId": null
  },
  {
    "id": 50923,
    "name": "Plean",
    "state_id": 2488,
    "state_code": "STG",
    "country_id": 232,
    "country_code": "GB",
    "latitude": "56.06516000",
    "longitude": "-3.87596000",
    "wikiDataId": null
  },
  {
    "id": 51452,
    "name": "Stirling",
    "state_id": 2488,
    "state_code": "STG",
    "country_id": 232,
    "country_code": "GB",
    "latitude": "56.11532000",
    "longitude": "-4.23386000",
    "wikiDataId": null
  },
  {
    "id": 51676,
    "name": "Tullibody",
    "state_id": 2488,
    "state_code": "STG",
    "country_id": 232,
    "country_code": "GB",
    "latitude": "56.13364000",
    "longitude": "-3.83835000",
    "wikiDataId": null
  }
]