[
  {
    "id": 149076,
    "name": "Atebubu-Amantin",
    "state_id": 4958,
    "state_code": "BE",
    "country_id": 83,
    "country_code": "GH",
    "latitude": "7.70237000",
    "longitude": "-1.21979430",
    "wikiDataId": null
  },
  {
    "id": 149077,
    "name": "Kintampo North",
    "state_id": 4958,
    "state_code": "BE",
    "country_id": 83,
    "country_code": "GH",
    "latitude": "8.39635790",
    "longitude": "-1.82000070",
    "wikiDataId": null
  },
  {
    "id": 149078,
    "name": "Kintampo South",
    "state_id": 4958,
    "state_code": "BE",
    "country_id": 83,
    "country_code": "GH",
    "latitude": "7.98971320",
    "longitude": "-2.00711150",
    "wikiDataId": null
  },
  {
    "id": 149079,
    "name": "Nkoranza North",
    "state_id": 4958,
    "state_code": "BE",
    "country_id": 83,
    "country_code": "GH",
    "latitude": "7.56603310",
    "longitude": "-1.72365200",
    "wikiDataId": null
  },
  {
    "id": 149080,
    "name": "Nkoranza South",
    "state_id": 4958,
    "state_code": "BE",
    "country_id": 83,
    "country_code": "GH",
    "latitude": "7.62405120",
    "longitude": "-1.79974460",
    "wikiDataId": null
  },
  {
    "id": 149082,
    "name": "Pru East",
    "state_id": 4958,
    "state_code": "BE",
    "country_id": 83,
    "country_code": "GH",
    "latitude": "8.22620000",
    "longitude": "-0.65360000",
    "wikiDataId": null
  },
  {
    "id": 149081,
    "name": "Pru West",
    "state_id": 4958,
    "state_code": "BE",
    "country_id": 83,
    "country_code": "GH",
    "latitude": "8.07359930",
    "longitude": "-1.29055410",
    "wikiDataId": null
  },
  {
    "id": 149083,
    "name": "Sene East",
    "state_id": 4958,
    "state_code": "BE",
    "country_id": 83,
    "country_code": "GH",
    "latitude": "7.78300000",
    "longitude": "-0.21700000",
    "wikiDataId": null
  },
  {
    "id": 149084,
    "name": "Sene West",
    "state_id": 4958,
    "state_code": "BE",
    "country_id": 83,
    "country_code": "GH",
    "latitude": "7.73420000",
    "longitude": "-0.68180000",
    "wikiDataId": null
  },
  {
    "id": 149074,
    "name": "Techiman",
    "state_id": 4958,
    "state_code": "BE",
    "country_id": 83,
    "country_code": "GH",
    "latitude": "7.58968560",
    "longitude": "-1.95122140",
    "wikiDataId": null
  },
  {
    "id": 149075,
    "name": "Techiman North",
    "state_id": 4958,
    "state_code": "BE",
    "country_id": 83,
    "country_code": "GH",
    "latitude": "7.70428020",
    "longitude": "-2.08140570",
    "wikiDataId": null
  }
]