[
  {
    "id": 81269,
    "name": "Angono",
    "state_id": 1271,
    "state_code": "RIZ",
    "country_id": 174,
    "country_code": "PH",
    "latitude": "14.53908180",
    "longitude": "121.12685790",
    "wikiDataId": null
  },
  {
    "id": 81281,
    "name": "Antipolo",
    "state_id": 1271,
    "state_code": "RIZ",
    "country_id": 174,
    "country_code": "PH",
    "latitude": "14.66547100",
    "longitude": "121.08089880",
    "wikiDataId": null
  },
  {
    "id": 154787,
    "name": "Baras",
    "state_id": 1271,
    "state_code": "RIZ",
    "country_id": 174,
    "country_code": "PH",
    "latitude": "14.53760640",
    "longitude": "121.23194580",
    "wikiDataId": null
  },
  {
    "id": 81712,
    "name": "Binangonan",
    "state_id": 1271,
    "state_code": "RIZ",
    "country_id": 174,
    "country_code": "PH",
    "latitude": "14.40893760",
    "longitude": "121.12346540",
    "wikiDataId": null
  },
  {
    "id": 82003,
    "name": "Cainta",
    "state_id": 1271,
    "state_code": "RIZ",
    "country_id": 174,
    "country_code": "PH",
    "latitude": "14.59230790",
    "longitude": "121.08194140",
    "wikiDataId": null
  },
  {
    "id": 82158,
    "name": "Cardona",
    "state_id": 1271,
    "state_code": "RIZ",
    "country_id": 174,
    "country_code": "PH",
    "latitude": "14.41283560",
    "longitude": "121.15400390",
    "wikiDataId": null
  },
  {
    "id": 82785,
    "name": "Jalajala",
    "state_id": 1271,
    "state_code": "RIZ",
    "country_id": 174,
    "country_code": "PH",
    "latitude": "14.32710740",
    "longitude": "121.30369570",
    "wikiDataId": null
  },
  {
    "id": 83713,
    "name": "Morong",
    "state_id": 1271,
    "state_code": "RIZ",
    "country_id": 174,
    "country_code": "PH",
    "latitude": "14.53422920",
    "longitude": "121.19373580",
    "wikiDataId": null
  },
  {
    "id": 84099,
    "name": "Pililla",
    "state_id": 1271,
    "state_code": "RIZ",
    "country_id": 174,
    "country_code": "PH",
    "latitude": "14.44685100",
    "longitude": "121.25394020",
    "wikiDataId": null
  },
  {
    "id": 84350,
    "name": "Rodriguez",
    "state_id": 1271,
    "state_code": "RIZ",
    "country_id": 174,
    "country_code": "PH",
    "latitude": "14.78627200",
    "longitude": "121.06822850",
    "wikiDataId": null
  },
  {
    "id": 154788,
    "name": "San Mateo",
    "state_id": 1271,
    "state_code": "RIZ",
    "country_id": 174,
    "country_code": "PH",
    "latitude": "14.68191840",
    "longitude": "121.10877160",
    "wikiDataId": null
  },
  {
    "id": 85030,
    "name": "Tanay",
    "state_id": 1271,
    "state_code": "RIZ",
    "country_id": 174,
    "country_code": "PH",
    "latitude": "14.57779400",
    "longitude": "121.19182200",
    "wikiDataId": null
  },
  {
    "id": 154789,
    "name": "Taytay",
    "state_id": 1271,
    "state_code": "RIZ",
    "country_id": 174,
    "country_code": "PH",
    "latitude": "14.55319650",
    "longitude": "121.09611710",
    "wikiDataId": null
  },
  {
    "id": 85089,
    "name": "Teresa",
    "state_id": 1271,
    "state_code": "RIZ",
    "country_id": 174,
    "country_code": "PH",
    "latitude": "14.56702670",
    "longitude": "121.18751310",
    "wikiDataId": null
  }
]