[
  {
    "id": 129789,
    "name": "Carmelo",
    "state_id": 3208,
    "state_code": "CO",
    "country_id": 235,
    "country_code": "UY",
    "latitude": "-34.00023000",
    "longitude": "-58.28402000",
    "wikiDataId": null
  },
  {
    "id": 129795,
    "name": "Colonia del Sacramento",
    "state_id": 3208,
    "state_code": "CO",
    "country_id": 235,
    "country_code": "UY",
    "latitude": "-34.46262000",
    "longitude": "-57.83976000",
    "wikiDataId": null
  },
  {
    "id": 129804,
    "name": "Florencio Sánchez",
    "state_id": 3208,
    "state_code": "CO",
    "country_id": 235,
    "country_code": "UY",
    "latitude": "-33.87785000",
    "longitude": "-57.37166000",
    "wikiDataId": null
  },
  {
    "id": 129813,
    "name": "Juan L. Lacaze",
    "state_id": 3208,
    "state_code": "CO",
    "country_id": 235,
    "country_code": "UY",
    "latitude": "-34.41888000",
    "longitude": "-57.45285000",
    "wikiDataId": null
  },
  {
    "id": 129834,
    "name": "Nueva Helvecia",
    "state_id": 3208,
    "state_code": "CO",
    "country_id": 235,
    "country_code": "UY",
    "latitude": "-34.30000000",
    "longitude": "-57.23333000",
    "wikiDataId": null
  },
  {
    "id": 129835,
    "name": "Nueva Palmira",
    "state_id": 3208,
    "state_code": "CO",
    "country_id": 235,
    "country_code": "UY",
    "latitude": "-33.87031000",
    "longitude": "-58.41176000",
    "wikiDataId": null
  },
  {
    "id": 129837,
    "name": "Ombúes de Lavalle",
    "state_id": 3208,
    "state_code": "CO",
    "country_id": 235,
    "country_code": "UY",
    "latitude": "-33.93783000",
    "longitude": "-57.80959000",
    "wikiDataId": null
  },
  {
    "id": 129855,
    "name": "Rosario",
    "state_id": 3208,
    "state_code": "CO",
    "country_id": 235,
    "country_code": "UY",
    "latitude": "-34.31667000",
    "longitude": "-57.35000000",
    "wikiDataId": null
  },
  {
    "id": 129879,
    "name": "Tarariras",
    "state_id": 3208,
    "state_code": "CO",
    "country_id": 235,
    "country_code": "UY",
    "latitude": "-34.26555000",
    "longitude": "-57.61866000",
    "wikiDataId": null
  }
]