[
  {
    "id": 81224,
    "name": "Allen",
    "state_id": 1349,
    "state_code": "NSA",
    "country_id": 174,
    "country_code": "PH",
    "latitude": "12.52978630",
    "longitude": "124.24781400",
    "wikiDataId": null
  },
  {
    "id": 81736,
    "name": "Biri",
    "state_id": 1349,
    "state_code": "NSA",
    "country_id": 174,
    "country_code": "PH",
    "latitude": "12.65401400",
    "longitude": "124.32008350",
    "wikiDataId": null
  },
  {
    "id": 81754,
    "name": "Bobon",
    "state_id": 1349,
    "state_code": "NSA",
    "country_id": 174,
    "country_code": "PH",
    "latitude": "12.41771900",
    "longitude": "124.44076140",
    "wikiDataId": null
  },
  {
    "id": 82142,
    "name": "Capul",
    "state_id": 1349,
    "state_code": "NSA",
    "country_id": 174,
    "country_code": "PH",
    "latitude": "12.43233530",
    "longitude": "124.12289040",
    "wikiDataId": null
  },
  {
    "id": 154736,
    "name": "Catarman",
    "state_id": 1349,
    "state_code": "NSA",
    "country_id": 174,
    "country_code": "PH",
    "latitude": "12.41141030",
    "longitude": "124.57800460",
    "wikiDataId": null
  },
  {
    "id": 82218,
    "name": "Catubig",
    "state_id": 1349,
    "state_code": "NSA",
    "country_id": 174,
    "country_code": "PH",
    "latitude": "12.38924370",
    "longitude": "124.91989910",
    "wikiDataId": null
  },
  {
    "id": 82555,
    "name": "Gamay",
    "state_id": 1349,
    "state_code": "NSA",
    "country_id": 174,
    "country_code": "PH",
    "latitude": "12.40600320",
    "longitude": "125.17615870",
    "wikiDataId": null
  },
  {
    "id": 83028,
    "name": "Laoang",
    "state_id": 1349,
    "state_code": "NSA",
    "country_id": 174,
    "country_code": "PH",
    "latitude": "12.56805190",
    "longitude": "124.94634690",
    "wikiDataId": null
  },
  {
    "id": 83033,
    "name": "Lapinig",
    "state_id": 1349,
    "state_code": "NSA",
    "country_id": 174,
    "country_code": "PH",
    "latitude": "12.30600350",
    "longitude": "125.20220830",
    "wikiDataId": null
  },
  {
    "id": 83044,
    "name": "Las Navas",
    "state_id": 1349,
    "state_code": "NSA",
    "country_id": 174,
    "country_code": "PH",
    "latitude": "12.31420060",
    "longitude": "124.87470930",
    "wikiDataId": null
  },
  {
    "id": 83052,
    "name": "Lavezares",
    "state_id": 1349,
    "state_code": "NSA",
    "country_id": 174,
    "country_code": "PH",
    "latitude": "12.55164820",
    "longitude": "124.26279140",
    "wikiDataId": null
  },
  {
    "id": 83176,
    "name": "Lope de Vega",
    "state_id": 1349,
    "state_code": "NSA",
    "country_id": 174,
    "country_code": "PH",
    "latitude": "12.30136700",
    "longitude": "124.58281110",
    "wikiDataId": null
  },
  {
    "id": 83550,
    "name": "Mapanas",
    "state_id": 1349,
    "state_code": "NSA",
    "country_id": 174,
    "country_code": "PH",
    "latitude": "12.45160030",
    "longitude": "125.12281490",
    "wikiDataId": null
  },
  {
    "id": 83701,
    "name": "Mondragon",
    "state_id": 1349,
    "state_code": "NSA",
    "country_id": 174,
    "country_code": "PH",
    "latitude": "12.41050200",
    "longitude": "124.59339920",
    "wikiDataId": null
  },
  {
    "id": 83915,
    "name": "Palapag",
    "state_id": 1349,
    "state_code": "NSA",
    "country_id": 174,
    "country_code": "PH",
    "latitude": "12.52819270",
    "longitude": "124.96732060",
    "wikiDataId": null
  },
  {
    "id": 83937,
    "name": "Pambujan",
    "state_id": 1349,
    "state_code": "NSA",
    "country_id": 174,
    "country_code": "PH",
    "latitude": "12.47638550",
    "longitude": "124.83249260",
    "wikiDataId": null
  },
  {
    "id": 154737,
    "name": "Rosario",
    "state_id": 1349,
    "state_code": "NSA",
    "country_id": 174,
    "country_code": "PH",
    "latitude": "12.51302520",
    "longitude": "124.35857850",
    "wikiDataId": null
  },
  {
    "id": 84447,
    "name": "San Antonio",
    "state_id": 1349,
    "state_code": "NSA",
    "country_id": 174,
    "country_code": "PH",
    "latitude": "12.41029060",
    "longitude": "124.22198190",
    "wikiDataId": null
  },
  {
    "id": 154738,
    "name": "San Isidro",
    "state_id": 1349,
    "state_code": "NSA",
    "country_id": 174,
    "country_code": "PH",
    "latitude": "12.34861670",
    "longitude": "124.31162910",
    "wikiDataId": null
  },
  {
    "id": 154739,
    "name": "San Jose",
    "state_id": 1349,
    "state_code": "NSA",
    "country_id": 174,
    "country_code": "PH",
    "latitude": "12.50954490",
    "longitude": "124.40728740",
    "wikiDataId": null
  },
  {
    "id": 84609,
    "name": "San Roque",
    "state_id": 1349,
    "state_code": "NSA",
    "country_id": 174,
    "country_code": "PH",
    "latitude": "12.45473180",
    "longitude": "124.80228020",
    "wikiDataId": null
  },
  {
    "id": 154740,
    "name": "San Vicente",
    "state_id": 1349,
    "state_code": "NSA",
    "country_id": 174,
    "country_code": "PH",
    "latitude": "12.33217930",
    "longitude": "123.97779060",
    "wikiDataId": null
  },
  {
    "id": 84797,
    "name": "Silvino Lobos",
    "state_id": 1349,
    "state_code": "NSA",
    "country_id": 174,
    "country_code": "PH",
    "latitude": "12.30367240",
    "longitude": "124.69352070",
    "wikiDataId": null
  },
  {
    "id": 154741,
    "name": "Victoria",
    "state_id": 1349,
    "state_code": "NSA",
    "country_id": 174,
    "country_code": "PH",
    "latitude": "12.41128970",
    "longitude": "124.22119440",
    "wikiDataId": null
  }
]