[
  {
    "id": 53856,
    "name": "Arimís",
    "state_id": 4050,
    "state_code": "OL",
    "country_id": 97,
    "country_code": "HN",
    "latitude": "14.78333000",
    "longitude": "-86.00000000",
    "wikiDataId": null
  },
  {
    "id": 53883,
    "name": "Campamento",
    "state_id": 4050,
    "state_code": "OL",
    "country_id": 97,
    "country_code": "HN",
    "latitude": "14.55000000",
    "longitude": "-86.65000000",
    "wikiDataId": null
  },
  {
    "id": 53890,
    "name": "Catacamas",
    "state_id": 4050,
    "state_code": "OL",
    "country_id": 97,
    "country_code": "HN",
    "latitude": "14.60384000",
    "longitude": "-85.54261000",
    "wikiDataId": null
  },
  {
    "id": 53917,
    "name": "Concordia",
    "state_id": 4050,
    "state_code": "OL",
    "country_id": 97,
    "country_code": "HN",
    "latitude": "14.61667000",
    "longitude": "-86.65000000",
    "wikiDataId": null
  },
  {
    "id": 53938,
    "name": "Dulce Nombre de Culmí",
    "state_id": 4050,
    "state_code": "OL",
    "country_id": 97,
    "country_code": "HN",
    "latitude": "15.10000000",
    "longitude": "-85.53333000",
    "wikiDataId": null
  },
  {
    "id": 53956,
    "name": "El Guayabito",
    "state_id": 4050,
    "state_code": "OL",
    "country_id": 97,
    "country_code": "HN",
    "latitude": "14.83333000",
    "longitude": "-86.03333000",
    "wikiDataId": null
  },
  {
    "id": 53986,
    "name": "El Rosario",
    "state_id": 4050,
    "state_code": "OL",
    "country_id": 97,
    "country_code": "HN",
    "latitude": "14.88720000",
    "longitude": "-86.68764000",
    "wikiDataId": null
  },
  {
    "id": 53987,
    "name": "El Rusio",
    "state_id": 4050,
    "state_code": "OL",
    "country_id": 97,
    "country_code": "HN",
    "latitude": "14.46667000",
    "longitude": "-86.36667000",
    "wikiDataId": null
  },
  {
    "id": 54002,
    "name": "Esquipulas del Norte",
    "state_id": 4050,
    "state_code": "OL",
    "country_id": 97,
    "country_code": "HN",
    "latitude": "15.27763000",
    "longitude": "-86.55760000",
    "wikiDataId": null
  },
  {
    "id": 54015,
    "name": "Gualaco",
    "state_id": 4050,
    "state_code": "OL",
    "country_id": 97,
    "country_code": "HN",
    "latitude": "15.02521000",
    "longitude": "-86.07076000",
    "wikiDataId": null
  },
  {
    "id": 54021,
    "name": "Guarizama",
    "state_id": 4050,
    "state_code": "OL",
    "country_id": 97,
    "country_code": "HN",
    "latitude": "14.91667000",
    "longitude": "-86.33333000",
    "wikiDataId": null
  },
  {
    "id": 54022,
    "name": "Guata",
    "state_id": 4050,
    "state_code": "OL",
    "country_id": 97,
    "country_code": "HN",
    "latitude": "15.15133000",
    "longitude": "-86.37624000",
    "wikiDataId": null
  },
  {
    "id": 54023,
    "name": "Guayape",
    "state_id": 4050,
    "state_code": "OL",
    "country_id": 97,
    "country_code": "HN",
    "latitude": "14.71667000",
    "longitude": "-86.83333000",
    "wikiDataId": null
  },
  {
    "id": 54032,
    "name": "Jano",
    "state_id": 4050,
    "state_code": "OL",
    "country_id": 97,
    "country_code": "HN",
    "latitude": "15.07902000",
    "longitude": "-86.51521000",
    "wikiDataId": null
  },
  {
    "id": 54042,
    "name": "Juticalpa",
    "state_id": 4050,
    "state_code": "OL",
    "country_id": 97,
    "country_code": "HN",
    "latitude": "14.66667000",
    "longitude": "-86.21944000",
    "wikiDataId": null
  },
  {
    "id": 54043,
    "name": "Jutiquile",
    "state_id": 4050,
    "state_code": "OL",
    "country_id": 97,
    "country_code": "HN",
    "latitude": "14.71667000",
    "longitude": "-86.08333000",
    "wikiDataId": null
  },
  {
    "id": 54049,
    "name": "La Concepción",
    "state_id": 4050,
    "state_code": "OL",
    "country_id": 97,
    "country_code": "HN",
    "latitude": "14.70000000",
    "longitude": "-86.23333000",
    "wikiDataId": null
  },
  {
    "id": 54057,
    "name": "La Estancia",
    "state_id": 4050,
    "state_code": "OL",
    "country_id": 97,
    "country_code": "HN",
    "latitude": "15.05000000",
    "longitude": "-86.35000000",
    "wikiDataId": null
  },
  {
    "id": 54061,
    "name": "La Guata",
    "state_id": 4050,
    "state_code": "OL",
    "country_id": 97,
    "country_code": "HN",
    "latitude": "15.08333000",
    "longitude": "-86.38333000",
    "wikiDataId": null
  },
  {
    "id": 54082,
    "name": "La Unión",
    "state_id": 4050,
    "state_code": "OL",
    "country_id": 97,
    "country_code": "HN",
    "latitude": "15.09759000",
    "longitude": "-86.68910000",
    "wikiDataId": null
  },
  {
    "id": 54087,
    "name": "Laguna Seca",
    "state_id": 4050,
    "state_code": "OL",
    "country_id": 97,
    "country_code": "HN",
    "latitude": "14.70000000",
    "longitude": "-86.10000000",
    "wikiDataId": null
  },
  {
    "id": 54115,
    "name": "Mangulile",
    "state_id": 4050,
    "state_code": "OL",
    "country_id": 97,
    "country_code": "HN",
    "latitude": "15.06667000",
    "longitude": "-86.80000000",
    "wikiDataId": null
  },
  {
    "id": 54116,
    "name": "Manto",
    "state_id": 4050,
    "state_code": "OL",
    "country_id": 97,
    "country_code": "HN",
    "latitude": "14.91667000",
    "longitude": "-86.38333000",
    "wikiDataId": null
  },
  {
    "id": 54137,
    "name": "Municipio de San Francisco de La Paz",
    "state_id": 4050,
    "state_code": "OL",
    "country_id": 97,
    "country_code": "HN",
    "latitude": "14.84183000",
    "longitude": "-86.11819000",
    "wikiDataId": null
  },
  {
    "id": 54166,
    "name": "Patuca",
    "state_id": 4050,
    "state_code": "OL",
    "country_id": 97,
    "country_code": "HN",
    "latitude": "14.36000000",
    "longitude": "-85.97000000",
    "wikiDataId": null
  },
  {
    "id": 54189,
    "name": "Punuare",
    "state_id": 4050,
    "state_code": "OL",
    "country_id": 97,
    "country_code": "HN",
    "latitude": "14.73333000",
    "longitude": "-85.96667000",
    "wikiDataId": null
  },
  {
    "id": 54207,
    "name": "Salamá",
    "state_id": 4050,
    "state_code": "OL",
    "country_id": 97,
    "country_code": "HN",
    "latitude": "14.81052000",
    "longitude": "-86.61996000",
    "wikiDataId": null
  },
  {
    "id": 54224,
    "name": "San Esteban",
    "state_id": 4050,
    "state_code": "OL",
    "country_id": 97,
    "country_code": "HN",
    "latitude": "15.29467000",
    "longitude": "-85.69487000",
    "wikiDataId": null
  },
  {
    "id": 54228,
    "name": "San Francisco de Becerra",
    "state_id": 4050,
    "state_code": "OL",
    "country_id": 97,
    "country_code": "HN",
    "latitude": "14.63333000",
    "longitude": "-86.10000000",
    "wikiDataId": null
  },
  {
    "id": 54234,
    "name": "San Francisco de la Paz",
    "state_id": 4050,
    "state_code": "OL",
    "country_id": 97,
    "country_code": "HN",
    "latitude": "14.90000000",
    "longitude": "-86.20000000",
    "wikiDataId": null
  },
  {
    "id": 54252,
    "name": "San José de Río Tinto",
    "state_id": 4050,
    "state_code": "OL",
    "country_id": 97,
    "country_code": "HN",
    "latitude": "14.93333000",
    "longitude": "-85.70000000",
    "wikiDataId": null
  },
  {
    "id": 54278,
    "name": "San Nicolás",
    "state_id": 4050,
    "state_code": "OL",
    "country_id": 97,
    "country_code": "HN",
    "latitude": "14.55000000",
    "longitude": "-86.25000000",
    "wikiDataId": null
  },
  {
    "id": 54307,
    "name": "Santa María del Real",
    "state_id": 4050,
    "state_code": "OL",
    "country_id": 97,
    "country_code": "HN",
    "latitude": "14.76667000",
    "longitude": "-85.95000000",
    "wikiDataId": null
  },
  {
    "id": 54318,
    "name": "Silca",
    "state_id": 4050,
    "state_code": "OL",
    "country_id": 97,
    "country_code": "HN",
    "latitude": "14.76205000",
    "longitude": "-86.51521000",
    "wikiDataId": null
  },
  {
    "id": 54373,
    "name": "Yocón",
    "state_id": 4050,
    "state_code": "OL",
    "country_id": 97,
    "country_code": "HN",
    "latitude": "14.95000000",
    "longitude": "-86.82000000",
    "wikiDataId": null
  },
  {
    "id": 54379,
    "name": "Zopilotepe",
    "state_id": 4050,
    "state_code": "OL",
    "country_id": 97,
    "country_code": "HN",
    "latitude": "14.60000000",
    "longitude": "-86.26667000",
    "wikiDataId": null
  }
]