[
  {
    "id": 134554,
    "name": "‘Aqrah",
    "state_id": 3963,
    "state_code": "NI",
    "country_id": 104,
    "country_code": "IQ",
    "latitude": "36.76038000",
    "longitude": "43.89428000",
    "wikiDataId": null
  },
  {
    "id": 134483,
    "name": "Al Mawşil al Jadīdah",
    "state_id": 3963,
    "state_code": "NI",
    "country_id": 104,
    "country_code": "IQ",
    "latitude": "36.33271000",
    "longitude": "43.10555000",
    "wikiDataId": null
  },
  {
    "id": 134492,
    "name": "Al-Hamdaniya",
    "state_id": 3963,
    "state_code": "NI",
    "country_id": 104,
    "country_code": "IQ",
    "latitude": "36.27093000",
    "longitude": "43.37758000",
    "wikiDataId": null
  },
  {
    "id": 134499,
    "name": "Ash Shaykhān",
    "state_id": 3963,
    "state_code": "NI",
    "country_id": 104,
    "country_code": "IQ",
    "latitude": "36.69595000",
    "longitude": "43.35202000",
    "wikiDataId": null
  },
  {
    "id": 134525,
    "name": "Mosul",
    "state_id": 3963,
    "state_code": "NI",
    "country_id": 104,
    "country_code": "IQ",
    "latitude": "36.33500000",
    "longitude": "43.11889000",
    "wikiDataId": null
  },
  {
    "id": 134537,
    "name": "Sinjar",
    "state_id": 3963,
    "state_code": "NI",
    "country_id": 104,
    "country_code": "IQ",
    "latitude": "36.29548000",
    "longitude": "41.89315000",
    "wikiDataId": null
  },
  {
    "id": 134542,
    "name": "Tall ‘Afar",
    "state_id": 3963,
    "state_code": "NI",
    "country_id": 104,
    "country_code": "IQ",
    "latitude": "36.37913000",
    "longitude": "42.44806000",
    "wikiDataId": null
  },
  {
    "id": 134543,
    "name": "Tallkayf",
    "state_id": 3963,
    "state_code": "NI",
    "country_id": 104,
    "country_code": "IQ",
    "latitude": "36.49118000",
    "longitude": "43.12114000",
    "wikiDataId": null
  }
]