[
  {
    "id": 48168,
    "name": "Aberdeen",
    "state_id": 2463,
    "state_code": "ABE",
    "country_id": 232,
    "country_code": "GB",
    "latitude": "57.14369000",
    "longitude": "-2.09814000",
    "wikiDataId": null
  },
  {
    "id": 48360,
    "name": "Balmedie",
    "state_id": 2463,
    "state_code": "ABE",
    "country_id": 232,
    "country_code": "GB",
    "latitude": "57.25052000",
    "longitude": "-2.06163000",
    "wikiDataId": null
  },
  {
    "id": 48579,
    "name": "Boddam",
    "state_id": 2463,
    "state_code": "ABE",
    "country_id": 232,
    "country_code": "GB",
    "latitude": "57.47076000",
    "longitude": "-1.78009000",
    "wikiDataId": null
  },
  {
    "id": 49125,
    "name": "Cove",
    "state_id": 2463,
    "state_code": "ABE",
    "country_id": 232,
    "country_code": "GB",
    "latitude": "57.10000000",
    "longitude": "-2.08333000",
    "wikiDataId": null
  },
  {
    "id": 49187,
    "name": "Cruden Bay",
    "state_id": 2463,
    "state_code": "ABE",
    "country_id": 232,
    "country_code": "GB",
    "latitude": "57.41797000",
    "longitude": "-1.85313000",
    "wikiDataId": null
  },
  {
    "id": 49204,
    "name": "Cults",
    "state_id": 2463,
    "state_code": "ABE",
    "country_id": 232,
    "country_code": "GB",
    "latitude": "57.11667000",
    "longitude": "-2.16667000",
    "wikiDataId": null
  },
  {
    "id": 49369,
    "name": "Dyce",
    "state_id": 2463,
    "state_code": "ABE",
    "country_id": 232,
    "country_code": "GB",
    "latitude": "57.20522000",
    "longitude": "-2.17676000",
    "wikiDataId": null
  },
  {
    "id": 49457,
    "name": "Ellon",
    "state_id": 2463,
    "state_code": "ABE",
    "country_id": 232,
    "country_code": "GB",
    "latitude": "57.36405000",
    "longitude": "-2.07313000",
    "wikiDataId": null
  },
  {
    "id": 49603,
    "name": "Fraserburgh",
    "state_id": 2463,
    "state_code": "ABE",
    "country_id": 232,
    "country_code": "GB",
    "latitude": "57.68744000",
    "longitude": "-2.01844000",
    "wikiDataId": null
  },
  {
    "id": 50058,
    "name": "Inverbervie",
    "state_id": 2463,
    "state_code": "ABE",
    "country_id": 232,
    "country_code": "GB",
    "latitude": "56.84463000",
    "longitude": "-2.27997000",
    "wikiDataId": null
  },
  {
    "id": 50181,
    "name": "Kingswells",
    "state_id": 2463,
    "state_code": "ABE",
    "country_id": 232,
    "country_code": "GB",
    "latitude": "57.15798000",
    "longitude": "-2.22426000",
    "wikiDataId": null
  },
  {
    "id": 50189,
    "name": "Kintore",
    "state_id": 2463,
    "state_code": "ABE",
    "country_id": 232,
    "country_code": "GB",
    "latitude": "57.23721000",
    "longitude": "-2.34540000",
    "wikiDataId": null
  },
  {
    "id": 50588,
    "name": "Milltimber",
    "state_id": 2463,
    "state_code": "ABE",
    "country_id": 232,
    "country_code": "GB",
    "latitude": "57.10424000",
    "longitude": "-2.24099000",
    "wikiDataId": null
  },
  {
    "id": 50602,
    "name": "Mintlaw",
    "state_id": 2463,
    "state_code": "ABE",
    "country_id": 232,
    "country_code": "GB",
    "latitude": "57.52414000",
    "longitude": "-2.00099000",
    "wikiDataId": null
  },
  {
    "id": 50693,
    "name": "New Pitsligo",
    "state_id": 2463,
    "state_code": "ABE",
    "country_id": 232,
    "country_code": "GB",
    "latitude": "57.59019000",
    "longitude": "-2.19535000",
    "wikiDataId": null
  },
  {
    "id": 50716,
    "name": "Newmacher",
    "state_id": 2463,
    "state_code": "ABE",
    "country_id": 232,
    "country_code": "GB",
    "latitude": "57.26667000",
    "longitude": "-2.18333000",
    "wikiDataId": null
  },
  {
    "id": 50735,
    "name": "Newtonhill",
    "state_id": 2463,
    "state_code": "ABE",
    "country_id": 232,
    "country_code": "GB",
    "latitude": "57.03333000",
    "longitude": "-2.15000000",
    "wikiDataId": null
  },
  {
    "id": 50808,
    "name": "Oldmeldrum",
    "state_id": 2463,
    "state_code": "ABE",
    "country_id": 232,
    "country_code": "GB",
    "latitude": "57.33492000",
    "longitude": "-2.31990000",
    "wikiDataId": null
  },
  {
    "id": 50901,
    "name": "Peterculter",
    "state_id": 2463,
    "state_code": "ABE",
    "country_id": 232,
    "country_code": "GB",
    "latitude": "57.09929000",
    "longitude": "-2.26588000",
    "wikiDataId": null
  },
  {
    "id": 50902,
    "name": "Peterhead",
    "state_id": 2463,
    "state_code": "ABE",
    "country_id": 232,
    "country_code": "GB",
    "latitude": "57.50584000",
    "longitude": "-1.79806000",
    "wikiDataId": null
  },
  {
    "id": 50918,
    "name": "Pitmedden",
    "state_id": 2463,
    "state_code": "ABE",
    "country_id": 232,
    "country_code": "GB",
    "latitude": "57.33691000",
    "longitude": "-2.18022000",
    "wikiDataId": null
  },
  {
    "id": 50953,
    "name": "Port Erroll",
    "state_id": 2463,
    "state_code": "ABE",
    "country_id": 232,
    "country_code": "GB",
    "latitude": "57.41427000",
    "longitude": "-1.84596000",
    "wikiDataId": null
  },
  {
    "id": 50966,
    "name": "Portlethen",
    "state_id": 2463,
    "state_code": "ABE",
    "country_id": 232,
    "country_code": "GB",
    "latitude": "57.06942000",
    "longitude": "-2.13246000",
    "wikiDataId": null
  },
  {
    "id": 51106,
    "name": "Rosehearty",
    "state_id": 2463,
    "state_code": "ABE",
    "country_id": 232,
    "country_code": "GB",
    "latitude": "57.69700000",
    "longitude": "-2.11322000",
    "wikiDataId": null
  },
  {
    "id": 51473,
    "name": "Stonehaven",
    "state_id": 2463,
    "state_code": "ABE",
    "country_id": 232,
    "country_code": "GB",
    "latitude": "56.96365000",
    "longitude": "-2.21177000",
    "wikiDataId": null
  },
  {
    "id": 51843,
    "name": "Westhill",
    "state_id": 2463,
    "state_code": "ABE",
    "country_id": 232,
    "country_code": "GB",
    "latitude": "57.15263000",
    "longitude": "-2.27966000",
    "wikiDataId": null
  }
]