[
  {
    "id": 81147,
    "name": "Adlay",
    "state_id": 1314,
    "state_code": "13",
    "country_id": 174,
    "country_code": "PH",
    "latitude": "9.40972000",
    "longitude": "125.89750000",
    "wikiDataId": null
  },
  {
    "id": 81153,
    "name": "Agay",
    "state_id": 1314,
    "state_code": "13",
    "country_id": 174,
    "country_code": "PH",
    "latitude": "9.05361000",
    "longitude": "125.58667000",
    "wikiDataId": null
  },
  {
    "id": 81240,
    "name": "Amaga",
    "state_id": 1314,
    "state_code": "13",
    "country_id": 174,
    "country_code": "PH",
    "latitude": "8.53083000",
    "longitude": "126.07028000",
    "wikiDataId": null
  },
  {
    "id": 81280,
    "name": "Anticala",
    "state_id": 1314,
    "state_code": "13",
    "country_id": 174,
    "country_code": "PH",
    "latitude": "9.00444000",
    "longitude": "125.64528000",
    "wikiDataId": null
  },
  {
    "id": 81308,
    "name": "Aras-asan",
    "state_id": 1314,
    "state_code": "13",
    "country_id": 174,
    "country_code": "PH",
    "latitude": "8.88781000",
    "longitude": "126.31120000",
    "wikiDataId": null
  },
  {
    "id": 81415,
    "name": "Bah-Bah",
    "state_id": 1314,
    "state_code": "13",
    "country_id": 174,
    "country_code": "PH",
    "latitude": "8.60722000",
    "longitude": "125.91444000",
    "wikiDataId": null
  },
  {
    "id": 81442,
    "name": "Balangbalang",
    "state_id": 1314,
    "state_code": "13",
    "country_id": 174,
    "country_code": "PH",
    "latitude": "9.05694000",
    "longitude": "125.62278000",
    "wikiDataId": null
  },
  {
    "id": 81521,
    "name": "Bancasi",
    "state_id": 1314,
    "state_code": "13",
    "country_id": 174,
    "country_code": "PH",
    "latitude": "8.96667000",
    "longitude": "125.46667000",
    "wikiDataId": null
  },
  {
    "id": 81533,
    "name": "Bangonay",
    "state_id": 1314,
    "state_code": "13",
    "country_id": 174,
    "country_code": "PH",
    "latitude": "9.31444000",
    "longitude": "125.55389000",
    "wikiDataId": null
  },
  {
    "id": 81591,
    "name": "Basa",
    "state_id": 1314,
    "state_code": "13",
    "country_id": 174,
    "country_code": "PH",
    "latitude": "8.07222000",
    "longitude": "126.06417000",
    "wikiDataId": null
  },
  {
    "id": 81592,
    "name": "Basag",
    "state_id": 1314,
    "state_code": "13",
    "country_id": 174,
    "country_code": "PH",
    "latitude": "8.92548000",
    "longitude": "125.62167000",
    "wikiDataId": null
  },
  {
    "id": 81668,
    "name": "Bayugan",
    "state_id": 1314,
    "state_code": "13",
    "country_id": 174,
    "country_code": "PH",
    "latitude": "8.75611000",
    "longitude": "125.76750000",
    "wikiDataId": null
  },
  {
    "id": 81695,
    "name": "Bigaan",
    "state_id": 1314,
    "state_code": "13",
    "country_id": 174,
    "country_code": "PH",
    "latitude": "8.31722000",
    "longitude": "126.28111000",
    "wikiDataId": null
  },
  {
    "id": 81734,
    "name": "Binucayan",
    "state_id": 1314,
    "state_code": "13",
    "country_id": 174,
    "country_code": "PH",
    "latitude": "8.25000000",
    "longitude": "125.71667000",
    "wikiDataId": null
  },
  {
    "id": 81892,
    "name": "Bunawan",
    "state_id": 1314,
    "state_code": "13",
    "country_id": 174,
    "country_code": "PH",
    "latitude": "8.17879680",
    "longitude": "125.99420650",
    "wikiDataId": null
  },
  {
    "id": 81925,
    "name": "Butuan",
    "state_id": 1314,
    "state_code": "13",
    "country_id": 174,
    "country_code": "PH",
    "latitude": "8.94917000",
    "longitude": "125.54361000",
    "wikiDataId": null
  },
  {
    "id": 81937,
    "name": "Cabadbaran",
    "state_id": 1314,
    "state_code": "13",
    "country_id": 174,
    "country_code": "PH",
    "latitude": "9.12328540",
    "longitude": "125.53223170",
    "wikiDataId": null
  },
  {
    "id": 82060,
    "name": "Caloc-an",
    "state_id": 1314,
    "state_code": "13",
    "country_id": 174,
    "country_code": "PH",
    "latitude": "9.04694000",
    "longitude": "125.53056000",
    "wikiDataId": null
  },
  {
    "id": 82126,
    "name": "Cantapoy",
    "state_id": 1314,
    "state_code": "13",
    "country_id": 174,
    "country_code": "PH",
    "latitude": "9.49056000",
    "longitude": "125.43639000",
    "wikiDataId": null
  },
  {
    "id": 82134,
    "name": "Capalayan",
    "state_id": 1314,
    "state_code": "13",
    "country_id": 174,
    "country_code": "PH",
    "latitude": "9.74056000",
    "longitude": "125.54444000",
    "wikiDataId": null
  },
  {
    "id": 82224,
    "name": "Causwagan",
    "state_id": 1314,
    "state_code": "13",
    "country_id": 174,
    "country_code": "PH",
    "latitude": "8.44750000",
    "longitude": "125.84028000",
    "wikiDataId": null
  },
  {
    "id": 82264,
    "name": "Comagascas",
    "state_id": 1314,
    "state_code": "13",
    "country_id": 174,
    "country_code": "PH",
    "latitude": "9.13972000",
    "longitude": "125.55972000",
    "wikiDataId": null
  },
  {
    "id": 82308,
    "name": "Cuevas",
    "state_id": 1314,
    "state_code": "13",
    "country_id": 174,
    "country_code": "PH",
    "latitude": "8.01917000",
    "longitude": "126.09417000",
    "wikiDataId": null
  },
  {
    "id": 82316,
    "name": "Culit",
    "state_id": 1314,
    "state_code": "13",
    "country_id": 174,
    "country_code": "PH",
    "latitude": "8.94722000",
    "longitude": "125.35694000",
    "wikiDataId": null
  },
  {
    "id": 82405,
    "name": "Del Carmen Surigao del Norte",
    "state_id": 1314,
    "state_code": "13",
    "country_id": 174,
    "country_code": "PH",
    "latitude": "9.86944000",
    "longitude": "125.96972000",
    "wikiDataId": null
  },
  {
    "id": 82410,
    "name": "Del Pilar",
    "state_id": 1314,
    "state_code": "13",
    "country_id": 174,
    "country_code": "PH",
    "latitude": "9.15194000",
    "longitude": "125.58472000",
    "wikiDataId": null
  },
  {
    "id": 82434,
    "name": "Dinagat Islands",
    "state_id": 1314,
    "state_code": "13",
    "country_id": 174,
    "country_code": "PH",
    "latitude": "10.12301000",
    "longitude": "125.55725000",
    "wikiDataId": null
  },
  {
    "id": 82560,
    "name": "Gamut",
    "state_id": 1314,
    "state_code": "13",
    "country_id": 174,
    "country_code": "PH",
    "latitude": "8.53153000",
    "longitude": "126.24117000",
    "wikiDataId": null
  },
  {
    "id": 82612,
    "name": "Guadalupe",
    "state_id": 1314,
    "state_code": "13",
    "country_id": 174,
    "country_code": "PH",
    "latitude": "8.58278000",
    "longitude": "125.70806000",
    "wikiDataId": null
  },
  {
    "id": 82628,
    "name": "Guinabsan",
    "state_id": 1314,
    "state_code": "13",
    "country_id": 174,
    "country_code": "PH",
    "latitude": "8.89750000",
    "longitude": "125.41611000",
    "wikiDataId": null
  },
  {
    "id": 82758,
    "name": "Ipil",
    "state_id": 1314,
    "state_code": "13",
    "country_id": 174,
    "country_code": "PH",
    "latitude": "9.79070000",
    "longitude": "125.43860000",
    "wikiDataId": null
  },
  {
    "id": 82778,
    "name": "Jabonga",
    "state_id": 1314,
    "state_code": "13",
    "country_id": 174,
    "country_code": "PH",
    "latitude": "9.34254410",
    "longitude": "125.51637490",
    "wikiDataId": null
  },
  {
    "id": 82784,
    "name": "Jagupit",
    "state_id": 1314,
    "state_code": "13",
    "country_id": 174,
    "country_code": "PH",
    "latitude": "9.24222000",
    "longitude": "125.55806000",
    "wikiDataId": null
  },
  {
    "id": 82904,
    "name": "Kinabhangan",
    "state_id": 1314,
    "state_code": "13",
    "country_id": 174,
    "country_code": "PH",
    "latitude": "8.96917000",
    "longitude": "125.35750000",
    "wikiDataId": null
  },
  {
    "id": 82918,
    "name": "Kitcharao",
    "state_id": 1314,
    "state_code": "13",
    "country_id": 174,
    "country_code": "PH",
    "latitude": "9.45542070",
    "longitude": "125.57553140",
    "wikiDataId": null
  },
  {
    "id": 82955,
    "name": "La Union",
    "state_id": 1314,
    "state_code": "13",
    "country_id": 174,
    "country_code": "PH",
    "latitude": "9.08556000",
    "longitude": "125.53583000",
    "wikiDataId": null
  },
  {
    "id": 83034,
    "name": "Lapinigan",
    "state_id": 1314,
    "state_code": "13",
    "country_id": 174,
    "country_code": "PH",
    "latitude": "8.42056000",
    "longitude": "125.98250000",
    "wikiDataId": null
  },
  {
    "id": 83081,
    "name": "Libas",
    "state_id": 1314,
    "state_code": "13",
    "country_id": 174,
    "country_code": "PH",
    "latitude": "9.88333000",
    "longitude": "125.98333000",
    "wikiDataId": null
  },
  {
    "id": 83164,
    "name": "Lombocan",
    "state_id": 1314,
    "state_code": "13",
    "country_id": 174,
    "country_code": "PH",
    "latitude": "9.00767000",
    "longitude": "125.50558000",
    "wikiDataId": null
  },
  {
    "id": 83183,
    "name": "Los Angeles",
    "state_id": 1314,
    "state_code": "13",
    "country_id": 174,
    "country_code": "PH",
    "latitude": "9.01250000",
    "longitude": "125.60806000",
    "wikiDataId": null
  },
  {
    "id": 83184,
    "name": "Los Arcos",
    "state_id": 1314,
    "state_code": "13",
    "country_id": 174,
    "country_code": "PH",
    "latitude": "8.63278000",
    "longitude": "125.98556000",
    "wikiDataId": null
  },
  {
    "id": 83189,
    "name": "Loyola",
    "state_id": 1314,
    "state_code": "13",
    "country_id": 174,
    "country_code": "PH",
    "latitude": "8.33492000",
    "longitude": "126.33366000",
    "wikiDataId": null
  },
  {
    "id": 83265,
    "name": "Mabahin",
    "state_id": 1314,
    "state_code": "13",
    "country_id": 174,
    "country_code": "PH",
    "latitude": "9.18556000",
    "longitude": "126.17056000",
    "wikiDataId": null
  },
  {
    "id": 83286,
    "name": "Mabua",
    "state_id": 1314,
    "state_code": "13",
    "country_id": 174,
    "country_code": "PH",
    "latitude": "9.80390000",
    "longitude": "125.44090000",
    "wikiDataId": null
  },
  {
    "id": 83492,
    "name": "Manapa",
    "state_id": 1314,
    "state_code": "13",
    "country_id": 174,
    "country_code": "PH",
    "latitude": "8.97778000",
    "longitude": "125.43944000",
    "wikiDataId": null
  },
  {
    "id": 83612,
    "name": "Matabao",
    "state_id": 1314,
    "state_code": "13",
    "country_id": 174,
    "country_code": "PH",
    "latitude": "8.95722000",
    "longitude": "125.39944000",
    "wikiDataId": null
  },
  {
    "id": 83649,
    "name": "Maygatasan",
    "state_id": 1314,
    "state_code": "13",
    "country_id": 174,
    "country_code": "PH",
    "latitude": "8.70944000",
    "longitude": "125.71833000",
    "wikiDataId": null
  },
  {
    "id": 83783,
    "name": "Nasipit",
    "state_id": 1314,
    "state_code": "13",
    "country_id": 174,
    "country_code": "PH",
    "latitude": "8.98843770",
    "longitude": "125.34082680",
    "wikiDataId": null
  },
  {
    "id": 83986,
    "name": "Panikian",
    "state_id": 1314,
    "state_code": "13",
    "country_id": 174,
    "country_code": "PH",
    "latitude": "9.32935000",
    "longitude": "125.93380000",
    "wikiDataId": null
  },
  {
    "id": 84043,
    "name": "Patin-ay",
    "state_id": 1314,
    "state_code": "13",
    "country_id": 174,
    "country_code": "PH",
    "latitude": "8.55056000",
    "longitude": "125.93722000",
    "wikiDataId": null
  },
  {
    "id": 84178,
    "name": "Prosperidad",
    "state_id": 1314,
    "state_code": "13",
    "country_id": 174,
    "country_code": "PH",
    "latitude": "8.60239610",
    "longitude": "125.91163380",
    "wikiDataId": null
  },
  {
    "id": 84182,
    "name": "Province of Agusan del Norte",
    "state_id": 1314,
    "state_code": "13",
    "country_id": 174,
    "country_code": "PH",
    "latitude": "8.99360000",
    "longitude": "125.57098000",
    "wikiDataId": null
  },
  {
    "id": 84183,
    "name": "Province of Agusan del Sur",
    "state_id": 1314,
    "state_code": "13",
    "country_id": 174,
    "country_code": "PH",
    "latitude": "8.50000000",
    "longitude": "125.83333000",
    "wikiDataId": null
  },
  {
    "id": 84246,
    "name": "Province of Surigao del Norte",
    "state_id": 1314,
    "state_code": "13",
    "country_id": 174,
    "country_code": "PH",
    "latitude": "9.66303000",
    "longitude": "125.52704000",
    "wikiDataId": null
  },
  {
    "id": 84247,
    "name": "Province of Surigao del Sur",
    "state_id": 1314,
    "state_code": "13",
    "country_id": 174,
    "country_code": "PH",
    "latitude": "8.80908000",
    "longitude": "126.12854000",
    "wikiDataId": null
  },
  {
    "id": 84280,
    "name": "Punta",
    "state_id": 1314,
    "state_code": "13",
    "country_id": 174,
    "country_code": "PH",
    "latitude": "8.98972000",
    "longitude": "125.34000000",
    "wikiDataId": null
  },
  {
    "id": 84421,
    "name": "Salvacion",
    "state_id": 1314,
    "state_code": "13",
    "country_id": 174,
    "country_code": "PH",
    "latitude": "7.99954000",
    "longitude": "126.12480000",
    "wikiDataId": null
  },
  {
    "id": 84634,
    "name": "Sanghan",
    "state_id": 1314,
    "state_code": "13",
    "country_id": 174,
    "country_code": "PH",
    "latitude": "9.08556000",
    "longitude": "125.57278000",
    "wikiDataId": null
  },
  {
    "id": 84674,
    "name": "Santa Josefa",
    "state_id": 1314,
    "state_code": "13",
    "country_id": 174,
    "country_code": "PH",
    "latitude": "7.98447610",
    "longitude": "126.02880950",
    "wikiDataId": null
  },
  {
    "id": 84768,
    "name": "Sibagat",
    "state_id": 1314,
    "state_code": "13",
    "country_id": 174,
    "country_code": "PH",
    "latitude": "8.81953000",
    "longitude": "125.69312760",
    "wikiDataId": null
  },
  {
    "id": 84820,
    "name": "Sinubong",
    "state_id": 1314,
    "state_code": "13",
    "country_id": 174,
    "country_code": "PH",
    "latitude": "8.06840000",
    "longitude": "125.93080000",
    "wikiDataId": null
  },
  {
    "id": 84882,
    "name": "Surigao",
    "state_id": 1314,
    "state_code": "13",
    "country_id": 174,
    "country_code": "PH",
    "latitude": "9.78900000",
    "longitude": "125.49500000",
    "wikiDataId": null
  },
  {
    "id": 84940,
    "name": "Tagcatong",
    "state_id": 1314,
    "state_code": "13",
    "country_id": 174,
    "country_code": "PH",
    "latitude": "9.00222000",
    "longitude": "125.25694000",
    "wikiDataId": null
  },
  {
    "id": 84961,
    "name": "Talacogon",
    "state_id": 1314,
    "state_code": "13",
    "country_id": 174,
    "country_code": "PH",
    "latitude": "8.45611000",
    "longitude": "125.78417000",
    "wikiDataId": null
  },
  {
    "id": 84975,
    "name": "Taligaman",
    "state_id": 1314,
    "state_code": "13",
    "country_id": 174,
    "country_code": "PH",
    "latitude": "8.90444000",
    "longitude": "125.65583000",
    "wikiDataId": null
  },
  {
    "id": 85099,
    "name": "Tidman",
    "state_id": 1314,
    "state_code": "13",
    "country_id": 174,
    "country_code": "PH",
    "latitude": "8.29861000",
    "longitude": "126.33889000",
    "wikiDataId": null
  },
  {
    "id": 85101,
    "name": "Tigao",
    "state_id": 1314,
    "state_code": "13",
    "country_id": 174,
    "country_code": "PH",
    "latitude": "9.20889000",
    "longitude": "126.17611000",
    "wikiDataId": null
  },
  {
    "id": 85178,
    "name": "Trento",
    "state_id": 1314,
    "state_code": "13",
    "country_id": 174,
    "country_code": "PH",
    "latitude": "8.04583000",
    "longitude": "126.06361000",
    "wikiDataId": null
  },
  {
    "id": 85188,
    "name": "Tubay",
    "state_id": 1314,
    "state_code": "13",
    "country_id": 174,
    "country_code": "PH",
    "latitude": "9.16506760",
    "longitude": "125.52269120",
    "wikiDataId": null
  },
  {
    "id": 85226,
    "name": "Tungao",
    "state_id": 1314,
    "state_code": "13",
    "country_id": 174,
    "country_code": "PH",
    "latitude": "8.78368000",
    "longitude": "125.59587000",
    "wikiDataId": null
  },
  {
    "id": 85254,
    "name": "Unidad",
    "state_id": 1314,
    "state_code": "13",
    "country_id": 174,
    "country_code": "PH",
    "latitude": "8.53556000",
    "longitude": "126.22865000",
    "wikiDataId": null
  },
  {
    "id": 85259,
    "name": "Union",
    "state_id": 1314,
    "state_code": "13",
    "country_id": 174,
    "country_code": "PH",
    "latitude": "9.75667000",
    "longitude": "126.11028000",
    "wikiDataId": null
  },
  {
    "id": 85282,
    "name": "Veruela",
    "state_id": 1314,
    "state_code": "13",
    "country_id": 174,
    "country_code": "PH",
    "latitude": "8.06941710",
    "longitude": "125.95529370",
    "wikiDataId": null
  }
]