[
  {
    "id": 1048,
    "name": "Bács-Kiskun",
    "country_id": 99,
    "country_code": "HU",
    "state_code": "BK",
    "type": "county",
    "latitude": "46.58092940",
    "longitude": "19.51285320",
    "iso3166_2": "HU-BK",
    "native": "Bács-Kiskun",
    "timezone": "Europe/Budapest"
  },
  {
    "id": 1055,
    "name": "Baranya",
    "country_id": 99,
    "country_code": "HU",
    "state_code": "BA",
    "type": "county",
    "latitude": "45.97144360",
    "longitude": "18.16692460",
    "iso3166_2": "HU-BA",
    "native": "Baranya",
    "timezone": "Europe/Budapest"
  },
  {
    "id": 1060,
    "name": "Békés",
    "country_id": 99,
    "country_code": "HU",
    "state_code": "BE",
    "type": "county",
    "latitude": "46.77174310",
    "longitude": "21.13258770",
    "iso3166_2": "HU-BE",
    "native": "Békés",
    "timezone": "Europe/Budapest"
  },
  {
    "id": 1036,
    "name": "Békéscsaba",
    "country_id": 99,
    "country_code": "HU",
    "state_code": "BC",
    "type": "city with county rights",
    "latitude": "46.67980030",
    "longitude": "21.09854250",
    "iso3166_2": "HU-BC",
    "native": "Békéscsaba",
    "timezone": "Europe/Budapest"
  },
  {
    "id": 1058,
    "name": "Borsod-Abaúj-Zemplén",
    "country_id": 99,
    "country_code": "HU",
    "state_code": "BZ",
    "type": "county",
    "latitude": "48.23979360",
    "longitude": "21.13534740",
    "iso3166_2": "HU-BZ",
    "native": "Borsod-Abaúj-Zemplén",
    "timezone": "Europe/Budapest"
  },
  {
    "id": 1064,
    "name": "Budapest",
    "country_id": 99,
    "country_code": "HU",
    "state_code": "BU",
    "type": "capital city",
    "latitude": "47.49791200",
    "longitude": "19.04023500",
    "iso3166_2": "HU-BU",
    "native": "Budapest",
    "timezone": "Europe/Budapest"
  },
  {
    "id": 1031,
    "name": "Csongrád County",
    "country_id": 99,
    "country_code": "HU",
    "state_code": "CS",
    "type": "county",
    "latitude": "46.26075250",
    "longitude": "20.14845680",
    "iso3166_2": "HU-CS",
    "native": "Csongrád County",
    "timezone": "Europe/Budapest"
  },
  {
    "id": 1032,
    "name": "Debrecen",
    "country_id": 99,
    "country_code": "HU",
    "state_code": "DE",
    "type": "city with county rights",
    "latitude": "47.53160490",
    "longitude": "21.62731240",
    "iso3166_2": "HU-DE",
    "native": "Debrecen",
    "timezone": "Europe/Budapest"
  },
  {
    "id": 1049,
    "name": "Dunaújváros",
    "country_id": 99,
    "country_code": "HU",
    "state_code": "DU",
    "type": "city with county rights",
    "latitude": "46.96190590",
    "longitude": "18.93552270",
    "iso3166_2": "HU-DU",
    "native": "Dunaújváros",
    "timezone": "Europe/Budapest"
  },
  {
    "id": 1037,
    "name": "Eger",
    "country_id": 99,
    "country_code": "HU",
    "state_code": "EG",
    "type": "city with county rights",
    "latitude": "47.90253480",
    "longitude": "20.37722840",
    "iso3166_2": "HU-EG",
    "native": "Buja",
    "timezone": "Europe/Budapest"
  },
  {
    "id": 1028,
    "name": "Érd",
    "country_id": 99,
    "country_code": "HU",
    "state_code": "ER",
    "type": "city with county rights",
    "latitude": "47.37724950",
    "longitude": "18.92138330",
    "iso3166_2": "HU-ER",
    "native": "Érd",
    "timezone": "Europe/Budapest"
  },
  {
    "id": 1044,
    "name": "Fejér County",
    "country_id": 99,
    "country_code": "HU",
    "state_code": "FE",
    "type": "county",
    "latitude": "47.12179320",
    "longitude": "18.52948150",
    "iso3166_2": "HU-FE",
    "native": "Fejér County",
    "timezone": "Europe/Budapest"
  },
  {
    "id": 1041,
    "name": "Győr",
    "country_id": 99,
    "country_code": "HU",
    "state_code": "GY",
    "type": "city with county rights",
    "latitude": "47.68760900",
    "longitude": "17.63468150",
    "iso3166_2": "HU-GY",
    "native": "Győr",
    "timezone": "Europe/Budapest"
  },
  {
    "id": 1042,
    "name": "Győr-Moson-Sopron County",
    "country_id": 99,
    "country_code": "HU",
    "state_code": "GS",
    "type": "county",
    "latitude": "47.65092850",
    "longitude": "17.25058830",
    "iso3166_2": "HU-GS",
    "native": "Győr-Moson-Sopron County",
    "timezone": "Europe/Budapest"
  },
  {
    "id": 1063,
    "name": "Hajdú-Bihar County",
    "country_id": 99,
    "country_code": "HU",
    "state_code": "HB",
    "type": "county",
    "latitude": "47.46883550",
    "longitude": "21.54532270",
    "iso3166_2": "HU-HB",
    "native": "Hajdú-Bihar County",
    "timezone": "Europe/Budapest"
  },
  {
    "id": 1040,
    "name": "Heves County",
    "country_id": 99,
    "country_code": "HU",
    "state_code": "HE",
    "type": "county",
    "latitude": "47.80576170",
    "longitude": "20.20385590",
    "iso3166_2": "HU-HE",
    "native": "Heves megye",
    "timezone": "Europe/Budapest"
  },
  {
    "id": 1027,
    "name": "Hódmezővásárhely",
    "country_id": 99,
    "country_code": "HU",
    "state_code": "HV",
    "type": "city with county rights",
    "latitude": "46.41812620",
    "longitude": "20.33003150",
    "iso3166_2": "HU-HV",
    "native": "Hódmezővásárhely",
    "timezone": "Europe/Budapest"
  },
  {
    "id": 1043,
    "name": "Jász-Nagykun-Szolnok County",
    "country_id": 99,
    "country_code": "HU",
    "state_code": "JN",
    "type": "county",
    "latitude": "47.25555790",
    "longitude": "20.52324560",
    "iso3166_2": "HU-JN",
    "native": "Jász-Nagykun-Szolnok County",
    "timezone": "Europe/Budapest"
  },
  {
    "id": 1067,
    "name": "Kaposvár",
    "country_id": 99,
    "country_code": "HU",
    "state_code": "KV",
    "type": "city with county rights",
    "latitude": "46.35936060",
    "longitude": "17.79676390",
    "iso3166_2": "HU-KV",
    "native": "Kaposvár",
    "timezone": "Europe/Budapest"
  },
  {
    "id": 1056,
    "name": "Kecskemét",
    "country_id": 99,
    "country_code": "HU",
    "state_code": "KM",
    "type": "city with county rights",
    "latitude": "46.90738830",
    "longitude": "19.69172060",
    "iso3166_2": "HU-KM",
    "native": "Kecskemét",
    "timezone": "Europe/Budapest"
  },
  {
    "id": 5085,
    "name": "Komárom-Esztergom",
    "country_id": 99,
    "country_code": "HU",
    "state_code": "KE",
    "type": "county",
    "latitude": "47.65115990",
    "longitude": "18.25519110",
    "iso3166_2": "HU-KE",
    "native": "Komárom-Esztergom",
    "timezone": "Europe/Budapest"
  },
  {
    "id": 1065,
    "name": "Miskolc",
    "country_id": 99,
    "country_code": "HU",
    "state_code": "MI",
    "type": "city with county rights",
    "latitude": "48.10347750",
    "longitude": "20.77843840",
    "iso3166_2": "HU-MI",
    "native": "Miskolc",
    "timezone": "Europe/Budapest"
  },
  {
    "id": 1030,
    "name": "Nagykanizsa",
    "country_id": 99,
    "country_code": "HU",
    "state_code": "NK",
    "type": "city with county rights",
    "latitude": "46.45902180",
    "longitude": "16.98967960",
    "iso3166_2": "HU-NK",
    "native": "Nagykanizsa",
    "timezone": "Europe/Budapest"
  },
  {
    "id": 1051,
    "name": "Nógrád County",
    "country_id": 99,
    "country_code": "HU",
    "state_code": "NO",
    "type": "county",
    "latitude": "47.90410310",
    "longitude": "19.04985040",
    "iso3166_2": "HU-NO",
    "native": "Nógrád County",
    "timezone": "Europe/Budapest"
  },
  {
    "id": 1034,
    "name": "Nyíregyháza",
    "country_id": 99,
    "country_code": "HU",
    "state_code": "NY",
    "type": "city with county rights",
    "latitude": "47.94953240",
    "longitude": "21.72440530",
    "iso3166_2": "HU-NY",
    "native": "Nyíregyháza",
    "timezone": "Europe/Budapest"
  },
  {
    "id": 1053,
    "name": "Pécs",
    "country_id": 99,
    "country_code": "HU",
    "state_code": "PS",
    "type": "city with county rights",
    "latitude": "46.07273450",
    "longitude": "18.23226600",
    "iso3166_2": "HU-PS",
    "native": "Pécs",
    "timezone": "Europe/Budapest"
  },
  {
    "id": 1059,
    "name": "Pest County",
    "country_id": 99,
    "country_code": "HU",
    "state_code": "PE",
    "type": "county",
    "latitude": "47.44800010",
    "longitude": "19.46181280",
    "iso3166_2": "HU-PE",
    "native": "Kártevő megye",
    "timezone": "Europe/Budapest"
  },
  {
    "id": 1068,
    "name": "Salgótarján",
    "country_id": 99,
    "country_code": "HU",
    "state_code": "ST",
    "type": "city with county rights",
    "latitude": "48.09352370",
    "longitude": "19.79998130",
    "iso3166_2": "HU-ST",
    "native": "Salgótarján",
    "timezone": "Europe/Budapest"
  },
  {
    "id": 1035,
    "name": "Somogy County",
    "country_id": 99,
    "country_code": "HU",
    "state_code": "SO",
    "type": "county",
    "latitude": "46.55485900",
    "longitude": "17.58667320",
    "iso3166_2": "HU-SO",
    "native": "Somogy megye",
    "timezone": "Europe/Budapest"
  },
  {
    "id": 1057,
    "name": "Sopron",
    "country_id": 99,
    "country_code": "HU",
    "state_code": "SN",
    "type": "city with county rights",
    "latitude": "47.68030630",
    "longitude": "16.59834570",
    "iso3166_2": "HU-SN",
    "native": "Sopron",
    "timezone": "Europe/Budapest"
  },
  {
    "id": 1045,
    "name": "Szabolcs-Szatmár-Bereg County",
    "country_id": 99,
    "country_code": "HU",
    "state_code": "SZ",
    "type": "county",
    "latitude": "48.03949540",
    "longitude": "22.00333000",
    "iso3166_2": "HU-SZ",
    "native": "Szabolcs-Szatmár-Bereg County",
    "timezone": "Europe/Budapest"
  },
  {
    "id": 1029,
    "name": "Szeged",
    "country_id": 99,
    "country_code": "HU",
    "state_code": "SD",
    "type": "city with county rights",
    "latitude": "46.25301020",
    "longitude": "20.14142530",
    "iso3166_2": "HU-SD",
    "native": "Szeged",
    "timezone": "Europe/Budapest"
  },
  {
    "id": 1033,
    "name": "Székesfehérvár",
    "country_id": 99,
    "country_code": "HU",
    "state_code": "SF",
    "type": "city with county rights",
    "latitude": "47.19101690",
    "longitude": "18.41081100",
    "iso3166_2": "HU-SF",
    "native": "Székesfehérvár",
    "timezone": "Europe/Budapest"
  },
  {
    "id": 1061,
    "name": "Szekszárd",
    "country_id": 99,
    "country_code": "HU",
    "state_code": "SS",
    "type": "city with county rights",
    "latitude": "46.34743260",
    "longitude": "18.70622930",
    "iso3166_2": "HU-SS",
    "native": "Szekszárd",
    "timezone": "Europe/Budapest"
  },
  {
    "id": 1047,
    "name": "Szolnok",
    "country_id": 99,
    "country_code": "HU",
    "state_code": "SK",
    "type": "city with county rights",
    "latitude": "47.17538330",
    "longitude": "20.19462790",
    "iso3166_2": "HU-SK",
    "native": "Szolnok",
    "timezone": "Europe/Budapest"
  },
  {
    "id": 1052,
    "name": "Szombathely",
    "country_id": 99,
    "country_code": "HU",
    "state_code": "SH",
    "type": "city with county rights",
    "latitude": "47.23068510",
    "longitude": "16.62184410",
    "iso3166_2": "HU-SH",
    "native": "Szombathely",
    "timezone": "Europe/Budapest"
  },
  {
    "id": 1066,
    "name": "Tatabánya",
    "country_id": 99,
    "country_code": "HU",
    "state_code": "TB",
    "type": "city with county rights",
    "latitude": "47.58384500",
    "longitude": "18.39798550",
    "iso3166_2": "HU-TB",
    "native": "Tatabánya",
    "timezone": "Europe/Budapest"
  },
  {
    "id": 1038,
    "name": "Tolna County",
    "country_id": 99,
    "country_code": "HU",
    "state_code": "TO",
    "type": "county",
    "latitude": "46.47627540",
    "longitude": "18.55706270",
    "iso3166_2": "HU-TO",
    "native": "Tolna County",
    "timezone": "Europe/Budapest"
  },
  {
    "id": 1039,
    "name": "Vas County",
    "country_id": 99,
    "country_code": "HU",
    "state_code": "VA",
    "type": "county",
    "latitude": "47.09291110",
    "longitude": "16.68121830",
    "iso3166_2": "HU-VA",
    "native": "Vas County",
    "timezone": "Europe/Budapest"
  },
  {
    "id": 1062,
    "name": "Veszprém",
    "country_id": 99,
    "country_code": "HU",
    "state_code": "VM",
    "type": "city with county rights",
    "latitude": "47.09338240",
    "longitude": "17.90804060",
    "iso3166_2": "HU-VM",
    "native": "Veszprém",
    "timezone": "Europe/Budapest"
  },
  {
    "id": 1054,
    "name": "Veszprém County",
    "country_id": 99,
    "country_code": "HU",
    "state_code": "VE",
    "type": "county",
    "latitude": "47.09309740",
    "longitude": "17.91007630",
    "iso3166_2": "HU-VE",
    "native": "Veszprém County",
    "timezone": "Europe/Budapest"
  },
  {
    "id": 1046,
    "name": "Zala County",
    "country_id": 99,
    "country_code": "HU",
    "state_code": "ZA",
    "type": "county",
    "latitude": "46.79008810",
    "longitude": "16.93394280",
    "iso3166_2": "HU-ZA",
    "native": "Zala megye",
    "timezone": "Europe/Budapest"
  },
  {
    "id": 1050,
    "name": "Zalaegerszeg",
    "country_id": 99,
    "country_code": "HU",
    "state_code": "ZE",
    "type": "county",
    "latitude": "46.84169360",
    "longitude": "16.84163220",
    "iso3166_2": "HU-ZE",
    "native": "Zalaegerszeg",
    "timezone": "Europe/Budapest"
  }
]