[
  {
    "id": 4627,
    "name": "Benešov",
    "country_id": 58,
    "country_code": "CZ",
    "state_code": "201",
    "type": "district",
    "latitude": "49.78189210",
    "longitude": "14.68691210",
    "iso3166_2": "CZ-201",
    "native": "Benešov",
    "timezone": "Europe/Prague"
  },
  {
    "id": 4620,
    "name": "Beroun",
    "country_id": 58,
    "country_code": "CZ",
    "state_code": "202",
    "type": "district",
    "latitude": "49.96402920",
    "longitude": "14.07339070",
    "iso3166_2": "CZ-202",
    "native": "Beroun",
    "timezone": "Europe/Prague"
  },
  {
    "id": 4615,
    "name": "Blansko",
    "country_id": 58,
    "country_code": "CZ",
    "state_code": "641",
    "type": "district",
    "latitude": "49.36485020",
    "longitude": "16.64775520",
    "iso3166_2": "CZ-641",
    "native": "Blansko",
    "timezone": "Europe/Prague"
  },
  {
    "id": 4542,
    "name": "Břeclav",
    "country_id": 58,
    "country_code": "CZ",
    "state_code": "644",
    "type": "district",
    "latitude": "48.75314000",
    "longitude": "16.88251690",
    "iso3166_2": "CZ-644",
    "native": "Břeclav",
    "timezone": "Europe/Prague"
  },
  {
    "id": 4568,
    "name": "Brno-město",
    "country_id": 58,
    "country_code": "CZ",
    "state_code": "642",
    "type": "district",
    "latitude": "49.19506020",
    "longitude": "16.60683710",
    "iso3166_2": "CZ-642",
    "native": "Brno-město",
    "timezone": "Europe/Prague"
  },
  {
    "id": 4545,
    "name": "Brno-venkov",
    "country_id": 58,
    "country_code": "CZ",
    "state_code": "643",
    "type": "district",
    "latitude": "49.17618380",
    "longitude": "16.38816430",
    "iso3166_2": "CZ-643",
    "native": "BRNO -VENKOV",
    "timezone": "Europe/Prague"
  },
  {
    "id": 4644,
    "name": "Bruntál",
    "country_id": 58,
    "country_code": "CZ",
    "state_code": "801",
    "type": "district",
    "latitude": "49.98817670",
    "longitude": "17.46369410",
    "iso3166_2": "CZ-801",
    "native": "Bruntál",
    "timezone": "Europe/Prague"
  },
  {
    "id": 4633,
    "name": "Česká Lípa",
    "country_id": 58,
    "country_code": "CZ",
    "state_code": "511",
    "type": "district",
    "latitude": "50.67852010",
    "longitude": "14.53969910",
    "iso3166_2": "CZ-511",
    "native": "Česká Lípa",
    "timezone": "Europe/Prague"
  },
  {
    "id": 4556,
    "name": "České Budějovice",
    "country_id": 58,
    "country_code": "CZ",
    "state_code": "311",
    "type": "district",
    "latitude": "48.97473570",
    "longitude": "14.47428500",
    "iso3166_2": "CZ-311",
    "native": "České Budějovice",
    "timezone": "Europe/Prague"
  },
  {
    "id": 4543,
    "name": "Český Krumlov",
    "country_id": 58,
    "country_code": "CZ",
    "state_code": "312",
    "type": "district",
    "latitude": "48.81273540",
    "longitude": "14.31746570",
    "iso3166_2": "CZ-312",
    "native": "Český Krumlov",
    "timezone": "Europe/Prague"
  },
  {
    "id": 4573,
    "name": "Cheb",
    "country_id": 58,
    "country_code": "CZ",
    "state_code": "411",
    "type": "district",
    "latitude": "50.07953340",
    "longitude": "12.36986360",
    "iso3166_2": "CZ-411",
    "native": "Cheb",
    "timezone": "Europe/Prague"
  },
  {
    "id": 4553,
    "name": "Chomutov",
    "country_id": 58,
    "country_code": "CZ",
    "state_code": "422",
    "type": "district",
    "latitude": "50.46064560",
    "longitude": "13.41783240",
    "iso3166_2": "CZ-422",
    "native": "Chomutov",
    "timezone": "Europe/Prague"
  },
  {
    "id": 4634,
    "name": "Chrudim",
    "country_id": 58,
    "country_code": "CZ",
    "state_code": "531",
    "type": "district",
    "latitude": "49.95114580",
    "longitude": "15.79475590",
    "iso3166_2": "CZ-531",
    "native": "Chrudim",
    "timezone": "Europe/Prague"
  },
  {
    "id": 4609,
    "name": "Děčín",
    "country_id": 58,
    "country_code": "CZ",
    "state_code": "421",
    "type": "district",
    "latitude": "50.78241960",
    "longitude": "14.21472210",
    "iso3166_2": "CZ-421",
    "native": "Děčín",
    "timezone": "Europe/Prague"
  },
  {
    "id": 4641,
    "name": "Domažlice",
    "country_id": 58,
    "country_code": "CZ",
    "state_code": "321",
    "type": "district",
    "latitude": "49.43970270",
    "longitude": "12.93114350",
    "iso3166_2": "CZ-321",
    "native": "Domažlice",
    "timezone": "Europe/Prague"
  },
  {
    "id": 4559,
    "name": "Frýdek-Místek",
    "country_id": 58,
    "country_code": "CZ",
    "state_code": "802",
    "type": "district",
    "latitude": "49.68563500",
    "longitude": "18.34834160",
    "iso3166_2": "CZ-802",
    "native": "Frýdek-Místek",
    "timezone": "Europe/Prague"
  },
  {
    "id": 4611,
    "name": "Havlíčkův Brod",
    "country_id": 58,
    "country_code": "CZ",
    "state_code": "631",
    "type": "district",
    "latitude": "49.60433640",
    "longitude": "15.57965520",
    "iso3166_2": "CZ-631",
    "native": "Havlíčkův Brod",
    "timezone": "Europe/Prague"
  },
  {
    "id": 4561,
    "name": "Hodonín",
    "country_id": 58,
    "country_code": "CZ",
    "state_code": "645",
    "type": "district",
    "latitude": "48.85293910",
    "longitude": "17.12600250",
    "iso3166_2": "CZ-645",
    "native": "Hodonín",
    "timezone": "Europe/Prague"
  },
  {
    "id": 4580,
    "name": "Hradec Králové",
    "country_id": 58,
    "country_code": "CZ",
    "state_code": "521",
    "type": "district",
    "latitude": "50.20921130",
    "longitude": "15.83275120",
    "iso3166_2": "CZ-521",
    "native": "Hradec Králové",
    "timezone": "Europe/Prague"
  },
  {
    "id": 4612,
    "name": "Jablonec nad Nisou",
    "country_id": 58,
    "country_code": "CZ",
    "state_code": "512",
    "type": "district",
    "latitude": "50.72205280",
    "longitude": "15.17031350",
    "iso3166_2": "CZ-512",
    "native": "Jablonec nad Nisou",
    "timezone": "Europe/Prague"
  },
  {
    "id": 4625,
    "name": "Jeseník",
    "country_id": 58,
    "country_code": "CZ",
    "state_code": "711",
    "type": "district",
    "latitude": "50.22462490",
    "longitude": "17.19804710",
    "iso3166_2": "CZ-711",
    "native": "Jeseník",
    "timezone": "Europe/Prague"
  },
  {
    "id": 4640,
    "name": "Jičín",
    "country_id": 58,
    "country_code": "CZ",
    "state_code": "522",
    "type": "district",
    "latitude": "50.43533250",
    "longitude": "15.36104400",
    "iso3166_2": "CZ-522",
    "native": "Jičín",
    "timezone": "Europe/Prague"
  },
  {
    "id": 4613,
    "name": "Jihlava",
    "country_id": 58,
    "country_code": "CZ",
    "state_code": "632",
    "type": "district",
    "latitude": "49.39837820",
    "longitude": "15.58704150",
    "iso3166_2": "CZ-632",
    "native": "Jihlava",
    "timezone": "Europe/Prague"
  },
  {
    "id": 4639,
    "name": "Jihočeský kraj",
    "country_id": 58,
    "country_code": "CZ",
    "state_code": "31",
    "type": "region",
    "latitude": "49.08645480",
    "longitude": "14.60017270",
    "iso3166_2": "CZ-31",
    "native": "Jihočeský kraj",
    "timezone": "Europe/Prague"
  },
  {
    "id": 4602,
    "name": "Jihomoravský kraj",
    "country_id": 58,
    "country_code": "CZ",
    "state_code": "64",
    "type": "region",
    "latitude": "49.12491790",
    "longitude": "16.68277160",
    "iso3166_2": "CZ-64",
    "native": "Jihomoravský kraj",
    "timezone": "Europe/Prague"
  },
  {
    "id": 4624,
    "name": "Jindřichův Hradec",
    "country_id": 58,
    "country_code": "CZ",
    "state_code": "313",
    "type": "district",
    "latitude": "49.14448230",
    "longitude": "15.00613890",
    "iso3166_2": "CZ-313",
    "native": "Jindřichův Hradec",
    "timezone": "Europe/Prague"
  },
  {
    "id": 4581,
    "name": "Karlovarský kraj",
    "country_id": 58,
    "country_code": "CZ",
    "state_code": "41",
    "type": "region",
    "latitude": "50.17535320",
    "longitude": "12.80608630",
    "iso3166_2": "CZ-41",
    "native": "Karlovarský kraj",
    "timezone": "Europe/Prague"
  },
  {
    "id": 4604,
    "name": "Karlovy Vary",
    "country_id": 58,
    "country_code": "CZ",
    "state_code": "412",
    "type": "district",
    "latitude": "50.23062160",
    "longitude": "12.87014370",
    "iso3166_2": "CZ-412",
    "native": "Karlovy Vary",
    "timezone": "Europe/Prague"
  },
  {
    "id": 4586,
    "name": "Karviná",
    "country_id": 58,
    "country_code": "CZ",
    "state_code": "803",
    "type": "district",
    "latitude": "49.85665240",
    "longitude": "18.54321860",
    "iso3166_2": "CZ-803",
    "native": "Karviná",
    "timezone": "Europe/Prague"
  },
  {
    "id": 4631,
    "name": "Kladno",
    "country_id": 58,
    "country_code": "CZ",
    "state_code": "203",
    "type": "district",
    "latitude": "50.14784970",
    "longitude": "14.10253790",
    "iso3166_2": "CZ-203",
    "native": "Kladno",
    "timezone": "Europe/Prague"
  },
  {
    "id": 4591,
    "name": "Klatovy",
    "country_id": 58,
    "country_code": "CZ",
    "state_code": "322",
    "type": "district",
    "latitude": "49.39555490",
    "longitude": "13.29509370",
    "iso3166_2": "CZ-322",
    "native": "Klatovy",
    "timezone": "Europe/Prague"
  },
  {
    "id": 4618,
    "name": "Kolín",
    "country_id": 58,
    "country_code": "CZ",
    "state_code": "204",
    "type": "district",
    "latitude": "50.02888940",
    "longitude": "15.20115710",
    "iso3166_2": "CZ-204",
    "native": "Kolín",
    "timezone": "Europe/Prague"
  },
  {
    "id": 4575,
    "name": "Kraj Vysočina",
    "country_id": 58,
    "country_code": "CZ",
    "state_code": "63",
    "type": "region",
    "latitude": "49.39940980",
    "longitude": "15.57046830",
    "iso3166_2": "CZ-63",
    "native": "Kraj Vysočina",
    "timezone": "Europe/Prague"
  },
  {
    "id": 4614,
    "name": "Královéhradecký kraj",
    "country_id": 58,
    "country_code": "CZ",
    "state_code": "52",
    "type": "region",
    "latitude": "50.40939270",
    "longitude": "15.68500540",
    "iso3166_2": "CZ-52",
    "native": "Královéhradecký kraj",
    "timezone": "Europe/Prague"
  },
  {
    "id": 4593,
    "name": "Kroměříž",
    "country_id": 58,
    "country_code": "CZ",
    "state_code": "721",
    "type": "district",
    "latitude": "49.29165820",
    "longitude": "17.39938000",
    "iso3166_2": "CZ-721",
    "native": "Kroměříž",
    "timezone": "Europe/Prague"
  },
  {
    "id": 4923,
    "name": "Kutná Hora",
    "country_id": 58,
    "country_code": "CZ",
    "state_code": "205",
    "type": "district",
    "latitude": "49.94865610",
    "longitude": "15.26811230",
    "iso3166_2": "CZ-205",
    "native": "Kutná Hora",
    "timezone": "Europe/Prague"
  },
  {
    "id": 4590,
    "name": "Liberec",
    "country_id": 58,
    "country_code": "CZ",
    "state_code": "513",
    "type": "district",
    "latitude": "50.77026480",
    "longitude": "15.05839470",
    "iso3166_2": "CZ-513",
    "native": "Liberec",
    "timezone": "Europe/Prague"
  },
  {
    "id": 4601,
    "name": "Liberecký kraj",
    "country_id": 58,
    "country_code": "CZ",
    "state_code": "51",
    "type": "region",
    "latitude": "50.74760400",
    "longitude": "14.99031030",
    "iso3166_2": "CZ-51",
    "native": "Liberecký kraj",
    "timezone": "Europe/Prague"
  },
  {
    "id": 4605,
    "name": "Litoměřice",
    "country_id": 58,
    "country_code": "CZ",
    "state_code": "423",
    "type": "district",
    "latitude": "50.53841970",
    "longitude": "14.13054580",
    "iso3166_2": "CZ-423",
    "native": "Litoměřice",
    "timezone": "Europe/Prague"
  },
  {
    "id": 4617,
    "name": "Louny",
    "country_id": 58,
    "country_code": "CZ",
    "state_code": "424",
    "type": "district",
    "latitude": "50.35398120",
    "longitude": "13.80335510",
    "iso3166_2": "CZ-424",
    "native": "Louny",
    "timezone": "Europe/Prague"
  },
  {
    "id": 4638,
    "name": "Mělník",
    "country_id": 58,
    "country_code": "CZ",
    "state_code": "206",
    "type": "district",
    "latitude": "50.35207850",
    "longitude": "14.47482810",
    "iso3166_2": "CZ-206",
    "native": "Mělník",
    "timezone": "Europe/Prague"
  },
  {
    "id": 4643,
    "name": "Mladá Boleslav",
    "country_id": 58,
    "country_code": "CZ",
    "state_code": "207",
    "type": "district",
    "latitude": "50.41161870",
    "longitude": "14.90313010",
    "iso3166_2": "CZ-207",
    "native": "Mladá Boleslav",
    "timezone": "Europe/Prague"
  },
  {
    "id": 4600,
    "name": "Moravskoslezský kraj",
    "country_id": 58,
    "country_code": "CZ",
    "state_code": "80",
    "type": "region",
    "latitude": "49.86027500",
    "longitude": "18.03865410",
    "iso3166_2": "CZ-80",
    "native": "Moravskoslezský kraj",
    "timezone": "Europe/Prague"
  },
  {
    "id": 4629,
    "name": "Most",
    "country_id": 58,
    "country_code": "CZ",
    "state_code": "425",
    "type": "district",
    "latitude": "50.50327370",
    "longitude": "13.63611200",
    "iso3166_2": "CZ-425",
    "native": "Většina",
    "timezone": "Europe/Prague"
  },
  {
    "id": 4550,
    "name": "Náchod",
    "country_id": 58,
    "country_code": "CZ",
    "state_code": "523",
    "type": "district",
    "latitude": "50.41457220",
    "longitude": "16.16563470",
    "iso3166_2": "CZ-523",
    "native": "Náchod",
    "timezone": "Europe/Prague"
  },
  {
    "id": 4548,
    "name": "Nový Jičín",
    "country_id": 58,
    "country_code": "CZ",
    "state_code": "804",
    "type": "district",
    "latitude": "49.59432510",
    "longitude": "18.01353560",
    "iso3166_2": "CZ-804",
    "native": "Nový Jičín",
    "timezone": "Europe/Prague"
  },
  {
    "id": 4582,
    "name": "Nymburk",
    "country_id": 58,
    "country_code": "CZ",
    "state_code": "208",
    "type": "district",
    "latitude": "50.18558160",
    "longitude": "15.04366040",
    "iso3166_2": "CZ-208",
    "native": "Nymburk",
    "timezone": "Europe/Prague"
  },
  {
    "id": 4574,
    "name": "Olomouc",
    "country_id": 58,
    "country_code": "CZ",
    "state_code": "712",
    "type": "district",
    "latitude": "49.59377800",
    "longitude": "17.25087870",
    "iso3166_2": "CZ-712",
    "native": "Olomouc",
    "timezone": "Europe/Prague"
  },
  {
    "id": 4589,
    "name": "Olomoucký kraj",
    "country_id": 58,
    "country_code": "CZ",
    "state_code": "71",
    "type": "region",
    "latitude": "49.85910580",
    "longitude": "16.95612670",
    "iso3166_2": "CZ-71",
    "native": "Olomoucký kraj",
    "timezone": "Europe/Prague"
  },
  {
    "id": 4623,
    "name": "Opava",
    "country_id": 58,
    "country_code": "CZ",
    "state_code": "805",
    "type": "district",
    "latitude": "49.93890040",
    "longitude": "17.90241740",
    "iso3166_2": "CZ-805",
    "native": "Opava",
    "timezone": "Europe/Prague"
  },
  {
    "id": 4584,
    "name": "Ostrava-město",
    "country_id": 58,
    "country_code": "CZ",
    "state_code": "806",
    "type": "district",
    "latitude": "49.83491390",
    "longitude": "18.28200840",
    "iso3166_2": "CZ-806",
    "native": "Ostrava-město",
    "timezone": "Europe/Prague"
  },
  {
    "id": 4547,
    "name": "Pardubice",
    "country_id": 58,
    "country_code": "CZ",
    "state_code": "532",
    "type": "district",
    "latitude": "50.03858120",
    "longitude": "15.77913560",
    "iso3166_2": "CZ-532",
    "native": "Pardubice",
    "timezone": "Europe/Prague"
  },
  {
    "id": 4588,
    "name": "Pardubický kraj",
    "country_id": 58,
    "country_code": "CZ",
    "state_code": "53",
    "type": "region",
    "latitude": "49.88981900",
    "longitude": "16.12832540",
    "iso3166_2": "CZ-53",
    "native": "Pardubický kraj",
    "timezone": "Europe/Prague"
  },
  {
    "id": 4645,
    "name": "Pelhřimov",
    "country_id": 58,
    "country_code": "CZ",
    "state_code": "633",
    "type": "district",
    "latitude": "49.43062070",
    "longitude": "15.22298300",
    "iso3166_2": "CZ-633",
    "native": "Pelhřimov",
    "timezone": "Europe/Prague"
  },
  {
    "id": 4560,
    "name": "Písek",
    "country_id": 58,
    "country_code": "CZ",
    "state_code": "314",
    "type": "district",
    "latitude": "49.30898870",
    "longitude": "14.14776900",
    "iso3166_2": "CZ-314",
    "native": "Písek",
    "timezone": "Europe/Prague"
  },
  {
    "id": 4608,
    "name": "Plzeň-jih",
    "country_id": 58,
    "country_code": "CZ",
    "state_code": "324",
    "type": "district",
    "latitude": "49.55224210",
    "longitude": "13.43426140",
    "iso3166_2": "CZ-324",
    "native": "Plzeň-jih",
    "timezone": "Europe/Prague"
  },
  {
    "id": 4544,
    "name": "Plzeň-město",
    "country_id": 58,
    "country_code": "CZ",
    "state_code": "323",
    "type": "district",
    "latitude": "49.74774150",
    "longitude": "13.37752490",
    "iso3166_2": "CZ-323",
    "native": "Plzeň-město",
    "timezone": "Europe/Prague"
  },
  {
    "id": 4564,
    "name": "Plzeň-sever",
    "country_id": 58,
    "country_code": "CZ",
    "state_code": "325",
    "type": "district",
    "latitude": "49.88142340",
    "longitude": "13.28128810",
    "iso3166_2": "CZ-325",
    "native": "Plzeň-sever",
    "timezone": "Europe/Prague"
  },
  {
    "id": 4607,
    "name": "Plzeňský kraj",
    "country_id": 58,
    "country_code": "CZ",
    "state_code": "32",
    "type": "region",
    "latitude": "49.52281020",
    "longitude": "13.20631180",
    "iso3166_2": "CZ-32",
    "native": "Plzeňský kraj",
    "timezone": "Europe/Prague"
  },
  {
    "id": 4578,
    "name": "Prachatice",
    "country_id": 58,
    "country_code": "CZ",
    "state_code": "315",
    "type": "district",
    "latitude": "49.01091000",
    "longitude": "14.00000050",
    "iso3166_2": "CZ-315",
    "native": "Prachatice",
    "timezone": "Europe/Prague"
  },
  {
    "id": 4606,
    "name": "Praha-východ",
    "country_id": 58,
    "country_code": "CZ",
    "state_code": "209",
    "type": "district",
    "latitude": "50.08281120",
    "longitude": "14.71921790",
    "iso3166_2": "CZ-209",
    "native": "Praha-východ",
    "timezone": "Europe/Prague"
  },
  {
    "id": 4619,
    "name": "Praha-západ",
    "country_id": 58,
    "country_code": "CZ",
    "state_code": "20A",
    "type": "district",
    "latitude": "49.99844200",
    "longitude": "14.26342830",
    "iso3166_2": "CZ-20A",
    "native": "Praha-západ",
    "timezone": "Europe/Prague"
  },
  {
    "id": 4598,
    "name": "Praha, Hlavní město",
    "country_id": 58,
    "country_code": "CZ",
    "state_code": "10",
    "type": "capital city",
    "latitude": "50.05962880",
    "longitude": "14.44645930",
    "iso3166_2": "CZ-10",
    "native": "Praha, Hlavní město",
    "timezone": "Europe/Prague"
  },
  {
    "id": 4626,
    "name": "Přerov",
    "country_id": 58,
    "country_code": "CZ",
    "state_code": "714",
    "type": "district",
    "latitude": "49.45537750",
    "longitude": "17.45086210",
    "iso3166_2": "CZ-714",
    "native": "Přerov",
    "timezone": "Europe/Prague"
  },
  {
    "id": 4546,
    "name": "Příbram",
    "country_id": 58,
    "country_code": "CZ",
    "state_code": "20B",
    "type": "district",
    "latitude": "49.69014440",
    "longitude": "14.01036630",
    "iso3166_2": "CZ-20B",
    "native": "Příbram",
    "timezone": "Europe/Prague"
  },
  {
    "id": 4551,
    "name": "Prostějov",
    "country_id": 58,
    "country_code": "CZ",
    "state_code": "713",
    "type": "district",
    "latitude": "49.47214670",
    "longitude": "17.11179790",
    "iso3166_2": "CZ-713",
    "native": "Prostějov",
    "timezone": "Europe/Prague"
  },
  {
    "id": 4558,
    "name": "Rakovník",
    "country_id": 58,
    "country_code": "CZ",
    "state_code": "20C",
    "type": "district",
    "latitude": "50.10612300",
    "longitude": "13.73966230",
    "iso3166_2": "CZ-20C",
    "native": "Rakovník",
    "timezone": "Europe/Prague"
  },
  {
    "id": 4583,
    "name": "Rokycany",
    "country_id": 58,
    "country_code": "CZ",
    "state_code": "326",
    "type": "district",
    "latitude": "49.80024140",
    "longitude": "13.64745770",
    "iso3166_2": "CZ-326",
    "native": "Rokycany",
    "timezone": "Europe/Prague"
  },
  {
    "id": 4636,
    "name": "Rychnov nad Kněžnou",
    "country_id": 58,
    "country_code": "CZ",
    "state_code": "524",
    "type": "district",
    "latitude": "50.16596510",
    "longitude": "16.27768420",
    "iso3166_2": "CZ-524",
    "native": "Rychnov nad Kněžnou",
    "timezone": "Europe/Prague"
  },
  {
    "id": 4596,
    "name": "Semily",
    "country_id": 58,
    "country_code": "CZ",
    "state_code": "514",
    "type": "district",
    "latitude": "50.60515760",
    "longitude": "15.32814090",
    "iso3166_2": "CZ-514",
    "native": "Semily",
    "timezone": "Europe/Prague"
  },
  {
    "id": 4595,
    "name": "Sokolov",
    "country_id": 58,
    "country_code": "CZ",
    "state_code": "413",
    "type": "district",
    "latitude": "50.18090970",
    "longitude": "12.63949860",
    "iso3166_2": "CZ-413",
    "native": "Sokolov",
    "timezone": "Europe/Prague"
  },
  {
    "id": 4628,
    "name": "Strakonice",
    "country_id": 58,
    "country_code": "CZ",
    "state_code": "316",
    "type": "district",
    "latitude": "49.26040430",
    "longitude": "13.91030850",
    "iso3166_2": "CZ-316",
    "native": "Strakonice",
    "timezone": "Europe/Prague"
  },
  {
    "id": 4554,
    "name": "Středočeský kraj",
    "country_id": 58,
    "country_code": "CZ",
    "state_code": "20",
    "type": "region",
    "latitude": "50.06015790",
    "longitude": "13.83074790",
    "iso3166_2": "CZ-20",
    "native": "Středočeský kraj",
    "timezone": "Europe/Prague"
  },
  {
    "id": 4642,
    "name": "Šumperk",
    "country_id": 58,
    "country_code": "CZ",
    "state_code": "715",
    "type": "district",
    "latitude": "49.96555210",
    "longitude": "16.97056510",
    "iso3166_2": "CZ-715",
    "native": "Šumperk",
    "timezone": "Europe/Prague"
  },
  {
    "id": 4571,
    "name": "Svitavy",
    "country_id": 58,
    "country_code": "CZ",
    "state_code": "533",
    "type": "district",
    "latitude": "49.75516290",
    "longitude": "16.46918610",
    "iso3166_2": "CZ-533",
    "native": "Svitavy",
    "timezone": "Europe/Prague"
  },
  {
    "id": 4565,
    "name": "Tábor",
    "country_id": 58,
    "country_code": "CZ",
    "state_code": "317",
    "type": "district",
    "latitude": "49.41415330",
    "longitude": "14.65872340",
    "iso3166_2": "CZ-317",
    "native": "Tábor",
    "timezone": "Europe/Prague"
  },
  {
    "id": 4646,
    "name": "Tachov",
    "country_id": 58,
    "country_code": "CZ",
    "state_code": "327",
    "type": "district",
    "latitude": "49.79878030",
    "longitude": "12.63619210",
    "iso3166_2": "CZ-327",
    "native": "Tachov",
    "timezone": "Europe/Prague"
  },
  {
    "id": 4621,
    "name": "Teplice",
    "country_id": 58,
    "country_code": "CZ",
    "state_code": "426",
    "type": "district",
    "latitude": "50.64066440",
    "longitude": "13.82444610",
    "iso3166_2": "CZ-426",
    "native": "Teplice",
    "timezone": "Europe/Prague"
  },
  {
    "id": 4597,
    "name": "Třebíč",
    "country_id": 58,
    "country_code": "CZ",
    "state_code": "634",
    "type": "district",
    "latitude": "49.21478690",
    "longitude": "15.87955160",
    "iso3166_2": "CZ-634",
    "native": "Třebíč",
    "timezone": "Europe/Prague"
  },
  {
    "id": 4579,
    "name": "Trutnov",
    "country_id": 58,
    "country_code": "CZ",
    "state_code": "525",
    "type": "district",
    "latitude": "50.56538380",
    "longitude": "15.90909230",
    "iso3166_2": "CZ-525",
    "native": "Trutnov",
    "timezone": "Europe/Prague"
  },
  {
    "id": 4592,
    "name": "Uherské Hradiště",
    "country_id": 58,
    "country_code": "CZ",
    "state_code": "722",
    "type": "district",
    "latitude": "49.06810180",
    "longitude": "17.46638990",
    "iso3166_2": "CZ-722",
    "native": "Uherské Hradiště",
    "timezone": "Europe/Prague"
  },
  {
    "id": 4576,
    "name": "Ústecký kraj",
    "country_id": 58,
    "country_code": "CZ",
    "state_code": "42",
    "type": "region",
    "latitude": "50.56632660",
    "longitude": "13.82067050",
    "iso3166_2": "CZ-42",
    "native": "Ústecký kraj",
    "timezone": "Europe/Prague"
  },
  {
    "id": 4599,
    "name": "Ústí nad Labem",
    "country_id": 58,
    "country_code": "CZ",
    "state_code": "427",
    "type": "district",
    "latitude": "50.66033270",
    "longitude": "14.03813570",
    "iso3166_2": "CZ-427",
    "native": "Ústí nad Labem",
    "timezone": "Europe/Prague"
  },
  {
    "id": 4647,
    "name": "Ústí nad Orlicí",
    "country_id": 58,
    "country_code": "CZ",
    "state_code": "534",
    "type": "district",
    "latitude": "49.97218010",
    "longitude": "16.39966170",
    "iso3166_2": "CZ-534",
    "native": "Ústí nad Orlicí",
    "timezone": "Europe/Prague"
  },
  {
    "id": 4572,
    "name": "Vsetín",
    "country_id": 58,
    "country_code": "CZ",
    "state_code": "723",
    "type": "district",
    "latitude": "49.33897750",
    "longitude": "17.99615340",
    "iso3166_2": "CZ-723",
    "native": "Vsetín",
    "timezone": "Europe/Prague"
  },
  {
    "id": 4622,
    "name": "Vyškov",
    "country_id": 58,
    "country_code": "CZ",
    "state_code": "646",
    "type": "district",
    "latitude": "49.27781940",
    "longitude": "16.99944460",
    "iso3166_2": "CZ-646",
    "native": "Vyškov",
    "timezone": "Europe/Prague"
  },
  {
    "id": 4648,
    "name": "Žďár nad Sázavou",
    "country_id": 58,
    "country_code": "CZ",
    "state_code": "635",
    "type": "district",
    "latitude": "49.56430120",
    "longitude": "15.93910300",
    "iso3166_2": "CZ-635",
    "native": "Žďár nad Sázavou",
    "timezone": "Europe/Prague"
  },
  {
    "id": 4563,
    "name": "Zlín",
    "country_id": 58,
    "country_code": "CZ",
    "state_code": "724",
    "type": "district",
    "latitude": "49.22676600",
    "longitude": "17.66674150",
    "iso3166_2": "CZ-724",
    "native": "Zlín",
    "timezone": "Europe/Prague"
  },
  {
    "id": 4552,
    "name": "Zlínský kraj",
    "country_id": 58,
    "country_code": "CZ",
    "state_code": "72",
    "type": "region",
    "latitude": "49.19692000",
    "longitude": "17.64609160",
    "iso3166_2": "CZ-72",
    "native": "Zlínský kraj",
    "timezone": "Europe/Prague"
  },
  {
    "id": 4630,
    "name": "Znojmo",
    "country_id": 58,
    "country_code": "CZ",
    "state_code": "647",
    "type": "district",
    "latitude": "48.85543410",
    "longitude": "16.04894570",
    "iso3166_2": "CZ-647",
    "native": "Znojmo",
    "timezone": "Europe/Prague"
  }
]