[
  {
    "id": 5229,
    "name": "Eysturoy",
    "country_id": 72,
    "country_code": "FO",
    "state_code": "EY",
    "type": "region",
    "latitude": "62.19887040",
    "longitude": "-6.81784510",
    "iso3166_2": "FO-EY",
    "native": "Eysturoy",
    "timezone": "Atlantic/Faroe"
  },
  {
    "id": 5230,
    "name": "Northern Isles",
    "country_id": 72,
    "country_code": "FO",
    "state_code": "NO",
    "type": "region",
    "latitude": "62.28056890",
    "longitude": "6.70170610",
    "iso3166_2": "FO-NO",
    "native": "Northern Isles",
    "timezone": "Atlantic/Faroe"
  },
  {
    "id": 5231,
    "name": "Sandoy",
    "country_id": 72,
    "country_code": "FO",
    "state_code": "SA",
    "type": "region",
    "latitude": "61.83338770",
    "longitude": "-6.72398990",
    "iso3166_2": "FO-SA",
    "native": "Sandoy",
    "timezone": "Atlantic/Faroe"
  },
  {
    "id": 5232,
    "name": "Streymoy",
    "country_id": 72,
    "country_code": "FO",
    "state_code": "ST",
    "type": "region",
    "latitude": "62.12371920",
    "longitude": "-7.01588280",
    "iso3166_2": "FO-ST",
    "native": "Streymoy",
    "timezone": "Atlantic/Faroe"
  },
  {
    "id": 5233,
    "name": "Suðuroy",
    "country_id": 72,
    "country_code": "FO",
    "state_code": "SU",
    "type": "region",
    "latitude": "61.52106510",
    "longitude": "-6.81418660",
    "iso3166_2": "FO-SU",
    "native": "Suðuroy",
    "timezone": "Atlantic/Faroe"
  },
  {
    "id": 5234,
    "name": "Vágar",
    "country_id": 72,
    "country_code": "FO",
    "state_code": "VA",
    "type": "region",
    "latitude": "62.08989850",
    "longitude": "-7.23458410",
    "iso3166_2": "FO-VA",
    "native": "Vágar",
    "timezone": "Atlantic/Faroe"
  }
]