[
  {
    "id": 110880,
    "name": "Bukomansimbi District",
    "state_id": 396,
    "state_code": "C",
    "country_id": 229,
    "country_code": "UG",
    "latitude": "-0.12855000",
    "longitude": "31.62527000",
    "wikiDataId": null
  },
  {
    "id": 110886,
    "name": "Buvuma District",
    "state_id": 396,
    "state_code": "C",
    "country_id": 229,
    "country_code": "UG",
    "latitude": "-0.36744000",
    "longitude": "33.20071000",
    "wikiDataId": null
  },
  {
    "id": 110888,
    "name": "Bweyogerere",
    "state_id": 396,
    "state_code": "C",
    "country_id": 229,
    "country_code": "UG",
    "latitude": "0.35773000",
    "longitude": "32.66332000",
    "wikiDataId": null
  },
  {
    "id": 110890,
    "name": "Byakabanda",
    "state_id": 396,
    "state_code": "C",
    "country_id": 229,
    "country_code": "UG",
    "latitude": "-0.74250000",
    "longitude": "31.40639000",
    "wikiDataId": null
  },
  {
    "id": 110891,
    "name": "Entebbe",
    "state_id": 396,
    "state_code": "C",
    "country_id": 229,
    "country_code": "UG",
    "latitude": "0.05621000",
    "longitude": "32.47949000",
    "wikiDataId": null
  },
  {
    "id": 110893,
    "name": "Gomba District",
    "state_id": 396,
    "state_code": "C",
    "country_id": 229,
    "country_code": "UG",
    "latitude": "0.20017000",
    "longitude": "31.75023000",
    "wikiDataId": null
  },
  {
    "id": 110902,
    "name": "Kajansi",
    "state_id": 396,
    "state_code": "C",
    "country_id": 229,
    "country_code": "UG",
    "latitude": "0.21548000",
    "longitude": "32.53453000",
    "wikiDataId": null
  },
  {
    "id": 110903,
    "name": "Kampala",
    "state_id": 396,
    "state_code": "C",
    "country_id": 229,
    "country_code": "UG",
    "latitude": "0.31628000",
    "longitude": "32.58219000",
    "wikiDataId": null
  },
  {
    "id": 110904,
    "name": "Kampala District",
    "state_id": 396,
    "state_code": "C",
    "country_id": 229,
    "country_code": "UG",
    "latitude": "0.33508000",
    "longitude": "32.58313000",
    "wikiDataId": null
  },
  {
    "id": 110907,
    "name": "Kanoni",
    "state_id": 396,
    "state_code": "C",
    "country_id": 229,
    "country_code": "UG",
    "latitude": "0.17722000",
    "longitude": "31.88111000",
    "wikiDataId": null
  },
  {
    "id": 110911,
    "name": "Kayunga",
    "state_id": 396,
    "state_code": "C",
    "country_id": 229,
    "country_code": "UG",
    "latitude": "0.70250000",
    "longitude": "32.88861000",
    "wikiDataId": null
  },
  {
    "id": 110913,
    "name": "Kiboga",
    "state_id": 396,
    "state_code": "C",
    "country_id": 229,
    "country_code": "UG",
    "latitude": "0.91611000",
    "longitude": "31.77417000",
    "wikiDataId": null
  },
  {
    "id": 110917,
    "name": "Kireka",
    "state_id": 396,
    "state_code": "C",
    "country_id": 229,
    "country_code": "UG",
    "latitude": "0.34750000",
    "longitude": "32.64917000",
    "wikiDataId": null
  },
  {
    "id": 110924,
    "name": "Kyotera",
    "state_id": 396,
    "state_code": "C",
    "country_id": 229,
    "country_code": "UG",
    "latitude": "-0.61556000",
    "longitude": "31.51750000",
    "wikiDataId": null
  },
  {
    "id": 110926,
    "name": "Lugazi",
    "state_id": 396,
    "state_code": "C",
    "country_id": 229,
    "country_code": "UG",
    "latitude": "0.36788000",
    "longitude": "32.93760000",
    "wikiDataId": null
  },
  {
    "id": 110927,
    "name": "Luwero",
    "state_id": 396,
    "state_code": "C",
    "country_id": 229,
    "country_code": "UG",
    "latitude": "0.84917000",
    "longitude": "32.47306000",
    "wikiDataId": null
  },
  {
    "id": 110928,
    "name": "Lyantonde",
    "state_id": 396,
    "state_code": "C",
    "country_id": 229,
    "country_code": "UG",
    "latitude": "-0.40306000",
    "longitude": "31.15722000",
    "wikiDataId": null
  },
  {
    "id": 110930,
    "name": "Masaka",
    "state_id": 396,
    "state_code": "C",
    "country_id": 229,
    "country_code": "UG",
    "latitude": "-0.33379000",
    "longitude": "31.73409000",
    "wikiDataId": null
  },
  {
    "id": 110936,
    "name": "Mityana",
    "state_id": 396,
    "state_code": "C",
    "country_id": 229,
    "country_code": "UG",
    "latitude": "0.41750000",
    "longitude": "32.02278000",
    "wikiDataId": null
  },
  {
    "id": 110939,
    "name": "Mpigi",
    "state_id": 396,
    "state_code": "C",
    "country_id": 229,
    "country_code": "UG",
    "latitude": "0.22500000",
    "longitude": "32.31361000",
    "wikiDataId": null
  },
  {
    "id": 110940,
    "name": "Mubende",
    "state_id": 396,
    "state_code": "C",
    "country_id": 229,
    "country_code": "UG",
    "latitude": "0.55849000",
    "longitude": "31.39489000",
    "wikiDataId": null
  },
  {
    "id": 110941,
    "name": "Mubende District",
    "state_id": 396,
    "state_code": "C",
    "country_id": 229,
    "country_code": "UG",
    "latitude": "0.50000000",
    "longitude": "31.50000000",
    "wikiDataId": null
  },
  {
    "id": 110943,
    "name": "Mukono",
    "state_id": 396,
    "state_code": "C",
    "country_id": 229,
    "country_code": "UG",
    "latitude": "0.35333000",
    "longitude": "32.75528000",
    "wikiDataId": null
  },
  {
    "id": 110944,
    "name": "Nakasongola",
    "state_id": 396,
    "state_code": "C",
    "country_id": 229,
    "country_code": "UG",
    "latitude": "1.30889000",
    "longitude": "32.45639000",
    "wikiDataId": null
  },
  {
    "id": 110945,
    "name": "Namasuba",
    "state_id": 396,
    "state_code": "C",
    "country_id": 229,
    "country_code": "UG",
    "latitude": "0.68944000",
    "longitude": "32.42139000",
    "wikiDataId": null
  },
  {
    "id": 110947,
    "name": "Njeru",
    "state_id": 396,
    "state_code": "C",
    "country_id": 229,
    "country_code": "UG",
    "latitude": "0.44166000",
    "longitude": "33.17917000",
    "wikiDataId": null
  },
  {
    "id": 110957,
    "name": "Sembabule",
    "state_id": 396,
    "state_code": "C",
    "country_id": 229,
    "country_code": "UG",
    "latitude": "-0.07722000",
    "longitude": "31.45667000",
    "wikiDataId": null
  },
  {
    "id": 110961,
    "name": "Wakiso",
    "state_id": 396,
    "state_code": "C",
    "country_id": 229,
    "country_code": "UG",
    "latitude": "0.40444000",
    "longitude": "32.45944000",
    "wikiDataId": null
  },
  {
    "id": 110962,
    "name": "Wakiso District",
    "state_id": 396,
    "state_code": "C",
    "country_id": 229,
    "country_code": "UG",
    "latitude": "0.23763000",
    "longitude": "32.47836000",
    "wikiDataId": null
  },
  {
    "id": 110963,
    "name": "Wobulenzi",
    "state_id": 396,
    "state_code": "C",
    "country_id": 229,
    "country_code": "UG",
    "latitude": "0.72833000",
    "longitude": "32.51222000",
    "wikiDataId": null
  }
]