[
  {
    "id": 48322,
    "name": "Axbridge",
    "state_id": 2430,
    "state_code": "NSM",
    "country_id": 232,
    "country_code": "GB",
    "latitude": "51.28466000",
    "longitude": "-2.82078000",
    "wikiDataId": null
  },
  {
    "id": 48378,
    "name": "Banwell",
    "state_id": 2430,
    "state_code": "NSM",
    "country_id": 232,
    "country_code": "GB",
    "latitude": "51.32894000",
    "longitude": "-2.86914000",
    "wikiDataId": null
  },
  {
    "id": 48559,
    "name": "Blagdon",
    "state_id": 2430,
    "state_code": "NSM",
    "country_id": 232,
    "country_code": "GB",
    "latitude": "51.32688000",
    "longitude": "-2.71731000",
    "wikiDataId": null
  },
  {
    "id": 48564,
    "name": "Bleadon",
    "state_id": 2430,
    "state_code": "NSM",
    "country_id": 232,
    "country_code": "GB",
    "latitude": "51.30861000",
    "longitude": "-2.94750000",
    "wikiDataId": null
  },
  {
    "id": 48650,
    "name": "Bradley Cross",
    "state_id": 2430,
    "state_code": "NSM",
    "country_id": 232,
    "country_code": "GB",
    "latitude": "51.27488000",
    "longitude": "-2.76256000",
    "wikiDataId": null
  },
  {
    "id": 48717,
    "name": "Brockley",
    "state_id": 2430,
    "state_code": "NSM",
    "country_id": 232,
    "country_code": "GB",
    "latitude": "51.40000000",
    "longitude": "-2.76667000",
    "wikiDataId": null
  },
  {
    "id": 48783,
    "name": "Burrington",
    "state_id": 2430,
    "state_code": "NSM",
    "country_id": 232,
    "country_code": "GB",
    "latitude": "51.32884000",
    "longitude": "-2.74868000",
    "wikiDataId": null
  },
  {
    "id": 48939,
    "name": "Cheddar",
    "state_id": 2430,
    "state_code": "NSM",
    "country_id": 232,
    "country_code": "GB",
    "latitude": "51.27537000",
    "longitude": "-2.77662000",
    "wikiDataId": null
  },
  {
    "id": 48997,
    "name": "Churchill",
    "state_id": 2430,
    "state_code": "NSM",
    "country_id": 232,
    "country_code": "GB",
    "latitude": "51.34291000",
    "longitude": "-2.78338000",
    "wikiDataId": null
  },
  {
    "id": 49033,
    "name": "Clevedon",
    "state_id": 2430,
    "state_code": "NSM",
    "country_id": 232,
    "country_code": "GB",
    "latitude": "51.44227000",
    "longitude": "-2.85786000",
    "wikiDataId": null
  },
  {
    "id": 49084,
    "name": "Compton Martin",
    "state_id": 2430,
    "state_code": "NSM",
    "country_id": 232,
    "country_code": "GB",
    "latitude": "51.31056000",
    "longitude": "-2.65528000",
    "wikiDataId": null
  },
  {
    "id": 49087,
    "name": "Congresbury",
    "state_id": 2430,
    "state_code": "NSM",
    "country_id": 232,
    "country_code": "GB",
    "latitude": "51.37135000",
    "longitude": "-2.81018000",
    "wikiDataId": null
  },
  {
    "id": 49324,
    "name": "Draycott",
    "state_id": 2430,
    "state_code": "NSM",
    "country_id": 232,
    "country_code": "GB",
    "latitude": "51.25615000",
    "longitude": "-2.75116000",
    "wikiDataId": null
  },
  {
    "id": 50178,
    "name": "Kingston Seymour",
    "state_id": 2430,
    "state_code": "NSM",
    "country_id": 232,
    "country_code": "GB",
    "latitude": "51.39833000",
    "longitude": "-2.86111000",
    "wikiDataId": null
  },
  {
    "id": 50382,
    "name": "Locking",
    "state_id": 2430,
    "state_code": "NSM",
    "country_id": 232,
    "country_code": "GB",
    "latitude": "51.33327000",
    "longitude": "-2.91387000",
    "wikiDataId": null
  },
  {
    "id": 50659,
    "name": "Nailsea",
    "state_id": 2430,
    "state_code": "NSM",
    "country_id": 232,
    "country_code": "GB",
    "latitude": "51.43239000",
    "longitude": "-2.75847000",
    "wikiDataId": null
  },
  {
    "id": 50765,
    "name": "North Somerset",
    "state_id": 2430,
    "state_code": "NSM",
    "country_id": 232,
    "country_code": "GB",
    "latitude": "51.33333000",
    "longitude": "-2.83333000",
    "wikiDataId": null
  },
  {
    "id": 50963,
    "name": "Portishead",
    "state_id": 2430,
    "state_code": "NSM",
    "country_id": 232,
    "country_code": "GB",
    "latitude": "51.48199000",
    "longitude": "-2.76973000",
    "wikiDataId": null
  },
  {
    "id": 51193,
    "name": "Sandford",
    "state_id": 2430,
    "state_code": "NSM",
    "country_id": 232,
    "country_code": "GB",
    "latitude": "51.33228000",
    "longitude": "-2.83122000",
    "wikiDataId": null
  },
  {
    "id": 51283,
    "name": "Shipham",
    "state_id": 2430,
    "state_code": "NSM",
    "country_id": 232,
    "country_code": "GB",
    "latitude": "51.31428000",
    "longitude": "-2.80010000",
    "wikiDataId": null
  },
  {
    "id": 51780,
    "name": "Wedmore",
    "state_id": 2430,
    "state_code": "NSM",
    "country_id": 232,
    "country_code": "GB",
    "latitude": "51.22727000",
    "longitude": "-2.81152000",
    "wikiDataId": null
  },
  {
    "id": 51847,
    "name": "Weston-super-Mare",
    "state_id": 2430,
    "state_code": "NSM",
    "country_id": 232,
    "country_code": "GB",
    "latitude": "51.34603000",
    "longitude": "-2.97665000",
    "wikiDataId": null
  },
  {
    "id": 51927,
    "name": "Winford",
    "state_id": 2430,
    "state_code": "NSM",
    "country_id": 232,
    "country_code": "GB",
    "latitude": "51.38333000",
    "longitude": "-2.66111000",
    "wikiDataId": null
  },
  {
    "id": 51934,
    "name": "Winscombe",
    "state_id": 2430,
    "state_code": "NSM",
    "country_id": 232,
    "country_code": "GB",
    "latitude": "51.31810000",
    "longitude": "-2.83224000",
    "wikiDataId": null
  },
  {
    "id": 51999,
    "name": "Wrington",
    "state_id": 2430,
    "state_code": "NSM",
    "country_id": 232,
    "country_code": "GB",
    "latitude": "51.36173000",
    "longitude": "-2.76319000",
    "wikiDataId": null
  },
  {
    "id": 52016,
    "name": "Yatton",
    "state_id": 2430,
    "state_code": "NSM",
    "country_id": 232,
    "country_code": "GB",
    "latitude": "51.38839000",
    "longitude": "-2.82353000",
    "wikiDataId": null
  }
]