[
  {
    "id": 68103,
    "name": "Agua Azul",
    "state_id": 3455,
    "state_code": "QUE",
    "country_id": 142,
    "country_code": "MX",
    "latitude": "20.60271000",
    "longitude": "-100.20472000",
    "wikiDataId": null
  },
  {
    "id": 68112,
    "name": "Agua Fría",
    "state_id": 3455,
    "state_code": "QUE",
    "country_id": 142,
    "country_code": "MX",
    "latitude": "21.15304000",
    "longitude": "-99.80638000",
    "wikiDataId": null
  },
  {
    "id": 68118,
    "name": "Agua Zarca",
    "state_id": 3455,
    "state_code": "QUE",
    "country_id": 142,
    "country_code": "MX",
    "latitude": "21.22003000",
    "longitude": "-99.09075000",
    "wikiDataId": null
  },
  {
    "id": 68138,
    "name": "Ahuacatlán de Guadalupe",
    "state_id": 3455,
    "state_code": "QUE",
    "country_id": 142,
    "country_code": "MX",
    "latitude": "21.21472000",
    "longitude": "-99.54056000",
    "wikiDataId": null
  },
  {
    "id": 68167,
    "name": "Ajuchitlán",
    "state_id": 3455,
    "state_code": "QUE",
    "country_id": 142,
    "country_code": "MX",
    "latitude": "20.70713000",
    "longitude": "-100.02008000",
    "wikiDataId": null
  },
  {
    "id": 68166,
    "name": "Ajuchitlancito",
    "state_id": 3455,
    "state_code": "QUE",
    "country_id": 142,
    "country_code": "MX",
    "latitude": "20.47601000",
    "longitude": "-100.21583000",
    "wikiDataId": null
  },
  {
    "id": 68189,
    "name": "Alfajayucan",
    "state_id": 3455,
    "state_code": "QUE",
    "country_id": 142,
    "country_code": "MX",
    "latitude": "20.75370000",
    "longitude": "-100.21773000",
    "wikiDataId": null
  },
  {
    "id": 68250,
    "name": "Amazcala",
    "state_id": 3455,
    "state_code": "QUE",
    "country_id": 142,
    "country_code": "MX",
    "latitude": "20.70339000",
    "longitude": "-100.26511000",
    "wikiDataId": null
  },
  {
    "id": 68251,
    "name": "Amealco",
    "state_id": 3455,
    "state_code": "QUE",
    "country_id": 142,
    "country_code": "MX",
    "latitude": "20.18758000",
    "longitude": "-100.14485000",
    "wikiDataId": null
  },
  {
    "id": 68294,
    "name": "Apapátaro",
    "state_id": 3455,
    "state_code": "QUE",
    "country_id": 142,
    "country_code": "MX",
    "latitude": "20.46806000",
    "longitude": "-100.36861000",
    "wikiDataId": null
  },
  {
    "id": 68340,
    "name": "Arcila",
    "state_id": 3455,
    "state_code": "QUE",
    "country_id": 142,
    "country_code": "MX",
    "latitude": "20.41037000",
    "longitude": "-100.10993000",
    "wikiDataId": null
  },
  {
    "id": 68365,
    "name": "Arroyo Seco",
    "state_id": 3455,
    "state_code": "QUE",
    "country_id": 142,
    "country_code": "MX",
    "latitude": "21.54777000",
    "longitude": "-99.68832000",
    "wikiDataId": null
  },
  {
    "id": 68428,
    "name": "Atongo",
    "state_id": 3455,
    "state_code": "QUE",
    "country_id": 142,
    "country_code": "MX",
    "latitude": "20.77288000",
    "longitude": "-100.23953000",
    "wikiDataId": null
  },
  {
    "id": 68577,
    "name": "Bella Vista del Río",
    "state_id": 3455,
    "state_code": "QUE",
    "country_id": 142,
    "country_code": "MX",
    "latitude": "20.69000000",
    "longitude": "-99.57139000",
    "wikiDataId": null
  },
  {
    "id": 68610,
    "name": "Bernal",
    "state_id": 3455,
    "state_code": "QUE",
    "country_id": 142,
    "country_code": "MX",
    "latitude": "20.74030000",
    "longitude": "-99.94125000",
    "wikiDataId": null
  },
  {
    "id": 68641,
    "name": "Bordo Blanco",
    "state_id": 3455,
    "state_code": "QUE",
    "country_id": 142,
    "country_code": "MX",
    "latitude": "20.49631000",
    "longitude": "-99.92855000",
    "wikiDataId": null
  },
  {
    "id": 68646,
    "name": "Boxasní",
    "state_id": 3455,
    "state_code": "QUE",
    "country_id": 142,
    "country_code": "MX",
    "latitude": "20.67083000",
    "longitude": "-99.84861000",
    "wikiDataId": null
  },
  {
    "id": 68647,
    "name": "Boyé",
    "state_id": 3455,
    "state_code": "QUE",
    "country_id": 142,
    "country_code": "MX",
    "latitude": "20.68091000",
    "longitude": "-99.73933000",
    "wikiDataId": null
  },
  {
    "id": 68648,
    "name": "Bravo",
    "state_id": 3455,
    "state_code": "QUE",
    "country_id": 142,
    "country_code": "MX",
    "latitude": "20.39977000",
    "longitude": "-100.42423000",
    "wikiDataId": null
  },
  {
    "id": 68672,
    "name": "Buenavista",
    "state_id": 3455,
    "state_code": "QUE",
    "country_id": 142,
    "country_code": "MX",
    "latitude": "20.82372000",
    "longitude": "-100.47009000",
    "wikiDataId": null
  },
  {
    "id": 68716,
    "name": "Cadereyta",
    "state_id": 3455,
    "state_code": "QUE",
    "country_id": 142,
    "country_code": "MX",
    "latitude": "20.69701000",
    "longitude": "-99.81624000",
    "wikiDataId": null
  },
  {
    "id": 68727,
    "name": "Calamanda",
    "state_id": 3455,
    "state_code": "QUE",
    "country_id": 142,
    "country_code": "MX",
    "latitude": "20.54672000",
    "longitude": "-100.18616000",
    "wikiDataId": null
  },
  {
    "id": 68817,
    "name": "Carbonera",
    "state_id": 3455,
    "state_code": "QUE",
    "country_id": 142,
    "country_code": "MX",
    "latitude": "20.80518000",
    "longitude": "-100.17117000",
    "wikiDataId": null
  },
  {
    "id": 68848,
    "name": "Casa Blanca",
    "state_id": 3455,
    "state_code": "QUE",
    "country_id": 142,
    "country_code": "MX",
    "latitude": "20.38658000",
    "longitude": "-100.02009000",
    "wikiDataId": null
  },
  {
    "id": 68890,
    "name": "Ceja de Bravo",
    "state_id": 3455,
    "state_code": "QUE",
    "country_id": 142,
    "country_code": "MX",
    "latitude": "20.37856000",
    "longitude": "-100.39423000",
    "wikiDataId": null
  },
  {
    "id": 68937,
    "name": "Cerro de la Cruz",
    "state_id": 3455,
    "state_code": "QUE",
    "country_id": 142,
    "country_code": "MX",
    "latitude": "20.81474000",
    "longitude": "-100.50109000",
    "wikiDataId": null
  },
  {
    "id": 68926,
    "name": "Cerro Gordo",
    "state_id": 3455,
    "state_code": "QUE",
    "country_id": 142,
    "country_code": "MX",
    "latitude": "20.37329000",
    "longitude": "-99.91385000",
    "wikiDataId": null
  },
  {
    "id": 68995,
    "name": "Charco Blanco",
    "state_id": 3455,
    "state_code": "QUE",
    "country_id": 142,
    "country_code": "MX",
    "latitude": "20.43404000",
    "longitude": "-100.47244000",
    "wikiDataId": null
  },
  {
    "id": 69028,
    "name": "Chichimequillas",
    "state_id": 3455,
    "state_code": "QUE",
    "country_id": 142,
    "country_code": "MX",
    "latitude": "20.76512000",
    "longitude": "-100.33588000",
    "wikiDataId": null
  },
  {
    "id": 69258,
    "name": "Colinas de Santa Cruz Segunda Sección",
    "state_id": 3455,
    "state_code": "QUE",
    "country_id": 142,
    "country_code": "MX",
    "latitude": "20.62361000",
    "longitude": "-100.46667000",
    "wikiDataId": null
  },
  {
    "id": 69414,
    "name": "Colón",
    "state_id": 3455,
    "state_code": "QUE",
    "country_id": 142,
    "country_code": "MX",
    "latitude": "20.78323000",
    "longitude": "-100.05149000",
    "wikiDataId": null
  },
  {
    "id": 69403,
    "name": "Colonia los Ángeles",
    "state_id": 3455,
    "state_code": "QUE",
    "country_id": 142,
    "country_code": "MX",
    "latitude": "20.53523000",
    "longitude": "-100.48828000",
    "wikiDataId": null
  },
  {
    "id": 69446,
    "name": "Concá",
    "state_id": 3455,
    "state_code": "QUE",
    "country_id": 142,
    "country_code": "MX",
    "latitude": "21.44477000",
    "longitude": "-99.63582000",
    "wikiDataId": null
  },
  {
    "id": 69524,
    "name": "Coyotillos",
    "state_id": 3455,
    "state_code": "QUE",
    "country_id": 142,
    "country_code": "MX",
    "latitude": "20.59938000",
    "longitude": "-100.20898000",
    "wikiDataId": null
  },
  {
    "id": 69703,
    "name": "Dolores Cuadrilla de Enmedio",
    "state_id": 3455,
    "state_code": "QUE",
    "country_id": 142,
    "country_code": "MX",
    "latitude": "20.35257000",
    "longitude": "-100.07967000",
    "wikiDataId": null
  },
  {
    "id": 69847,
    "name": "El Blanco",
    "state_id": 3455,
    "state_code": "QUE",
    "country_id": 142,
    "country_code": "MX",
    "latitude": "20.61119000",
    "longitude": "-100.10159000",
    "wikiDataId": null
  },
  {
    "id": 69873,
    "name": "El Carmen",
    "state_id": 3455,
    "state_code": "QUE",
    "country_id": 142,
    "country_code": "MX",
    "latitude": "20.57445000",
    "longitude": "-100.28804000",
    "wikiDataId": null
  },
  {
    "id": 69889,
    "name": "El Cazadero",
    "state_id": 3455,
    "state_code": "QUE",
    "country_id": 142,
    "country_code": "MX",
    "latitude": "20.30011000",
    "longitude": "-99.87186000",
    "wikiDataId": null
  },
  {
    "id": 69905,
    "name": "El Ciervo",
    "state_id": 3455,
    "state_code": "QUE",
    "country_id": 142,
    "country_code": "MX",
    "latitude": "20.61834000",
    "longitude": "-99.87242000",
    "wikiDataId": null
  },
  {
    "id": 69912,
    "name": "El Colorado",
    "state_id": 3455,
    "state_code": "QUE",
    "country_id": 142,
    "country_code": "MX",
    "latitude": "20.56185000",
    "longitude": "-100.24520000",
    "wikiDataId": null
  },
  {
    "id": 69931,
    "name": "El Coto",
    "state_id": 3455,
    "state_code": "QUE",
    "country_id": 142,
    "country_code": "MX",
    "latitude": "20.39491000",
    "longitude": "-100.13465000",
    "wikiDataId": null
  },
  {
    "id": 69976,
    "name": "El Gallo",
    "state_id": 3455,
    "state_code": "QUE",
    "country_id": 142,
    "country_code": "MX",
    "latitude": "20.66973000",
    "longitude": "-100.04677000",
    "wikiDataId": null
  },
  {
    "id": 69999,
    "name": "El Jaral",
    "state_id": 3455,
    "state_code": "QUE",
    "country_id": 142,
    "country_code": "MX",
    "latitude": "20.40647000",
    "longitude": "-100.45524000",
    "wikiDataId": null
  },
  {
    "id": 70002,
    "name": "El Jazmín",
    "state_id": 3455,
    "state_code": "QUE",
    "country_id": 142,
    "country_code": "MX",
    "latitude": "20.34444000",
    "longitude": "-100.04667000",
    "wikiDataId": null
  },
  {
    "id": 70026,
    "name": "El Lobo",
    "state_id": 3455,
    "state_code": "QUE",
    "country_id": 142,
    "country_code": "MX",
    "latitude": "20.72904000",
    "longitude": "-100.20226000",
    "wikiDataId": null
  },
  {
    "id": 70037,
    "name": "El Milagro",
    "state_id": 3455,
    "state_code": "QUE",
    "country_id": 142,
    "country_code": "MX",
    "latitude": "20.47429000",
    "longitude": "-100.34918000",
    "wikiDataId": null
  },
  {
    "id": 70052,
    "name": "El Nabo",
    "state_id": 3455,
    "state_code": "QUE",
    "country_id": 142,
    "country_code": "MX",
    "latitude": "20.69389000",
    "longitude": "-100.48028000",
    "wikiDataId": null
  },
  {
    "id": 70073,
    "name": "El Organal",
    "state_id": 3455,
    "state_code": "QUE",
    "country_id": 142,
    "country_code": "MX",
    "latitude": "20.47751000",
    "longitude": "-100.05457000",
    "wikiDataId": null
  },
  {
    "id": 70078,
    "name": "El Palmar",
    "state_id": 3455,
    "state_code": "QUE",
    "country_id": 142,
    "country_code": "MX",
    "latitude": "20.69347000",
    "longitude": "-99.70645000",
    "wikiDataId": null
  },
  {
    "id": 70089,
    "name": "El Paraíso",
    "state_id": 3455,
    "state_code": "QUE",
    "country_id": 142,
    "country_code": "MX",
    "latitude": "20.56402000",
    "longitude": "-100.21617000",
    "wikiDataId": null
  },
  {
    "id": 70105,
    "name": "El Pinto",
    "state_id": 3455,
    "state_code": "QUE",
    "country_id": 142,
    "country_code": "MX",
    "latitude": "20.80270000",
    "longitude": "-100.41096000",
    "wikiDataId": null
  },
  {
    "id": 70129,
    "name": "El Pozo",
    "state_id": 3455,
    "state_code": "QUE",
    "country_id": 142,
    "country_code": "MX",
    "latitude": "20.63750000",
    "longitude": "-100.33306000",
    "wikiDataId": null
  },
  {
    "id": 70136,
    "name": "El Pueblito",
    "state_id": 3455,
    "state_code": "QUE",
    "country_id": 142,
    "country_code": "MX",
    "latitude": "20.53996000",
    "longitude": "-100.43817000",
    "wikiDataId": null
  },
  {
    "id": 70159,
    "name": "El Rincón",
    "state_id": 3455,
    "state_code": "QUE",
    "country_id": 142,
    "country_code": "MX",
    "latitude": "20.74111000",
    "longitude": "-99.78472000",
    "wikiDataId": null
  },
  {
    "id": 70177,
    "name": "El Rosario",
    "state_id": 3455,
    "state_code": "QUE",
    "country_id": 142,
    "country_code": "MX",
    "latitude": "20.39180000",
    "longitude": "-100.06583000",
    "wikiDataId": null
  },
  {
    "id": 70187,
    "name": "El Salitre",
    "state_id": 3455,
    "state_code": "QUE",
    "country_id": 142,
    "country_code": "MX",
    "latitude": "20.66596000",
    "longitude": "-100.42288000",
    "wikiDataId": null
  },
  {
    "id": 70204,
    "name": "El Saúz",
    "state_id": 3455,
    "state_code": "QUE",
    "country_id": 142,
    "country_code": "MX",
    "latitude": "20.47774000",
    "longitude": "-100.11540000",
    "wikiDataId": null
  },
  {
    "id": 70215,
    "name": "El Tejocote",
    "state_id": 3455,
    "state_code": "QUE",
    "country_id": 142,
    "country_code": "MX",
    "latitude": "20.61976000",
    "longitude": "-100.03447000",
    "wikiDataId": null
  },
  {
    "id": 70250,
    "name": "El Vegil",
    "state_id": 3455,
    "state_code": "QUE",
    "country_id": 142,
    "country_code": "MX",
    "latitude": "20.43111000",
    "longitude": "-100.35024000",
    "wikiDataId": null
  },
  {
    "id": 70311,
    "name": "Epigmenio González",
    "state_id": 3455,
    "state_code": "QUE",
    "country_id": 142,
    "country_code": "MX",
    "latitude": "20.55090000",
    "longitude": "-100.16505000",
    "wikiDataId": null
  },
  {
    "id": 70319,
    "name": "Escolasticas",
    "state_id": 3455,
    "state_code": "QUE",
    "country_id": 142,
    "country_code": "MX",
    "latitude": "20.42809000",
    "longitude": "-100.21186000",
    "wikiDataId": null
  },
  {
    "id": 70328,
    "name": "Esperanza",
    "state_id": 3455,
    "state_code": "QUE",
    "country_id": 142,
    "country_code": "MX",
    "latitude": "20.64610000",
    "longitude": "-100.11128000",
    "wikiDataId": null
  },
  {
    "id": 70391,
    "name": "Ezequiel Montes",
    "state_id": 3455,
    "state_code": "QUE",
    "country_id": 142,
    "country_code": "MX",
    "latitude": "20.66481000",
    "longitude": "-99.89960000",
    "wikiDataId": null
  },
  {
    "id": 70497,
    "name": "Fuentezuelas",
    "state_id": 3455,
    "state_code": "QUE",
    "country_id": 142,
    "country_code": "MX",
    "latitude": "20.55586000",
    "longitude": "-99.98209000",
    "wikiDataId": null
  },
  {
    "id": 70514,
    "name": "Galeras",
    "state_id": 3455,
    "state_code": "QUE",
    "country_id": 142,
    "country_code": "MX",
    "latitude": "20.61759000",
    "longitude": "-100.15731000",
    "wikiDataId": null
  },
  {
    "id": 70515,
    "name": "Galindo",
    "state_id": 3455,
    "state_code": "QUE",
    "country_id": 142,
    "country_code": "MX",
    "latitude": "20.39725000",
    "longitude": "-100.09840000",
    "wikiDataId": null
  },
  {
    "id": 70541,
    "name": "General Lázaro Cárdenas (El Colorado)",
    "state_id": 3455,
    "state_code": "QUE",
    "country_id": 142,
    "country_code": "MX",
    "latitude": "20.56389000",
    "longitude": "-100.24389000",
    "wikiDataId": null
  },
  {
    "id": 70591,
    "name": "Guadalupe Septién",
    "state_id": 3455,
    "state_code": "QUE",
    "country_id": 142,
    "country_code": "MX",
    "latitude": "20.52746000",
    "longitude": "-100.11352000",
    "wikiDataId": null
  },
  {
    "id": 70660,
    "name": "Hacienda la Cruz [Fraccionamiento]",
    "state_id": 3455,
    "state_code": "QUE",
    "country_id": 142,
    "country_code": "MX",
    "latitude": "20.63333000",
    "longitude": "-100.26278000",
    "wikiDataId": null
  },
  {
    "id": 70697,
    "name": "Higuerillas",
    "state_id": 3455,
    "state_code": "QUE",
    "country_id": 142,
    "country_code": "MX",
    "latitude": "20.91625000",
    "longitude": "-99.76556000",
    "wikiDataId": null
  },
  {
    "id": 70796,
    "name": "Huimilpan",
    "state_id": 3455,
    "state_code": "QUE",
    "country_id": 142,
    "country_code": "MX",
    "latitude": "20.37199000",
    "longitude": "-100.27737000",
    "wikiDataId": null
  },
  {
    "id": 70844,
    "name": "Ignacio Pérez",
    "state_id": 3455,
    "state_code": "QUE",
    "country_id": 142,
    "country_code": "MX",
    "latitude": "20.52225000",
    "longitude": "-100.11129000",
    "wikiDataId": null
  },
  {
    "id": 70979,
    "name": "Jalpan",
    "state_id": 3455,
    "state_code": "QUE",
    "country_id": 142,
    "country_code": "MX",
    "latitude": "21.21802000",
    "longitude": "-99.47152000",
    "wikiDataId": null
  },
  {
    "id": 71031,
    "name": "Jesús María",
    "state_id": 3455,
    "state_code": "QUE",
    "country_id": 142,
    "country_code": "MX",
    "latitude": "20.62274000",
    "longitude": "-100.25631000",
    "wikiDataId": null
  },
  {
    "id": 71063,
    "name": "Joaquín Herrera",
    "state_id": 3455,
    "state_code": "QUE",
    "country_id": 142,
    "country_code": "MX",
    "latitude": "20.48300000",
    "longitude": "-100.43854000",
    "wikiDataId": null
  },
  {
    "id": 71068,
    "name": "Jofrito",
    "state_id": 3455,
    "state_code": "QUE",
    "country_id": 142,
    "country_code": "MX",
    "latitude": "20.86154000",
    "longitude": "-100.41884000",
    "wikiDataId": null
  },
  {
    "id": 71142,
    "name": "Juriquilla",
    "state_id": 3455,
    "state_code": "QUE",
    "country_id": 142,
    "country_code": "MX",
    "latitude": "20.71277000",
    "longitude": "-100.45568000",
    "wikiDataId": null
  },
  {
    "id": 71182,
    "name": "La Barreta",
    "state_id": 3455,
    "state_code": "QUE",
    "country_id": 142,
    "country_code": "MX",
    "latitude": "20.82806000",
    "longitude": "-100.50647000",
    "wikiDataId": null
  },
  {
    "id": 71206,
    "name": "La Cañada",
    "state_id": 3455,
    "state_code": "QUE",
    "country_id": 142,
    "country_code": "MX",
    "latitude": "20.60805000",
    "longitude": "-100.33275000",
    "wikiDataId": null
  },
  {
    "id": 71211,
    "name": "La Ceja",
    "state_id": 3455,
    "state_code": "QUE",
    "country_id": 142,
    "country_code": "MX",
    "latitude": "20.38026000",
    "longitude": "-100.26505000",
    "wikiDataId": null
  },
  {
    "id": 71257,
    "name": "La D",
    "state_id": 3455,
    "state_code": "QUE",
    "country_id": 142,
    "country_code": "MX",
    "latitude": "20.44046000",
    "longitude": "-100.15296000",
    "wikiDataId": null
  },
  {
    "id": 71279,
    "name": "La Estacada",
    "state_id": 3455,
    "state_code": "QUE",
    "country_id": 142,
    "country_code": "MX",
    "latitude": "20.82151000",
    "longitude": "-100.40763000",
    "wikiDataId": null
  },
  {
    "id": 71281,
    "name": "La Estancia",
    "state_id": 3455,
    "state_code": "QUE",
    "country_id": 142,
    "country_code": "MX",
    "latitude": "20.42123000",
    "longitude": "-100.06616000",
    "wikiDataId": null
  },
  {
    "id": 71296,
    "name": "La Fuente",
    "state_id": 3455,
    "state_code": "QUE",
    "country_id": 142,
    "country_code": "MX",
    "latitude": "20.55255000",
    "longitude": "-100.03591000",
    "wikiDataId": null
  },
  {
    "id": 71306,
    "name": "La Gotera",
    "state_id": 3455,
    "state_code": "QUE",
    "country_id": 142,
    "country_code": "MX",
    "latitude": "20.86319000",
    "longitude": "-100.37575000",
    "wikiDataId": null
  },
  {
    "id": 71308,
    "name": "La Griega",
    "state_id": 3455,
    "state_code": "QUE",
    "country_id": 142,
    "country_code": "MX",
    "latitude": "20.66642000",
    "longitude": "-100.24012000",
    "wikiDataId": null
  },
  {
    "id": 71349,
    "name": "La Laja",
    "state_id": 3455,
    "state_code": "QUE",
    "country_id": 142,
    "country_code": "MX",
    "latitude": "20.57468000",
    "longitude": "-99.98070000",
    "wikiDataId": null
  },
  {
    "id": 71360,
    "name": "La Lira",
    "state_id": 3455,
    "state_code": "QUE",
    "country_id": 142,
    "country_code": "MX",
    "latitude": "20.47554000",
    "longitude": "-100.16145000",
    "wikiDataId": null
  },
  {
    "id": 71361,
    "name": "La Llave",
    "state_id": 3455,
    "state_code": "QUE",
    "country_id": 142,
    "country_code": "MX",
    "latitude": "20.46628000",
    "longitude": "-99.99373000",
    "wikiDataId": null
  },
  {
    "id": 71366,
    "name": "La Loma",
    "state_id": 3455,
    "state_code": "QUE",
    "country_id": 142,
    "country_code": "MX",
    "latitude": "20.60000000",
    "longitude": "-100.23889000",
    "wikiDataId": null
  },
  {
    "id": 71377,
    "name": "La Luz",
    "state_id": 3455,
    "state_code": "QUE",
    "country_id": 142,
    "country_code": "MX",
    "latitude": "20.86857000",
    "longitude": "-100.43839000",
    "wikiDataId": null
  },
  {
    "id": 71403,
    "name": "La Monja",
    "state_id": 3455,
    "state_code": "QUE",
    "country_id": 142,
    "country_code": "MX",
    "latitude": "20.84275000",
    "longitude": "-100.49754000",
    "wikiDataId": null
  },
  {
    "id": 71404,
    "name": "La Negreta",
    "state_id": 3455,
    "state_code": "QUE",
    "country_id": 142,
    "country_code": "MX",
    "latitude": "20.52647000",
    "longitude": "-100.45053000",
    "wikiDataId": null
  },
  {
    "id": 71406,
    "name": "La Noria",
    "state_id": 3455,
    "state_code": "QUE",
    "country_id": 142,
    "country_code": "MX",
    "latitude": "20.51261000",
    "longitude": "-100.34610000",
    "wikiDataId": null
  },
  {
    "id": 71420,
    "name": "La Palma",
    "state_id": 3455,
    "state_code": "QUE",
    "country_id": 142,
    "country_code": "MX",
    "latitude": "20.52219000",
    "longitude": "-100.17392000",
    "wikiDataId": null
  },
  {
    "id": 71446,
    "name": "La Piedad",
    "state_id": 3455,
    "state_code": "QUE",
    "country_id": 142,
    "country_code": "MX",
    "latitude": "20.57890000",
    "longitude": "-100.25573000",
    "wikiDataId": null
  },
  {
    "id": 71456,
    "name": "La Pradera",
    "state_id": 3455,
    "state_code": "QUE",
    "country_id": 142,
    "country_code": "MX",
    "latitude": "20.65889000",
    "longitude": "-100.34222000",
    "wikiDataId": null
  },
  {
    "id": 71489,
    "name": "La Solana",
    "state_id": 3455,
    "state_code": "QUE",
    "country_id": 142,
    "country_code": "MX",
    "latitude": "20.73835000",
    "longitude": "-100.39469000",
    "wikiDataId": null
  },
  {
    "id": 71495,
    "name": "La Soledad",
    "state_id": 3455,
    "state_code": "QUE",
    "country_id": 142,
    "country_code": "MX",
    "latitude": "20.16944000",
    "longitude": "-100.19111000",
    "wikiDataId": null
  },
  {
    "id": 71506,
    "name": "La Tortuga",
    "state_id": 3455,
    "state_code": "QUE",
    "country_id": 142,
    "country_code": "MX",
    "latitude": "20.56703000",
    "longitude": "-99.92317000",
    "wikiDataId": null
  },
  {
    "id": 71508,
    "name": "La Trinidad",
    "state_id": 3455,
    "state_code": "QUE",
    "country_id": 142,
    "country_code": "MX",
    "latitude": "20.51560000",
    "longitude": "-99.96283000",
    "wikiDataId": null
  },
  {
    "id": 71526,
    "name": "La Valla",
    "state_id": 3455,
    "state_code": "QUE",
    "country_id": 142,
    "country_code": "MX",
    "latitude": "20.49966000",
    "longitude": "-100.02689000",
    "wikiDataId": null
  },
  {
    "id": 71530,
    "name": "La Versolilla",
    "state_id": 3455,
    "state_code": "QUE",
    "country_id": 142,
    "country_code": "MX",
    "latitude": "20.87306000",
    "longitude": "-100.37889000",
    "wikiDataId": null
  },
  {
    "id": 71556,
    "name": "Laguna de Vaquerías",
    "state_id": 3455,
    "state_code": "QUE",
    "country_id": 142,
    "country_code": "MX",
    "latitude": "20.35392000",
    "longitude": "-100.13515000",
    "wikiDataId": null
  },
  {
    "id": 71564,
    "name": "Lagunillas",
    "state_id": 3455,
    "state_code": "QUE",
    "country_id": 142,
    "country_code": "MX",
    "latitude": "20.45876000",
    "longitude": "-100.29500000",
    "wikiDataId": null
  },
  {
    "id": 71568,
    "name": "Landa de Matamoros",
    "state_id": 3455,
    "state_code": "QUE",
    "country_id": 142,
    "country_code": "MX",
    "latitude": "21.18484000",
    "longitude": "-99.31985000",
    "wikiDataId": null
  },
  {
    "id": 71608,
    "name": "Las Lajitas",
    "state_id": 3455,
    "state_code": "QUE",
    "country_id": 142,
    "country_code": "MX",
    "latitude": "20.80360000",
    "longitude": "-100.40107000",
    "wikiDataId": null
  },
  {
    "id": 71641,
    "name": "Las Taponas",
    "state_id": 3455,
    "state_code": "QUE",
    "country_id": 142,
    "country_code": "MX",
    "latitude": "20.41747000",
    "longitude": "-100.38421000",
    "wikiDataId": null
  },
  {
    "id": 71722,
    "name": "Loma Linda",
    "state_id": 3455,
    "state_code": "QUE",
    "country_id": 142,
    "country_code": "MX",
    "latitude": "20.40079000",
    "longitude": "-100.03132000",
    "wikiDataId": null
  },
  {
    "id": 71778,
    "name": "Los Baños",
    "state_id": 3455,
    "state_code": "QUE",
    "country_id": 142,
    "country_code": "MX",
    "latitude": "20.79050000",
    "longitude": "-100.31310000",
    "wikiDataId": null
  },
  {
    "id": 71779,
    "name": "Los Benitos",
    "state_id": 3455,
    "state_code": "QUE",
    "country_id": 142,
    "country_code": "MX",
    "latitude": "20.68500000",
    "longitude": "-99.95611000",
    "wikiDataId": null
  },
  {
    "id": 71788,
    "name": "Los Cerritos",
    "state_id": 3455,
    "state_code": "QUE",
    "country_id": 142,
    "country_code": "MX",
    "latitude": "20.56204000",
    "longitude": "-100.06338000",
    "wikiDataId": null
  },
  {
    "id": 71795,
    "name": "Los Cues",
    "state_id": 3455,
    "state_code": "QUE",
    "country_id": 142,
    "country_code": "MX",
    "latitude": "20.50194000",
    "longitude": "-100.26417000",
    "wikiDataId": null
  },
  {
    "id": 71825,
    "name": "Los Olvera",
    "state_id": 3455,
    "state_code": "QUE",
    "country_id": 142,
    "country_code": "MX",
    "latitude": "20.53434000",
    "longitude": "-100.40795000",
    "wikiDataId": null
  },
  {
    "id": 71835,
    "name": "Los Pocitos",
    "state_id": 3455,
    "state_code": "QUE",
    "country_id": 142,
    "country_code": "MX",
    "latitude": "20.80000000",
    "longitude": "-100.31408000",
    "wikiDataId": null
  },
  {
    "id": 71875,
    "name": "Lourdes",
    "state_id": 3455,
    "state_code": "QUE",
    "country_id": 142,
    "country_code": "MX",
    "latitude": "20.51271000",
    "longitude": "-100.47643000",
    "wikiDataId": null
  },
  {
    "id": 72084,
    "name": "Mesillas",
    "state_id": 3455,
    "state_code": "QUE",
    "country_id": 142,
    "country_code": "MX",
    "latitude": "20.13653000",
    "longitude": "-100.00157000",
    "wikiDataId": null
  },
  {
    "id": 72190,
    "name": "Mompaní",
    "state_id": 3455,
    "state_code": "QUE",
    "country_id": 142,
    "country_code": "MX",
    "latitude": "20.69214000",
    "longitude": "-100.50679000",
    "wikiDataId": null
  },
  {
    "id": 72216,
    "name": "Montenegro",
    "state_id": 3455,
    "state_code": "QUE",
    "country_id": 142,
    "country_code": "MX",
    "latitude": "20.76333000",
    "longitude": "-100.42861000",
    "wikiDataId": null
  },
  {
    "id": 72333,
    "name": "Ninguno [CERESO]",
    "state_id": 3455,
    "state_code": "QUE",
    "country_id": 142,
    "country_code": "MX",
    "latitude": "20.67361000",
    "longitude": "-100.36028000",
    "wikiDataId": null
  },
  {
    "id": 72351,
    "name": "Noria Nueva",
    "state_id": 3455,
    "state_code": "QUE",
    "country_id": 142,
    "country_code": "MX",
    "latitude": "20.55671000",
    "longitude": "-100.12502000",
    "wikiDataId": null
  },
  {
    "id": 72488,
    "name": "Ojo de Agua",
    "state_id": 3455,
    "state_code": "QUE",
    "country_id": 142,
    "country_code": "MX",
    "latitude": "20.34746000",
    "longitude": "-100.03528000",
    "wikiDataId": null
  },
  {
    "id": 72595,
    "name": "Palmillas",
    "state_id": 3455,
    "state_code": "QUE",
    "country_id": 142,
    "country_code": "MX",
    "latitude": "20.33631000",
    "longitude": "-99.94035000",
    "wikiDataId": null
  },
  {
    "id": 72605,
    "name": "Palo Alto",
    "state_id": 3455,
    "state_code": "QUE",
    "country_id": 142,
    "country_code": "MX",
    "latitude": "20.54065000",
    "longitude": "-100.22130000",
    "wikiDataId": null
  },
  {
    "id": 72673,
    "name": "Paseos del Marqués",
    "state_id": 3455,
    "state_code": "QUE",
    "country_id": 142,
    "country_code": "MX",
    "latitude": "20.60389000",
    "longitude": "-100.24028000",
    "wikiDataId": null
  },
  {
    "id": 72674,
    "name": "Paseos del Pedregal",
    "state_id": 3455,
    "state_code": "QUE",
    "country_id": 142,
    "country_code": "MX",
    "latitude": "20.66417000",
    "longitude": "-100.39806000",
    "wikiDataId": null
  },
  {
    "id": 72688,
    "name": "Paso de Mata",
    "state_id": 3455,
    "state_code": "QUE",
    "country_id": 142,
    "country_code": "MX",
    "latitude": "20.34230000",
    "longitude": "-99.92712000",
    "wikiDataId": null
  },
  {
    "id": 72711,
    "name": "Patria Nueva",
    "state_id": 3455,
    "state_code": "QUE",
    "country_id": 142,
    "country_code": "MX",
    "latitude": "20.63222000",
    "longitude": "-100.47694000",
    "wikiDataId": null
  },
  {
    "id": 72725,
    "name": "Pedro Escobedo",
    "state_id": 3455,
    "state_code": "QUE",
    "country_id": 142,
    "country_code": "MX",
    "latitude": "20.49963000",
    "longitude": "-100.14278000",
    "wikiDataId": null
  },
  {
    "id": 72752,
    "name": "Peñamiller",
    "state_id": 3455,
    "state_code": "QUE",
    "country_id": 142,
    "country_code": "MX",
    "latitude": "21.05408000",
    "longitude": "-99.81573000",
    "wikiDataId": null
  },
  {
    "id": 72763,
    "name": "Pie de Gallo",
    "state_id": 3455,
    "state_code": "QUE",
    "country_id": 142,
    "country_code": "MX",
    "latitude": "20.78351000",
    "longitude": "-100.49243000",
    "wikiDataId": null
  },
  {
    "id": 72778,
    "name": "Pinal de Amoles",
    "state_id": 3455,
    "state_code": "QUE",
    "country_id": 142,
    "country_code": "MX",
    "latitude": "21.13448000",
    "longitude": "-99.62590000",
    "wikiDataId": null
  },
  {
    "id": 72783,
    "name": "Pintillo",
    "state_id": 3455,
    "state_code": "QUE",
    "country_id": 142,
    "country_code": "MX",
    "latitude": "20.79667000",
    "longitude": "-100.41694000",
    "wikiDataId": null
  },
  {
    "id": 72888,
    "name": "Presa de Rayas",
    "state_id": 3455,
    "state_code": "QUE",
    "country_id": 142,
    "country_code": "MX",
    "latitude": "20.80712000",
    "longitude": "-100.22252000",
    "wikiDataId": null
  },
  {
    "id": 72962,
    "name": "Puerta de Palmillas",
    "state_id": 3455,
    "state_code": "QUE",
    "country_id": 142,
    "country_code": "MX",
    "latitude": "20.31204000",
    "longitude": "-99.91629000",
    "wikiDataId": null
  },
  {
    "id": 72975,
    "name": "Puerto de Aguirre",
    "state_id": 3455,
    "state_code": "QUE",
    "country_id": 142,
    "country_code": "MX",
    "latitude": "20.80652000",
    "longitude": "-100.43213000",
    "wikiDataId": null
  },
  {
    "id": 72977,
    "name": "Puerto de Carroza",
    "state_id": 3455,
    "state_code": "QUE",
    "country_id": 142,
    "country_code": "MX",
    "latitude": "20.89862000",
    "longitude": "-100.41164000",
    "wikiDataId": null
  },
  {
    "id": 72978,
    "name": "Puerto de Chiquihuite",
    "state_id": 3455,
    "state_code": "QUE",
    "country_id": 142,
    "country_code": "MX",
    "latitude": "20.70083000",
    "longitude": "-99.83528000",
    "wikiDataId": null
  },
  {
    "id": 72979,
    "name": "Puerto de Nieto",
    "state_id": 3455,
    "state_code": "QUE",
    "country_id": 142,
    "country_code": "MX",
    "latitude": "20.88975000",
    "longitude": "-100.53814000",
    "wikiDataId": null
  },
  {
    "id": 72995,
    "name": "Purísima de Arista",
    "state_id": 3455,
    "state_code": "QUE",
    "country_id": 142,
    "country_code": "MX",
    "latitude": "21.31090000",
    "longitude": "-99.51215000",
    "wikiDataId": null
  },
  {
    "id": 72998,
    "name": "Purísima de Cubos (La Purísima)",
    "state_id": 3455,
    "state_code": "QUE",
    "country_id": 142,
    "country_code": "MX",
    "latitude": "20.60028000",
    "longitude": "-100.11833000",
    "wikiDataId": null
  },
  {
    "id": 73025,
    "name": "Querétaro",
    "state_id": 3455,
    "state_code": "QUE",
    "country_id": 142,
    "country_code": "MX",
    "latitude": "20.72105000",
    "longitude": "-100.44738000",
    "wikiDataId": null
  },
  {
    "id": 73058,
    "name": "Rancho Bellavista [Fraccionamiento]",
    "state_id": 3455,
    "state_code": "QUE",
    "country_id": 142,
    "country_code": "MX",
    "latitude": "20.60667000",
    "longitude": "-100.44972000",
    "wikiDataId": null
  },
  {
    "id": 73211,
    "name": "Saldarriaga",
    "state_id": 3455,
    "state_code": "QUE",
    "country_id": 142,
    "country_code": "MX",
    "latitude": "20.62781000",
    "longitude": "-100.29307000",
    "wikiDataId": null
  },
  {
    "id": 73367,
    "name": "San Antonio de la Cal",
    "state_id": 3455,
    "state_code": "QUE",
    "country_id": 142,
    "country_code": "MX",
    "latitude": "20.76693000",
    "longitude": "-99.93771000",
    "wikiDataId": null
  },
  {
    "id": 73468,
    "name": "San Clemente",
    "state_id": 3455,
    "state_code": "QUE",
    "country_id": 142,
    "country_code": "MX",
    "latitude": "20.51509000",
    "longitude": "-100.08459000",
    "wikiDataId": null
  },
  {
    "id": 73615,
    "name": "San Francisco de la Palma",
    "state_id": 3455,
    "state_code": "QUE",
    "country_id": 142,
    "country_code": "MX",
    "latitude": "20.66028000",
    "longitude": "-100.51528000",
    "wikiDataId": null
  },
  {
    "id": 73659,
    "name": "San Ildefonso",
    "state_id": 3455,
    "state_code": "QUE",
    "country_id": 142,
    "country_code": "MX",
    "latitude": "20.56750000",
    "longitude": "-100.17262000",
    "wikiDataId": null
  },
  {
    "id": 73661,
    "name": "San Ildefonso Tultepec",
    "state_id": 3455,
    "state_code": "QUE",
    "country_id": 142,
    "country_code": "MX",
    "latitude": "20.14381000",
    "longitude": "-99.95946000",
    "wikiDataId": null
  },
  {
    "id": 73677,
    "name": "San Isidro Buenavista",
    "state_id": 3455,
    "state_code": "QUE",
    "country_id": 142,
    "country_code": "MX",
    "latitude": "20.78874000",
    "longitude": "-100.44908000",
    "wikiDataId": null
  },
  {
    "id": 73680,
    "name": "San Isidro Miranda",
    "state_id": 3455,
    "state_code": "QUE",
    "country_id": 142,
    "country_code": "MX",
    "latitude": "20.57018000",
    "longitude": "-100.32425000",
    "wikiDataId": null
  },
  {
    "id": 73696,
    "name": "San Javier",
    "state_id": 3455,
    "state_code": "QUE",
    "country_id": 142,
    "country_code": "MX",
    "latitude": "20.75265000",
    "longitude": "-99.71683000",
    "wikiDataId": null
  },
  {
    "id": 73751,
    "name": "San José Buenavista",
    "state_id": 3455,
    "state_code": "QUE",
    "country_id": 142,
    "country_code": "MX",
    "latitude": "20.73482000",
    "longitude": "-100.40997000",
    "wikiDataId": null
  },
  {
    "id": 73830,
    "name": "San José de la Laja",
    "state_id": 3455,
    "state_code": "QUE",
    "country_id": 142,
    "country_code": "MX",
    "latitude": "20.61844000",
    "longitude": "-99.97550000",
    "wikiDataId": null
  },
  {
    "id": 73736,
    "name": "San Jose de los Olvera",
    "state_id": 3455,
    "state_code": "QUE",
    "country_id": 142,
    "country_code": "MX",
    "latitude": "20.55307000",
    "longitude": "-100.41518000",
    "wikiDataId": null
  },
  {
    "id": 73836,
    "name": "San José del Jagüey",
    "state_id": 3455,
    "state_code": "QUE",
    "country_id": 142,
    "country_code": "MX",
    "latitude": "20.73722000",
    "longitude": "-99.92444000",
    "wikiDataId": null
  },
  {
    "id": 73847,
    "name": "San José el Alto",
    "state_id": 3455,
    "state_code": "QUE",
    "country_id": 142,
    "country_code": "MX",
    "latitude": "20.65339000",
    "longitude": "-100.38218000",
    "wikiDataId": null
  },
  {
    "id": 73768,
    "name": "San José Itho",
    "state_id": 3455,
    "state_code": "QUE",
    "country_id": 142,
    "country_code": "MX",
    "latitude": "20.16544000",
    "longitude": "-100.12704000",
    "wikiDataId": null
  },
  {
    "id": 73791,
    "name": "San José Tepuzas",
    "state_id": 3455,
    "state_code": "QUE",
    "country_id": 142,
    "country_code": "MX",
    "latitude": "20.35417000",
    "longitude": "-100.37528000",
    "wikiDataId": null
  },
  {
    "id": 73976,
    "name": "San Juan del Río",
    "state_id": 3455,
    "state_code": "QUE",
    "country_id": 142,
    "country_code": "MX",
    "latitude": "20.38886000",
    "longitude": "-99.99577000",
    "wikiDataId": null
  },
  {
    "id": 74084,
    "name": "San Martín",
    "state_id": 3455,
    "state_code": "QUE",
    "country_id": 142,
    "country_code": "MX",
    "latitude": "20.72282000",
    "longitude": "-99.97522000",
    "wikiDataId": null
  },
  {
    "id": 74097,
    "name": "San Martín Florida",
    "state_id": 3455,
    "state_code": "QUE",
    "country_id": 142,
    "country_code": "MX",
    "latitude": "20.75662000",
    "longitude": "-99.82508000",
    "wikiDataId": null
  },
  {
    "id": 74161,
    "name": "San Miguel Amazcala",
    "state_id": 3455,
    "state_code": "QUE",
    "country_id": 142,
    "country_code": "MX",
    "latitude": "20.75056000",
    "longitude": "-100.23556000",
    "wikiDataId": null
  },
  {
    "id": 74243,
    "name": "San Miguelito",
    "state_id": 3455,
    "state_code": "QUE",
    "country_id": 142,
    "country_code": "MX",
    "latitude": "20.73709000",
    "longitude": "-100.50276000",
    "wikiDataId": null
  },
  {
    "id": 74248,
    "name": "San Nicolás",
    "state_id": 3455,
    "state_code": "QUE",
    "country_id": 142,
    "country_code": "MX",
    "latitude": "20.47689000",
    "longitude": "-99.93749000",
    "wikiDataId": null
  },
  {
    "id": 74271,
    "name": "San Nicolás de la Torre",
    "state_id": 3455,
    "state_code": "QUE",
    "country_id": 142,
    "country_code": "MX",
    "latitude": "20.07806000",
    "longitude": "-100.10139000",
    "wikiDataId": null
  },
  {
    "id": 74302,
    "name": "San Pablo Tolimán",
    "state_id": 3455,
    "state_code": "QUE",
    "country_id": 142,
    "country_code": "MX",
    "latitude": "20.85703000",
    "longitude": "-99.89985000",
    "wikiDataId": null
  },
  {
    "id": 74309,
    "name": "San Pedro",
    "state_id": 3455,
    "state_code": "QUE",
    "country_id": 142,
    "country_code": "MX",
    "latitude": "20.32055000",
    "longitude": "-100.28466000",
    "wikiDataId": null
  },
  {
    "id": 74357,
    "name": "San Pedro Mártir",
    "state_id": 3455,
    "state_code": "QUE",
    "country_id": 142,
    "country_code": "MX",
    "latitude": "20.61795000",
    "longitude": "-100.47024000",
    "wikiDataId": null
  },
  {
    "id": 74426,
    "name": "San Rafael",
    "state_id": 3455,
    "state_code": "QUE",
    "country_id": 142,
    "country_code": "MX",
    "latitude": "20.75246000",
    "longitude": "-100.28583000",
    "wikiDataId": null
  },
  {
    "id": 74477,
    "name": "San Sebastián de Las Barrancas Sur",
    "state_id": 3455,
    "state_code": "QUE",
    "country_id": 142,
    "country_code": "MX",
    "latitude": "20.26565000",
    "longitude": "-99.93622000",
    "wikiDataId": null
  },
  {
    "id": 74509,
    "name": "San Vicente el Alto",
    "state_id": 3455,
    "state_code": "QUE",
    "country_id": 142,
    "country_code": "MX",
    "latitude": "20.56857000",
    "longitude": "-100.16495000",
    "wikiDataId": null
  },
  {
    "id": 74500,
    "name": "San Vicente Ferrer",
    "state_id": 3455,
    "state_code": "QUE",
    "country_id": 142,
    "country_code": "MX",
    "latitude": "20.72703000",
    "longitude": "-100.34584000",
    "wikiDataId": null
  },
  {
    "id": 74568,
    "name": "Santa Bárbara de La Cueva",
    "state_id": 3455,
    "state_code": "QUE",
    "country_id": 142,
    "country_code": "MX",
    "latitude": "20.29632000",
    "longitude": "-99.96296000",
    "wikiDataId": null
  },
  {
    "id": 74578,
    "name": "Santa Catarina",
    "state_id": 3455,
    "state_code": "QUE",
    "country_id": 142,
    "country_code": "MX",
    "latitude": "20.77678000",
    "longitude": "-100.45233000",
    "wikiDataId": null
  },
  {
    "id": 74610,
    "name": "Santa Cruz",
    "state_id": 3455,
    "state_code": "QUE",
    "country_id": 142,
    "country_code": "MX",
    "latitude": "20.71179000",
    "longitude": "-100.30414000",
    "wikiDataId": null
  },
  {
    "id": 74623,
    "name": "Santa Cruz Escandón",
    "state_id": 3455,
    "state_code": "QUE",
    "country_id": 142,
    "country_code": "MX",
    "latitude": "20.41603000",
    "longitude": "-99.95563000",
    "wikiDataId": null
  },
  {
    "id": 74721,
    "name": "Santa María Begoña",
    "state_id": 3455,
    "state_code": "QUE",
    "country_id": 142,
    "country_code": "MX",
    "latitude": "20.74662000",
    "longitude": "-100.31765000",
    "wikiDataId": null
  },
  {
    "id": 74755,
    "name": "Santa María Magdalena",
    "state_id": 3455,
    "state_code": "QUE",
    "country_id": 142,
    "country_code": "MX",
    "latitude": "20.59690000",
    "longitude": "-100.44749000",
    "wikiDataId": null
  },
  {
    "id": 74824,
    "name": "Santa Matilde",
    "state_id": 3455,
    "state_code": "QUE",
    "country_id": 142,
    "country_code": "MX",
    "latitude": "20.43268000",
    "longitude": "-100.02611000",
    "wikiDataId": null
  },
  {
    "id": 74848,
    "name": "Santa Rosa de Lima",
    "state_id": 3455,
    "state_code": "QUE",
    "country_id": 142,
    "country_code": "MX",
    "latitude": "20.66565000",
    "longitude": "-99.97851000",
    "wikiDataId": null
  },
  {
    "id": 74843,
    "name": "Santa Rosa Jauregui",
    "state_id": 3455,
    "state_code": "QUE",
    "country_id": 142,
    "country_code": "MX",
    "latitude": "20.74122000",
    "longitude": "-100.44843000",
    "wikiDataId": null
  },
  {
    "id": 74847,
    "name": "Santa Rosa Xajay",
    "state_id": 3455,
    "state_code": "QUE",
    "country_id": 142,
    "country_code": "MX",
    "latitude": "20.43667000",
    "longitude": "-99.89923000",
    "wikiDataId": null
  },
  {
    "id": 74985,
    "name": "Santiago de Querétaro",
    "state_id": 3455,
    "state_code": "QUE",
    "country_id": 142,
    "country_code": "MX",
    "latitude": "20.58806000",
    "longitude": "-100.38806000",
    "wikiDataId": null
  },
  {
    "id": 74923,
    "name": "Santiago Mexquititlán Barrio 4to.",
    "state_id": 3455,
    "state_code": "QUE",
    "country_id": 142,
    "country_code": "MX",
    "latitude": "20.06306000",
    "longitude": "-100.06833000",
    "wikiDataId": null
  },
  {
    "id": 74992,
    "name": "Santillán",
    "state_id": 3455,
    "state_code": "QUE",
    "country_id": 142,
    "country_code": "MX",
    "latitude": "20.60073000",
    "longitude": "-99.93951000",
    "wikiDataId": null
  },
  {
    "id": 75062,
    "name": "Sergio Villaseñor",
    "state_id": 3455,
    "state_code": "QUE",
    "country_id": 142,
    "country_code": "MX",
    "latitude": "20.64500000",
    "longitude": "-100.42083000",
    "wikiDataId": null
  },
  {
    "id": 75463,
    "name": "Tequisquiapan",
    "state_id": 3455,
    "state_code": "QUE",
    "country_id": 142,
    "country_code": "MX",
    "latitude": "20.52250000",
    "longitude": "-99.89167000",
    "wikiDataId": null
  },
  {
    "id": 75543,
    "name": "Tierra Blanca",
    "state_id": 3455,
    "state_code": "QUE",
    "country_id": 142,
    "country_code": "MX",
    "latitude": "20.78026000",
    "longitude": "-100.38000000",
    "wikiDataId": null
  },
  {
    "id": 75614,
    "name": "Tlacote el Bajo",
    "state_id": 3455,
    "state_code": "QUE",
    "country_id": 142,
    "country_code": "MX",
    "latitude": "20.66139000",
    "longitude": "-100.50769000",
    "wikiDataId": null
  },
  {
    "id": 75721,
    "name": "Tolimán",
    "state_id": 3455,
    "state_code": "QUE",
    "country_id": 142,
    "country_code": "MX",
    "latitude": "20.90845000",
    "longitude": "-99.93040000",
    "wikiDataId": null
  },
  {
    "id": 75889,
    "name": "Urecho",
    "state_id": 3455,
    "state_code": "QUE",
    "country_id": 142,
    "country_code": "MX",
    "latitude": "20.65388000",
    "longitude": "-100.07402000",
    "wikiDataId": null
  },
  {
    "id": 75951,
    "name": "Venceremos",
    "state_id": 3455,
    "state_code": "QUE",
    "country_id": 142,
    "country_code": "MX",
    "latitude": "20.55083000",
    "longitude": "-100.39806000",
    "wikiDataId": null
  },
  {
    "id": 75968,
    "name": "Viborillas",
    "state_id": 3455,
    "state_code": "QUE",
    "country_id": 142,
    "country_code": "MX",
    "latitude": "20.60882000",
    "longitude": "-100.18558000",
    "wikiDataId": null
  },
  {
    "id": 76006,
    "name": "Villa Guerrero",
    "state_id": 3455,
    "state_code": "QUE",
    "country_id": 142,
    "country_code": "MX",
    "latitude": "20.69704000",
    "longitude": "-99.76093000",
    "wikiDataId": null
  },
  {
    "id": 76041,
    "name": "Villa Progreso",
    "state_id": 3455,
    "state_code": "QUE",
    "country_id": 142,
    "country_code": "MX",
    "latitude": "20.64234000",
    "longitude": "-99.83501000",
    "wikiDataId": null
  },
  {
    "id": 76086,
    "name": "Villas Fundadores [Fraccionamiento]",
    "state_id": 3455,
    "state_code": "QUE",
    "country_id": 142,
    "country_code": "MX",
    "latitude": "20.37778000",
    "longitude": "-99.90944000",
    "wikiDataId": null
  },
  {
    "id": 76096,
    "name": "Vista Hermosa (Cuasinada)",
    "state_id": 3455,
    "state_code": "QUE",
    "country_id": 142,
    "country_code": "MX",
    "latitude": "20.36861000",
    "longitude": "-100.01250000",
    "wikiDataId": null
  },
  {
    "id": 76098,
    "name": "Visthá",
    "state_id": 3455,
    "state_code": "QUE",
    "country_id": 142,
    "country_code": "MX",
    "latitude": "20.44670000",
    "longitude": "-99.97673000",
    "wikiDataId": null
  },
  {
    "id": 76102,
    "name": "Vizarrón",
    "state_id": 3455,
    "state_code": "QUE",
    "country_id": 142,
    "country_code": "MX",
    "latitude": "20.83218000",
    "longitude": "-99.72011000",
    "wikiDataId": null
  },
  {
    "id": 76245,
    "name": "Yosphí",
    "state_id": 3455,
    "state_code": "QUE",
    "country_id": 142,
    "country_code": "MX",
    "latitude": "20.17083000",
    "longitude": "-99.95222000",
    "wikiDataId": null
  },
  {
    "id": 76296,
    "name": "Zamorano",
    "state_id": 3455,
    "state_code": "QUE",
    "country_id": 142,
    "country_code": "MX",
    "latitude": "20.80819000",
    "longitude": "-100.11797000",
    "wikiDataId": null
  }
]