[
  {
    "id": 89948,
    "name": "Amara",
    "state_id": 4756,
    "state_code": "BZ",
    "country_id": 181,
    "country_code": "RO",
    "latitude": "45.24866000",
    "longitude": "27.29244000",
    "wikiDataId": null
  },
  {
    "id": 89949,
    "name": "Amaru",
    "state_id": 4756,
    "state_code": "BZ",
    "country_id": 181,
    "country_code": "RO",
    "latitude": "44.93333000",
    "longitude": "26.58333000",
    "wikiDataId": null
  },
  {
    "id": 90469,
    "name": "Băbeni",
    "state_id": 4756,
    "state_code": "BZ",
    "country_id": 181,
    "country_code": "RO",
    "latitude": "45.44635000",
    "longitude": "26.97875000",
    "wikiDataId": null
  },
  {
    "id": 90019,
    "name": "Babeţi",
    "state_id": 4756,
    "state_code": "BZ",
    "country_id": 181,
    "country_code": "RO",
    "latitude": "45.31667000",
    "longitude": "26.38333000",
    "wikiDataId": null
  },
  {
    "id": 90522,
    "name": "Bălăceanu",
    "state_id": 4756,
    "state_code": "BZ",
    "country_id": 181,
    "country_code": "RO",
    "latitude": "45.26667000",
    "longitude": "27.15000000",
    "wikiDataId": null
  },
  {
    "id": 90047,
    "name": "Balta Albă",
    "state_id": 4756,
    "state_code": "BZ",
    "country_id": 181,
    "country_code": "RO",
    "latitude": "45.30423000",
    "longitude": "27.28557000",
    "wikiDataId": null
  },
  {
    "id": 90462,
    "name": "Bâsca Chiojdului",
    "state_id": 4756,
    "state_code": "BZ",
    "country_id": 181,
    "country_code": "RO",
    "latitude": "45.37120000",
    "longitude": "26.18355000",
    "wikiDataId": null
  },
  {
    "id": 90463,
    "name": "Bâsca Rozilei",
    "state_id": 4756,
    "state_code": "BZ",
    "country_id": 181,
    "country_code": "RO",
    "latitude": "45.45387000",
    "longitude": "26.33714000",
    "wikiDataId": null
  },
  {
    "id": 90464,
    "name": "Bâscenii de Jos",
    "state_id": 4756,
    "state_code": "BZ",
    "country_id": 181,
    "country_code": "RO",
    "latitude": "45.24708000",
    "longitude": "26.32122000",
    "wikiDataId": null
  },
  {
    "id": 90465,
    "name": "Bâscenii de Sus",
    "state_id": 4756,
    "state_code": "BZ",
    "country_id": 181,
    "country_code": "RO",
    "latitude": "45.26662000",
    "longitude": "26.27073000",
    "wikiDataId": null
  },
  {
    "id": 90075,
    "name": "Beceni",
    "state_id": 4756,
    "state_code": "BZ",
    "country_id": 181,
    "country_code": "RO",
    "latitude": "45.38333000",
    "longitude": "26.78333000",
    "wikiDataId": null
  },
  {
    "id": 90097,
    "name": "Berca",
    "state_id": 4756,
    "state_code": "BZ",
    "country_id": 181,
    "country_code": "RO",
    "latitude": "45.28333000",
    "longitude": "26.68333000",
    "wikiDataId": null
  },
  {
    "id": 90142,
    "name": "Bisoca",
    "state_id": 4756,
    "state_code": "BZ",
    "country_id": 181,
    "country_code": "RO",
    "latitude": "45.53333000",
    "longitude": "26.70000000",
    "wikiDataId": null
  },
  {
    "id": 90165,
    "name": "Blăjani",
    "state_id": 4756,
    "state_code": "BZ",
    "country_id": 181,
    "country_code": "RO",
    "latitude": "45.31667000",
    "longitude": "26.81667000",
    "wikiDataId": null
  },
  {
    "id": 90169,
    "name": "Boboc",
    "state_id": 4756,
    "state_code": "BZ",
    "country_id": 181,
    "country_code": "RO",
    "latitude": "45.19570000",
    "longitude": "26.98136000",
    "wikiDataId": null
  },
  {
    "id": 90211,
    "name": "Boldu",
    "state_id": 4756,
    "state_code": "BZ",
    "country_id": 181,
    "country_code": "RO",
    "latitude": "45.33333000",
    "longitude": "27.23333000",
    "wikiDataId": null
  },
  {
    "id": 90253,
    "name": "Bozioru",
    "state_id": 4756,
    "state_code": "BZ",
    "country_id": 181,
    "country_code": "RO",
    "latitude": "45.38333000",
    "longitude": "26.48333000",
    "wikiDataId": null
  },
  {
    "id": 90321,
    "name": "Brădeanu",
    "state_id": 4756,
    "state_code": "BZ",
    "country_id": 181,
    "country_code": "RO",
    "latitude": "44.93333000",
    "longitude": "26.85000000",
    "wikiDataId": null
  },
  {
    "id": 90330,
    "name": "Brăeşti",
    "state_id": 4756,
    "state_code": "BZ",
    "country_id": 181,
    "country_code": "RO",
    "latitude": "45.43333000",
    "longitude": "26.50000000",
    "wikiDataId": null
  },
  {
    "id": 90285,
    "name": "Breaza",
    "state_id": 4756,
    "state_code": "BZ",
    "country_id": 181,
    "country_code": "RO",
    "latitude": "45.10000000",
    "longitude": "26.53333000",
    "wikiDataId": null
  },
  {
    "id": 90374,
    "name": "Buda",
    "state_id": 4756,
    "state_code": "BZ",
    "country_id": 181,
    "country_code": "RO",
    "latitude": "45.50000000",
    "longitude": "26.90000000",
    "wikiDataId": null
  },
  {
    "id": 90421,
    "name": "Burueneşti",
    "state_id": 4756,
    "state_code": "BZ",
    "country_id": 181,
    "country_code": "RO",
    "latitude": "45.31667000",
    "longitude": "26.35000000",
    "wikiDataId": null
  },
  {
    "id": 90435,
    "name": "Buzău",
    "state_id": 4756,
    "state_code": "BZ",
    "country_id": 181,
    "country_code": "RO",
    "latitude": "45.15000000",
    "longitude": "26.83333000",
    "wikiDataId": null
  },
  {
    "id": 90558,
    "name": "C.a. Rosetti",
    "state_id": 4756,
    "state_code": "BZ",
    "country_id": 181,
    "country_code": "RO",
    "latitude": "45.04622000",
    "longitude": "27.16640000",
    "wikiDataId": null
  },
  {
    "id": 93834,
    "name": "Căldărăști",
    "state_id": 4756,
    "state_code": "BZ",
    "country_id": 181,
    "country_code": "RO",
    "latitude": "44.89375000",
    "longitude": "27.03400000",
    "wikiDataId": null
  },
  {
    "id": 90566,
    "name": "Calvini",
    "state_id": 4756,
    "state_code": "BZ",
    "country_id": 181,
    "country_code": "RO",
    "latitude": "45.25000000",
    "longitude": "26.30000000",
    "wikiDataId": null
  },
  {
    "id": 93856,
    "name": "Căneşti",
    "state_id": 4756,
    "state_code": "BZ",
    "country_id": 181,
    "country_code": "RO",
    "latitude": "45.40000000",
    "longitude": "26.60000000",
    "wikiDataId": null
  },
  {
    "id": 93865,
    "name": "Căpățânești",
    "state_id": 4756,
    "state_code": "BZ",
    "country_id": 181,
    "country_code": "RO",
    "latitude": "45.18333000",
    "longitude": "26.80000000",
    "wikiDataId": null
  },
  {
    "id": 90597,
    "name": "Cașoca",
    "state_id": 4756,
    "state_code": "BZ",
    "country_id": 181,
    "country_code": "RO",
    "latitude": "45.48914000",
    "longitude": "26.26706000",
    "wikiDataId": null
  },
  {
    "id": 93877,
    "name": "Cătina",
    "state_id": 4756,
    "state_code": "BZ",
    "country_id": 181,
    "country_code": "RO",
    "latitude": "45.30000000",
    "longitude": "26.25000000",
    "wikiDataId": null
  },
  {
    "id": 90638,
    "name": "Cernăteşti",
    "state_id": 4756,
    "state_code": "BZ",
    "country_id": 181,
    "country_code": "RO",
    "latitude": "45.26667000",
    "longitude": "26.76667000",
    "wikiDataId": null
  },
  {
    "id": 90668,
    "name": "Chiliile",
    "state_id": 4756,
    "state_code": "BZ",
    "country_id": 181,
    "country_code": "RO",
    "latitude": "45.45000000",
    "longitude": "26.58333000",
    "wikiDataId": null
  },
  {
    "id": 90674,
    "name": "Chiojdu",
    "state_id": 4756,
    "state_code": "BZ",
    "country_id": 181,
    "country_code": "RO",
    "latitude": "45.35000000",
    "longitude": "26.20000000",
    "wikiDataId": null
  },
  {
    "id": 90701,
    "name": "Cilibia",
    "state_id": 4756,
    "state_code": "BZ",
    "country_id": 181,
    "country_code": "RO",
    "latitude": "45.06667000",
    "longitude": "27.06667000",
    "wikiDataId": null
  },
  {
    "id": 90736,
    "name": "Cislău",
    "state_id": 4756,
    "state_code": "BZ",
    "country_id": 181,
    "country_code": "RO",
    "latitude": "45.25000000",
    "longitude": "26.36667000",
    "wikiDataId": null
  },
  {
    "id": 90776,
    "name": "Cochirleanca",
    "state_id": 4756,
    "state_code": "BZ",
    "country_id": 181,
    "country_code": "RO",
    "latitude": "45.21667000",
    "longitude": "27.03333000",
    "wikiDataId": null
  },
  {
    "id": 90802,
    "name": "Colţi",
    "state_id": 4756,
    "state_code": "BZ",
    "country_id": 181,
    "country_code": "RO",
    "latitude": "45.38333000",
    "longitude": "26.38333000",
    "wikiDataId": null
  },
  {
    "id": 90863,
    "name": "Comuna Amaru",
    "state_id": 4756,
    "state_code": "BZ",
    "country_id": 181,
    "country_code": "RO",
    "latitude": "44.93770000",
    "longitude": "26.59991000",
    "wikiDataId": null
  },
  {
    "id": 91223,
    "name": "Comuna Bălăceanu",
    "state_id": 4756,
    "state_code": "BZ",
    "country_id": 181,
    "country_code": "RO",
    "latitude": "45.24656000",
    "longitude": "27.13604000",
    "wikiDataId": null
  },
  {
    "id": 90929,
    "name": "Comuna Balta Albă",
    "state_id": 4756,
    "state_code": "BZ",
    "country_id": 181,
    "country_code": "RO",
    "latitude": "45.26376000",
    "longitude": "27.30558000",
    "wikiDataId": null
  },
  {
    "id": 90944,
    "name": "Comuna Beceni",
    "state_id": 4756,
    "state_code": "BZ",
    "country_id": 181,
    "country_code": "RO",
    "latitude": "45.38456000",
    "longitude": "26.76978000",
    "wikiDataId": null
  },
  {
    "id": 90959,
    "name": "Comuna Berca",
    "state_id": 4756,
    "state_code": "BZ",
    "country_id": 181,
    "country_code": "RO",
    "latitude": "45.30098000",
    "longitude": "26.65989000",
    "wikiDataId": null
  },
  {
    "id": 90994,
    "name": "Comuna Bisoca",
    "state_id": 4756,
    "state_code": "BZ",
    "country_id": 181,
    "country_code": "RO",
    "latitude": "45.54340000",
    "longitude": "26.70591000",
    "wikiDataId": null
  },
  {
    "id": 91008,
    "name": "Comuna Blăjani",
    "state_id": 4756,
    "state_code": "BZ",
    "country_id": 181,
    "country_code": "RO",
    "latitude": "45.29964000",
    "longitude": "26.81716000",
    "wikiDataId": null
  },
  {
    "id": 91039,
    "name": "Comuna Boldu",
    "state_id": 4756,
    "state_code": "BZ",
    "country_id": 181,
    "country_code": "RO",
    "latitude": "45.32267000",
    "longitude": "27.24313000",
    "wikiDataId": null
  },
  {
    "id": 91067,
    "name": "Comuna Bozioru",
    "state_id": 4756,
    "state_code": "BZ",
    "country_id": 181,
    "country_code": "RO",
    "latitude": "45.38987000",
    "longitude": "26.46770000",
    "wikiDataId": null
  },
  {
    "id": 91111,
    "name": "Comuna Brădeanu",
    "state_id": 4756,
    "state_code": "BZ",
    "country_id": 181,
    "country_code": "RO",
    "latitude": "44.89367000",
    "longitude": "26.86105000",
    "wikiDataId": null
  },
  {
    "id": 91117,
    "name": "Comuna Brăeşti",
    "state_id": 4756,
    "state_code": "BZ",
    "country_id": 181,
    "country_code": "RO",
    "latitude": "45.44253000",
    "longitude": "26.49487000",
    "wikiDataId": null
  },
  {
    "id": 91089,
    "name": "Comuna Breaza",
    "state_id": 4756,
    "state_code": "BZ",
    "country_id": 181,
    "country_code": "RO",
    "latitude": "45.09183000",
    "longitude": "26.53240000",
    "wikiDataId": null
  },
  {
    "id": 91142,
    "name": "Comuna Buda",
    "state_id": 4756,
    "state_code": "BZ",
    "country_id": 181,
    "country_code": "RO",
    "latitude": "45.50907000",
    "longitude": "26.90434000",
    "wikiDataId": null
  },
  {
    "id": 91251,
    "name": "Comuna C.A. Rosetti",
    "state_id": 4756,
    "state_code": "BZ",
    "country_id": 181,
    "country_code": "RO",
    "latitude": "45.03678000",
    "longitude": "27.16722000",
    "wikiDataId": null
  },
  {
    "id": 91255,
    "name": "Comuna Calvini",
    "state_id": 4756,
    "state_code": "BZ",
    "country_id": 181,
    "country_code": "RO",
    "latitude": "45.24906000",
    "longitude": "26.29982000",
    "wikiDataId": null
  },
  {
    "id": 91582,
    "name": "Comuna Căneşti",
    "state_id": 4756,
    "state_code": "BZ",
    "country_id": 181,
    "country_code": "RO",
    "latitude": "45.39711000",
    "longitude": "26.60889000",
    "wikiDataId": null
  },
  {
    "id": 91593,
    "name": "Comuna Cătina",
    "state_id": 4756,
    "state_code": "BZ",
    "country_id": 181,
    "country_code": "RO",
    "latitude": "45.28747000",
    "longitude": "26.24479000",
    "wikiDataId": null
  },
  {
    "id": 91296,
    "name": "Comuna Cernăteşti",
    "state_id": 4756,
    "state_code": "BZ",
    "country_id": 181,
    "country_code": "RO",
    "latitude": "45.29838000",
    "longitude": "26.76260000",
    "wikiDataId": null
  },
  {
    "id": 91315,
    "name": "Comuna Chiliile",
    "state_id": 4756,
    "state_code": "BZ",
    "country_id": 181,
    "country_code": "RO",
    "latitude": "45.44784000",
    "longitude": "26.59441000",
    "wikiDataId": null
  },
  {
    "id": 91320,
    "name": "Comuna Chiojdu",
    "state_id": 4756,
    "state_code": "BZ",
    "country_id": 181,
    "country_code": "RO",
    "latitude": "45.36671000",
    "longitude": "26.21840000",
    "wikiDataId": null
  },
  {
    "id": 91336,
    "name": "Comuna Cilibia",
    "state_id": 4756,
    "state_code": "BZ",
    "country_id": 181,
    "country_code": "RO",
    "latitude": "45.05219000",
    "longitude": "27.04337000",
    "wikiDataId": null
  },
  {
    "id": 91361,
    "name": "Comuna Cislău",
    "state_id": 4756,
    "state_code": "BZ",
    "country_id": 181,
    "country_code": "RO",
    "latitude": "45.22578000",
    "longitude": "26.37954000",
    "wikiDataId": null
  },
  {
    "id": 91386,
    "name": "Comuna Cochirleanca",
    "state_id": 4756,
    "state_code": "BZ",
    "country_id": 181,
    "country_code": "RO",
    "latitude": "45.20146000",
    "longitude": "27.01126000",
    "wikiDataId": null
  },
  {
    "id": 91402,
    "name": "Comuna Colţi",
    "state_id": 4756,
    "state_code": "BZ",
    "country_id": 181,
    "country_code": "RO",
    "latitude": "45.39105000",
    "longitude": "26.40723000",
    "wikiDataId": null
  },
  {
    "id": 91455,
    "name": "Comuna Costeşti",
    "state_id": 4756,
    "state_code": "BZ",
    "country_id": 181,
    "country_code": "RO",
    "latitude": "45.06179000",
    "longitude": "26.77321000",
    "wikiDataId": null
  },
  {
    "id": 91468,
    "name": "Comuna Cozieni",
    "state_id": 4756,
    "state_code": "BZ",
    "country_id": 181,
    "country_code": "RO",
    "latitude": "45.33240000",
    "longitude": "26.49410000",
    "wikiDataId": null
  },
  {
    "id": 91981,
    "name": "Comuna Gălbinaşi",
    "state_id": 4756,
    "state_code": "BZ",
    "country_id": 181,
    "country_code": "RO",
    "latitude": "45.07439000",
    "longitude": "26.94363000",
    "wikiDataId": null
  },
  {
    "id": 91849,
    "name": "Comuna Gherăseni",
    "state_id": 4756,
    "state_code": "BZ",
    "country_id": 181,
    "country_code": "RO",
    "latitude": "45.02443000",
    "longitude": "26.80069000",
    "wikiDataId": null
  },
  {
    "id": 91845,
    "name": "Comuna Ghergheasa",
    "state_id": 4756,
    "state_code": "BZ",
    "country_id": 181,
    "country_code": "RO",
    "latitude": "45.28915000",
    "longitude": "27.19182000",
    "wikiDataId": null
  },
  {
    "id": 91882,
    "name": "Comuna Glodeanu-Sărat",
    "state_id": 4756,
    "state_code": "BZ",
    "country_id": 181,
    "country_code": "RO",
    "latitude": "44.87601000",
    "longitude": "26.65897000",
    "wikiDataId": null
  },
  {
    "id": 91881,
    "name": "Comuna Glodeanu-Siliştea",
    "state_id": 4756,
    "state_code": "BZ",
    "country_id": 181,
    "country_code": "RO",
    "latitude": "44.83956000",
    "longitude": "26.76757000",
    "wikiDataId": null
  },
  {
    "id": 91912,
    "name": "Comuna Greabănu",
    "state_id": 4756,
    "state_code": "BZ",
    "country_id": 181,
    "country_code": "RO",
    "latitude": "45.38794000",
    "longitude": "26.96628000",
    "wikiDataId": null
  },
  {
    "id": 91952,
    "name": "Comuna Gura Teghii",
    "state_id": 4756,
    "state_code": "BZ",
    "country_id": 181,
    "country_code": "RO",
    "latitude": "45.50703000",
    "longitude": "26.43441000",
    "wikiDataId": null
  },
  {
    "id": 92138,
    "name": "Comuna Largu",
    "state_id": 4756,
    "state_code": "BZ",
    "country_id": 181,
    "country_code": "RO",
    "latitude": "44.97448000",
    "longitude": "27.16261000",
    "wikiDataId": null
  },
  {
    "id": 92184,
    "name": "Comuna Lopătari",
    "state_id": 4756,
    "state_code": "BZ",
    "country_id": 181,
    "country_code": "RO",
    "latitude": "45.48774000",
    "longitude": "26.55233000",
    "wikiDataId": null
  },
  {
    "id": 92189,
    "name": "Comuna Luciu",
    "state_id": 4756,
    "state_code": "BZ",
    "country_id": 181,
    "country_code": "RO",
    "latitude": "44.97510000",
    "longitude": "27.05781000",
    "wikiDataId": null
  },
  {
    "id": 92389,
    "name": "Comuna Măgura",
    "state_id": 4756,
    "state_code": "BZ",
    "country_id": 181,
    "country_code": "RO",
    "latitude": "45.26962000",
    "longitude": "26.55104000",
    "wikiDataId": null
  },
  {
    "id": 92367,
    "name": "Comuna Mânzăleşti",
    "state_id": 4756,
    "state_code": "BZ",
    "country_id": 181,
    "country_code": "RO",
    "latitude": "45.50414000",
    "longitude": "26.64561000",
    "wikiDataId": null
  },
  {
    "id": 92417,
    "name": "Comuna Mărăcineni",
    "state_id": 4756,
    "state_code": "BZ",
    "country_id": 181,
    "country_code": "RO",
    "latitude": "45.18902000",
    "longitude": "26.79393000",
    "wikiDataId": null
  },
  {
    "id": 92409,
    "name": "Comuna Mărgăriteşti",
    "state_id": 4756,
    "state_code": "BZ",
    "country_id": 181,
    "country_code": "RO",
    "latitude": "45.43496000",
    "longitude": "26.83619000",
    "wikiDataId": null
  },
  {
    "id": 92255,
    "name": "Comuna Merei",
    "state_id": 4756,
    "state_code": "BZ",
    "country_id": 181,
    "country_code": "RO",
    "latitude": "45.13102000",
    "longitude": "26.66127000",
    "wikiDataId": null
  },
  {
    "id": 92285,
    "name": "Comuna Mihăileşti",
    "state_id": 4756,
    "state_code": "BZ",
    "country_id": 181,
    "country_code": "RO",
    "latitude": "44.92518000",
    "longitude": "26.67330000",
    "wikiDataId": null
  },
  {
    "id": 92338,
    "name": "Comuna Movila Banului",
    "state_id": 4756,
    "state_code": "BZ",
    "country_id": 181,
    "country_code": "RO",
    "latitude": "44.97607000",
    "longitude": "26.70299000",
    "wikiDataId": null
  },
  {
    "id": 92361,
    "name": "Comuna Murgeşti",
    "state_id": 4756,
    "state_code": "BZ",
    "country_id": 181,
    "country_code": "RO",
    "latitude": "45.40612000",
    "longitude": "26.88883000",
    "wikiDataId": null
  },
  {
    "id": 92461,
    "name": "Comuna Năeni",
    "state_id": 4756,
    "state_code": "BZ",
    "country_id": 181,
    "country_code": "RO",
    "latitude": "45.09968000",
    "longitude": "26.48944000",
    "wikiDataId": null
  },
  {
    "id": 92484,
    "name": "Comuna Odăile",
    "state_id": 4756,
    "state_code": "BZ",
    "country_id": 181,
    "country_code": "RO",
    "latitude": "45.38458000",
    "longitude": "26.53966000",
    "wikiDataId": null
  },
  {
    "id": 92528,
    "name": "Comuna Padina",
    "state_id": 4756,
    "state_code": "BZ",
    "country_id": 181,
    "country_code": "RO",
    "latitude": "44.87082000",
    "longitude": "27.11566000",
    "wikiDataId": null
  },
  {
    "id": 92720,
    "name": "Comuna Pănătău",
    "state_id": 4756,
    "state_code": "BZ",
    "country_id": 181,
    "country_code": "RO",
    "latitude": "45.30516000",
    "longitude": "26.39159000",
    "wikiDataId": null
  },
  {
    "id": 92538,
    "name": "Comuna Pardoşi",
    "state_id": 4756,
    "state_code": "BZ",
    "country_id": 181,
    "country_code": "RO",
    "latitude": "45.44989000",
    "longitude": "26.87934000",
    "wikiDataId": null
  },
  {
    "id": 92707,
    "name": "Comuna Pârscov",
    "state_id": 4756,
    "state_code": "BZ",
    "country_id": 181,
    "country_code": "RO",
    "latitude": "45.30760000",
    "longitude": "26.55283000",
    "wikiDataId": null
  },
  {
    "id": 92580,
    "name": "Comuna Pietroasele",
    "state_id": 4756,
    "state_code": "BZ",
    "country_id": 181,
    "country_code": "RO",
    "latitude": "45.10357000",
    "longitude": "26.59143000",
    "wikiDataId": null
  },
  {
    "id": 92614,
    "name": "Comuna Podgoria",
    "state_id": 4756,
    "state_code": "BZ",
    "country_id": 181,
    "country_code": "RO",
    "latitude": "45.45591000",
    "longitude": "27.00626000",
    "wikiDataId": null
  },
  {
    "id": 92667,
    "name": "Comuna Poşta Câlnãu",
    "state_id": 4756,
    "state_code": "BZ",
    "country_id": 181,
    "country_code": "RO",
    "latitude": "45.24683000",
    "longitude": "26.86785000",
    "wikiDataId": null
  },
  {
    "id": 92695,
    "name": "Comuna Puieşti",
    "state_id": 4756,
    "state_code": "BZ",
    "country_id": 181,
    "country_code": "RO",
    "latitude": "45.39338000",
    "longitude": "27.20850000",
    "wikiDataId": null
  },
  {
    "id": 92738,
    "name": "Comuna Racoviţeni",
    "state_id": 4756,
    "state_code": "BZ",
    "country_id": 181,
    "country_code": "RO",
    "latitude": "45.35025000",
    "longitude": "26.89919000",
    "wikiDataId": null
  },
  {
    "id": 92824,
    "name": "Comuna Râmnicelu",
    "state_id": 4756,
    "state_code": "BZ",
    "country_id": 181,
    "country_code": "RO",
    "latitude": "45.37840000",
    "longitude": "27.13293000",
    "wikiDataId": null
  },
  {
    "id": 92774,
    "name": "Comuna Robeasca",
    "state_id": 4756,
    "state_code": "BZ",
    "country_id": 181,
    "country_code": "RO",
    "latitude": "45.14246000",
    "longitude": "27.14697000",
    "wikiDataId": null
  },
  {
    "id": 92818,
    "name": "Comuna Ruşeţu",
    "state_id": 4756,
    "state_code": "BZ",
    "country_id": 181,
    "country_code": "RO",
    "latitude": "44.94214000",
    "longitude": "27.21863000",
    "wikiDataId": null
  },
  {
    "id": 93089,
    "name": "Comuna Săgeata",
    "state_id": 4756,
    "state_code": "BZ",
    "country_id": 181,
    "country_code": "RO",
    "latitude": "45.10063000",
    "longitude": "27.02496000",
    "wikiDataId": null
  },
  {
    "id": 93090,
    "name": "Comuna Săhăteni",
    "state_id": 4756,
    "state_code": "BZ",
    "country_id": 181,
    "country_code": "RO",
    "latitude": "45.02238000",
    "longitude": "26.56344000",
    "wikiDataId": null
  },
  {
    "id": 93105,
    "name": "Comuna Săpoca",
    "state_id": 4756,
    "state_code": "BZ",
    "country_id": 181,
    "country_code": "RO",
    "latitude": "45.22290000",
    "longitude": "26.75175000",
    "wikiDataId": null
  },
  {
    "id": 93108,
    "name": "Comuna Săruleşti",
    "state_id": 4756,
    "state_code": "BZ",
    "country_id": 181,
    "country_code": "RO",
    "latitude": "45.48304000",
    "longitude": "26.77864000",
    "wikiDataId": null
  },
  {
    "id": 92896,
    "name": "Comuna Scorţoasa",
    "state_id": 4756,
    "state_code": "BZ",
    "country_id": 181,
    "country_code": "RO",
    "latitude": "45.36204000",
    "longitude": "26.66176000",
    "wikiDataId": null
  },
  {
    "id": 92900,
    "name": "Comuna Scutelnici",
    "state_id": 4756,
    "state_code": "BZ",
    "country_id": 181,
    "country_code": "RO",
    "latitude": "44.83964000",
    "longitude": "26.93747000",
    "wikiDataId": null
  },
  {
    "id": 92944,
    "name": "Comuna Siriu",
    "state_id": 4756,
    "state_code": "BZ",
    "country_id": 181,
    "country_code": "RO",
    "latitude": "45.50872000",
    "longitude": "26.24470000",
    "wikiDataId": null
  },
  {
    "id": 92962,
    "name": "Comuna Smeeni",
    "state_id": 4756,
    "state_code": "BZ",
    "country_id": 181,
    "country_code": "RO",
    "latitude": "44.98816000",
    "longitude": "26.91261000",
    "wikiDataId": null
  },
  {
    "id": 93013,
    "name": "Comuna Stâlpu",
    "state_id": 4756,
    "state_code": "BZ",
    "country_id": 181,
    "country_code": "RO",
    "latitude": "45.08519000",
    "longitude": "26.70839000",
    "wikiDataId": null
  },
  {
    "id": 93576,
    "name": "Comuna Ţinteşti",
    "state_id": 4756,
    "state_code": "BZ",
    "country_id": 181,
    "country_code": "RO",
    "latitude": "45.07280000",
    "longitude": "26.85786000",
    "wikiDataId": null
  },
  {
    "id": 93159,
    "name": "Comuna Tisãu",
    "state_id": 4756,
    "state_code": "BZ",
    "country_id": 181,
    "country_code": "RO",
    "latitude": "45.19337000",
    "longitude": "26.57321000",
    "wikiDataId": null
  },
  {
    "id": 93176,
    "name": "Comuna Topliceni",
    "state_id": 4756,
    "state_code": "BZ",
    "country_id": 181,
    "country_code": "RO",
    "latitude": "45.44104000",
    "longitude": "26.98210000",
    "wikiDataId": null
  },
  {
    "id": 93261,
    "name": "Comuna Ulmeni",
    "state_id": 4756,
    "state_code": "BZ",
    "country_id": 181,
    "country_code": "RO",
    "latitude": "45.06881000",
    "longitude": "26.62364000",
    "wikiDataId": null
  },
  {
    "id": 93273,
    "name": "Comuna Unguriu",
    "state_id": 4756,
    "state_code": "BZ",
    "country_id": 181,
    "country_code": "RO",
    "latitude": "45.27963000",
    "longitude": "26.64103000",
    "wikiDataId": null
  },
  {
    "id": 93294,
    "name": "Comuna Vadu Paşii",
    "state_id": 4756,
    "state_code": "BZ",
    "country_id": 181,
    "country_code": "RO",
    "latitude": "45.15743000",
    "longitude": "26.88249000",
    "wikiDataId": null
  },
  {
    "id": 93320,
    "name": "Comuna Valea Râmnicului",
    "state_id": 4756,
    "state_code": "BZ",
    "country_id": 181,
    "country_code": "RO",
    "latitude": "45.36174000",
    "longitude": "27.04675000",
    "wikiDataId": null
  },
  {
    "id": 93324,
    "name": "Comuna Valea Sălciei",
    "state_id": 4756,
    "state_code": "BZ",
    "country_id": 181,
    "country_code": "RO",
    "latitude": "45.48818000",
    "longitude": "26.82912000",
    "wikiDataId": null
  },
  {
    "id": 93346,
    "name": "Comuna Verneşti",
    "state_id": 4756,
    "state_code": "BZ",
    "country_id": 181,
    "country_code": "RO",
    "latitude": "45.20804000",
    "longitude": "26.69650000",
    "wikiDataId": null
  },
  {
    "id": 93367,
    "name": "Comuna Vintilă Vodă",
    "state_id": 4756,
    "state_code": "BZ",
    "country_id": 181,
    "country_code": "RO",
    "latitude": "45.45461000",
    "longitude": "26.72385000",
    "wikiDataId": null
  },
  {
    "id": 93369,
    "name": "Comuna Vipereşti",
    "state_id": 4756,
    "state_code": "BZ",
    "country_id": 181,
    "country_code": "RO",
    "latitude": "45.24643000",
    "longitude": "26.44527000",
    "wikiDataId": null
  },
  {
    "id": 93489,
    "name": "Comuna Zărneşti",
    "state_id": 4756,
    "state_code": "BZ",
    "country_id": 181,
    "country_code": "RO",
    "latitude": "45.30951000",
    "longitude": "26.88100000",
    "wikiDataId": null
  },
  {
    "id": 93476,
    "name": "Comuna Ziduri",
    "state_id": 4756,
    "state_code": "BZ",
    "country_id": 181,
    "country_code": "RO",
    "latitude": "45.28211000",
    "longitude": "27.05974000",
    "wikiDataId": null
  },
  {
    "id": 93620,
    "name": "Corbu",
    "state_id": 4756,
    "state_code": "BZ",
    "country_id": 181,
    "country_code": "RO",
    "latitude": "45.32108000",
    "longitude": "26.24936000",
    "wikiDataId": null
  },
  {
    "id": 93659,
    "name": "Costeşti",
    "state_id": 4756,
    "state_code": "BZ",
    "country_id": 181,
    "country_code": "RO",
    "latitude": "45.05000000",
    "longitude": "26.76667000",
    "wikiDataId": null
  },
  {
    "id": 93700,
    "name": "Coțatcu",
    "state_id": 4756,
    "state_code": "BZ",
    "country_id": 181,
    "country_code": "RO",
    "latitude": "45.46643000",
    "longitude": "27.01486000",
    "wikiDataId": null
  },
  {
    "id": 93684,
    "name": "Cozieni",
    "state_id": 4756,
    "state_code": "BZ",
    "country_id": 181,
    "country_code": "RO",
    "latitude": "45.33333000",
    "longitude": "26.48333000",
    "wikiDataId": null
  },
  {
    "id": 94106,
    "name": "Dâmbroca",
    "state_id": 4756,
    "state_code": "BZ",
    "country_id": 181,
    "country_code": "RO",
    "latitude": "45.12328000",
    "longitude": "26.95578000",
    "wikiDataId": null
  },
  {
    "id": 94136,
    "name": "Dăscălești",
    "state_id": 4756,
    "state_code": "BZ",
    "country_id": 181,
    "country_code": "RO",
    "latitude": "45.40626000",
    "longitude": "27.25039000",
    "wikiDataId": null
  },
  {
    "id": 93909,
    "name": "Dedulești",
    "state_id": 4756,
    "state_code": "BZ",
    "country_id": 181,
    "country_code": "RO",
    "latitude": "45.47003000",
    "longitude": "26.96737000",
    "wikiDataId": null
  },
  {
    "id": 94189,
    "name": "Florica",
    "state_id": 4756,
    "state_code": "BZ",
    "country_id": 181,
    "country_code": "RO",
    "latitude": "44.90824960",
    "longitude": "26.77112380",
    "wikiDataId": null
  },
  {
    "id": 94228,
    "name": "Fundeni",
    "state_id": 4756,
    "state_code": "BZ",
    "country_id": 181,
    "country_code": "RO",
    "latitude": "45.29141000",
    "longitude": "26.88028000",
    "wikiDataId": null
  },
  {
    "id": 94234,
    "name": "Furtunești",
    "state_id": 4756,
    "state_code": "BZ",
    "country_id": 181,
    "country_code": "RO",
    "latitude": "45.45940000",
    "longitude": "26.39760000",
    "wikiDataId": null
  },
  {
    "id": 94503,
    "name": "Gălbinaşi",
    "state_id": 4756,
    "state_code": "BZ",
    "country_id": 181,
    "country_code": "RO",
    "latitude": "45.08333000",
    "longitude": "26.91667000",
    "wikiDataId": null
  },
  {
    "id": 94515,
    "name": "Găvănești",
    "state_id": 4756,
    "state_code": "BZ",
    "country_id": 181,
    "country_code": "RO",
    "latitude": "45.08825000",
    "longitude": "27.06499000",
    "wikiDataId": null
  },
  {
    "id": 94313,
    "name": "Gherăseni",
    "state_id": 4756,
    "state_code": "BZ",
    "country_id": 181,
    "country_code": "RO",
    "latitude": "45.02589000",
    "longitude": "26.79128000",
    "wikiDataId": null
  },
  {
    "id": 94305,
    "name": "Ghergheasa",
    "state_id": 4756,
    "state_code": "BZ",
    "country_id": 181,
    "country_code": "RO",
    "latitude": "45.26667000",
    "longitude": "27.20000000",
    "wikiDataId": null
  },
  {
    "id": 94361,
    "name": "Glodeanu-Sărat",
    "state_id": 4756,
    "state_code": "BZ",
    "country_id": 181,
    "country_code": "RO",
    "latitude": "44.86667000",
    "longitude": "26.65000000",
    "wikiDataId": null
  },
  {
    "id": 94360,
    "name": "Glodeanu-Siliştea",
    "state_id": 4756,
    "state_code": "BZ",
    "country_id": 181,
    "country_code": "RO",
    "latitude": "44.83333000",
    "longitude": "26.80000000",
    "wikiDataId": null
  },
  {
    "id": 94442,
    "name": "Grăjdana",
    "state_id": 4756,
    "state_code": "BZ",
    "country_id": 181,
    "country_code": "RO",
    "latitude": "45.20865000",
    "longitude": "26.63114000",
    "wikiDataId": null
  },
  {
    "id": 94404,
    "name": "Grebănu",
    "state_id": 4756,
    "state_code": "BZ",
    "country_id": 181,
    "country_code": "RO",
    "latitude": "45.38333000",
    "longitude": "26.96667000",
    "wikiDataId": null
  },
  {
    "id": 94405,
    "name": "Greceanca",
    "state_id": 4756,
    "state_code": "BZ",
    "country_id": 181,
    "country_code": "RO",
    "latitude": "45.07863000",
    "longitude": "26.54468000",
    "wikiDataId": null
  },
  {
    "id": 94461,
    "name": "Gura Teghii",
    "state_id": 4756,
    "state_code": "BZ",
    "country_id": 181,
    "country_code": "RO",
    "latitude": "45.48333000",
    "longitude": "26.41667000",
    "wikiDataId": null
  },
  {
    "id": 94714,
    "name": "Izvoru",
    "state_id": 4756,
    "state_code": "BZ",
    "country_id": 181,
    "country_code": "RO",
    "latitude": "45.19249000",
    "longitude": "26.59154000",
    "wikiDataId": null
  },
  {
    "id": 94719,
    "name": "Izvoru Dulce",
    "state_id": 4756,
    "state_code": "BZ",
    "country_id": 181,
    "country_code": "RO",
    "latitude": "45.34178000",
    "longitude": "26.77730000",
    "wikiDataId": null
  },
  {
    "id": 94762,
    "name": "Largu",
    "state_id": 4756,
    "state_code": "BZ",
    "country_id": 181,
    "country_code": "RO",
    "latitude": "44.96667000",
    "longitude": "27.15000000",
    "wikiDataId": null
  },
  {
    "id": 94799,
    "name": "Limpeziș",
    "state_id": 4756,
    "state_code": "BZ",
    "country_id": 181,
    "country_code": "RO",
    "latitude": "44.95357000",
    "longitude": "26.70490000",
    "wikiDataId": null
  },
  {
    "id": 94801,
    "name": "Lipia",
    "state_id": 4756,
    "state_code": "BZ",
    "country_id": 181,
    "country_code": "RO",
    "latitude": "45.13970000",
    "longitude": "26.73505000",
    "wikiDataId": null
  },
  {
    "id": 94833,
    "name": "Lopătari",
    "state_id": 4756,
    "state_code": "BZ",
    "country_id": 181,
    "country_code": "RO",
    "latitude": "45.48333000",
    "longitude": "26.58333000",
    "wikiDataId": null
  },
  {
    "id": 94838,
    "name": "Luciu",
    "state_id": 4756,
    "state_code": "BZ",
    "country_id": 181,
    "country_code": "RO",
    "latitude": "44.96667000",
    "longitude": "27.08333000",
    "wikiDataId": null
  },
  {
    "id": 94858,
    "name": "Lunca",
    "state_id": 4756,
    "state_code": "BZ",
    "country_id": 181,
    "country_code": "RO",
    "latitude": "45.00494000",
    "longitude": "27.21335000",
    "wikiDataId": null
  },
  {
    "id": 94866,
    "name": "Lunca Jariștei",
    "state_id": 4756,
    "state_code": "BZ",
    "country_id": 181,
    "country_code": "RO",
    "latitude": "45.48231000",
    "longitude": "26.25483000",
    "wikiDataId": null
  },
  {
    "id": 94870,
    "name": "Lunca Priporului",
    "state_id": 4756,
    "state_code": "BZ",
    "country_id": 181,
    "country_code": "RO",
    "latitude": "45.43909000",
    "longitude": "26.30869000",
    "wikiDataId": null
  },
  {
    "id": 95240,
    "name": "Măgura",
    "state_id": 4756,
    "state_code": "BZ",
    "country_id": 181,
    "country_code": "RO",
    "latitude": "45.26667000",
    "longitude": "26.58333000",
    "wikiDataId": null
  },
  {
    "id": 95216,
    "name": "Mânzăleşti",
    "state_id": 4756,
    "state_code": "BZ",
    "country_id": 181,
    "country_code": "RO",
    "latitude": "45.48869180",
    "longitude": "26.65753320",
    "wikiDataId": null
  },
  {
    "id": 95285,
    "name": "Mărăcineni",
    "state_id": 4756,
    "state_code": "BZ",
    "country_id": 181,
    "country_code": "RO",
    "latitude": "45.20000000",
    "longitude": "26.80000000",
    "wikiDataId": null
  },
  {
    "id": 95274,
    "name": "Mărgăriteşti",
    "state_id": 4756,
    "state_code": "BZ",
    "country_id": 181,
    "country_code": "RO",
    "latitude": "45.43333000",
    "longitude": "26.83333000",
    "wikiDataId": null
  },
  {
    "id": 95283,
    "name": "Mărunțișu",
    "state_id": 4756,
    "state_code": "BZ",
    "country_id": 181,
    "country_code": "RO",
    "latitude": "45.28610000",
    "longitude": "26.35421000",
    "wikiDataId": null
  },
  {
    "id": 95288,
    "name": "Mătești",
    "state_id": 4756,
    "state_code": "BZ",
    "country_id": 181,
    "country_code": "RO",
    "latitude": "45.21339000",
    "longitude": "26.75607000",
    "wikiDataId": null
  },
  {
    "id": 94939,
    "name": "Maxenu",
    "state_id": 4756,
    "state_code": "BZ",
    "country_id": 181,
    "country_code": "RO",
    "latitude": "45.05162000",
    "longitude": "26.85498000",
    "wikiDataId": null
  },
  {
    "id": 94950,
    "name": "Merei",
    "state_id": 4756,
    "state_code": "BZ",
    "country_id": 181,
    "country_code": "RO",
    "latitude": "45.13333000",
    "longitude": "26.68333000",
    "wikiDataId": null
  },
  {
    "id": 94994,
    "name": "Mihăileşti",
    "state_id": 4756,
    "state_code": "BZ",
    "country_id": 181,
    "country_code": "RO",
    "latitude": "44.91667000",
    "longitude": "26.66667000",
    "wikiDataId": null
  },
  {
    "id": 95080,
    "name": "Movila Banului",
    "state_id": 4756,
    "state_code": "BZ",
    "country_id": 181,
    "country_code": "RO",
    "latitude": "44.98333000",
    "longitude": "26.68333000",
    "wikiDataId": null
  },
  {
    "id": 95119,
    "name": "Municipiul Buzău",
    "state_id": 4756,
    "state_code": "BZ",
    "country_id": 181,
    "country_code": "RO",
    "latitude": "45.15046000",
    "longitude": "26.82136000",
    "wikiDataId": null
  },
  {
    "id": 95174,
    "name": "Municipiul Râmnicu Sãrat",
    "state_id": 4756,
    "state_code": "BZ",
    "country_id": 181,
    "country_code": "RO",
    "latitude": "45.38324000",
    "longitude": "27.05162000",
    "wikiDataId": null
  },
  {
    "id": 95207,
    "name": "Murgeşti",
    "state_id": 4756,
    "state_code": "BZ",
    "country_id": 181,
    "country_code": "RO",
    "latitude": "45.40000000",
    "longitude": "26.88333000",
    "wikiDataId": null
  },
  {
    "id": 95369,
    "name": "Năeni",
    "state_id": 4756,
    "state_code": "BZ",
    "country_id": 181,
    "country_code": "RO",
    "latitude": "45.10000000",
    "longitude": "26.48333000",
    "wikiDataId": null
  },
  {
    "id": 95325,
    "name": "Nehoiu",
    "state_id": 4756,
    "state_code": "BZ",
    "country_id": 181,
    "country_code": "RO",
    "latitude": "45.41667000",
    "longitude": "26.30000000",
    "wikiDataId": null
  },
  {
    "id": 95411,
    "name": "Odăile",
    "state_id": 4756,
    "state_code": "BZ",
    "country_id": 181,
    "country_code": "RO",
    "latitude": "45.38333000",
    "longitude": "26.55000000",
    "wikiDataId": null
  },
  {
    "id": 95551,
    "name": "Oraş Nehoiu",
    "state_id": 4756,
    "state_code": "BZ",
    "country_id": 181,
    "country_code": "RO",
    "latitude": "45.41538000",
    "longitude": "26.32089000",
    "wikiDataId": null
  },
  {
    "id": 95576,
    "name": "Oraş Pãtârlagele",
    "state_id": 4756,
    "state_code": "BZ",
    "country_id": 181,
    "country_code": "RO",
    "latitude": "45.32035000",
    "longitude": "26.34539000",
    "wikiDataId": null
  },
  {
    "id": 95570,
    "name": "Oraş Pogoanele",
    "state_id": 4756,
    "state_code": "BZ",
    "country_id": 181,
    "country_code": "RO",
    "latitude": "44.90555000",
    "longitude": "27.01183000",
    "wikiDataId": null
  },
  {
    "id": 95656,
    "name": "Oreavu",
    "state_id": 4756,
    "state_code": "BZ",
    "country_id": 181,
    "country_code": "RO",
    "latitude": "45.36826000",
    "longitude": "27.02301000",
    "wikiDataId": null
  },
  {
    "id": 95694,
    "name": "Padina",
    "state_id": 4756,
    "state_code": "BZ",
    "country_id": 181,
    "country_code": "RO",
    "latitude": "44.83333000",
    "longitude": "27.11667000",
    "wikiDataId": null
  },
  {
    "id": 96012,
    "name": "Păltineni",
    "state_id": 4756,
    "state_code": "BZ",
    "country_id": 181,
    "country_code": "RO",
    "latitude": "45.39596000",
    "longitude": "26.32334000",
    "wikiDataId": null
  },
  {
    "id": 96018,
    "name": "Pănătău",
    "state_id": 4756,
    "state_code": "BZ",
    "country_id": 181,
    "country_code": "RO",
    "latitude": "45.32113000",
    "longitude": "26.39442000",
    "wikiDataId": null
  },
  {
    "id": 95712,
    "name": "Pardoşi",
    "state_id": 4756,
    "state_code": "BZ",
    "country_id": 181,
    "country_code": "RO",
    "latitude": "45.45457410",
    "longitude": "26.88273430",
    "wikiDataId": null
  },
  {
    "id": 96001,
    "name": "Pârscov",
    "state_id": 4756,
    "state_code": "BZ",
    "country_id": 181,
    "country_code": "RO",
    "latitude": "45.28333000",
    "longitude": "26.55000000",
    "wikiDataId": null
  },
  {
    "id": 96026,
    "name": "Pătârlagele",
    "state_id": 4756,
    "state_code": "BZ",
    "country_id": 181,
    "country_code": "RO",
    "latitude": "45.32081000",
    "longitude": "26.36134000",
    "wikiDataId": null
  },
  {
    "id": 95785,
    "name": "Pietroasele",
    "state_id": 4756,
    "state_code": "BZ",
    "country_id": 181,
    "country_code": "RO",
    "latitude": "45.10000000",
    "longitude": "26.56667000",
    "wikiDataId": null
  },
  {
    "id": 95787,
    "name": "Pietrosu",
    "state_id": 4756,
    "state_code": "BZ",
    "country_id": 181,
    "country_code": "RO",
    "latitude": "45.05928000",
    "longitude": "26.75827000",
    "wikiDataId": null
  },
  {
    "id": 95810,
    "name": "Plevna",
    "state_id": 4756,
    "state_code": "BZ",
    "country_id": 181,
    "country_code": "RO",
    "latitude": "45.37815000",
    "longitude": "27.01310000",
    "wikiDataId": null
  },
  {
    "id": 95846,
    "name": "Podgoria",
    "state_id": 4756,
    "state_code": "BZ",
    "country_id": 181,
    "country_code": "RO",
    "latitude": "45.41667000",
    "longitude": "27.01667000",
    "wikiDataId": null
  },
  {
    "id": 95855,
    "name": "Pogoanele",
    "state_id": 4756,
    "state_code": "BZ",
    "country_id": 181,
    "country_code": "RO",
    "latitude": "44.91667000",
    "longitude": "27.00000000",
    "wikiDataId": null
  },
  {
    "id": 95856,
    "name": "Pogonele",
    "state_id": 4756,
    "state_code": "BZ",
    "country_id": 181,
    "country_code": "RO",
    "latitude": "45.08645000",
    "longitude": "26.86454000",
    "wikiDataId": null
  },
  {
    "id": 95937,
    "name": "Poşta Câlnău",
    "state_id": 4756,
    "state_code": "BZ",
    "country_id": 181,
    "country_code": "RO",
    "latitude": "45.23333000",
    "longitude": "26.85000000",
    "wikiDataId": null
  },
  {
    "id": 95934,
    "name": "Potoceni",
    "state_id": 4756,
    "state_code": "BZ",
    "country_id": 181,
    "country_code": "RO",
    "latitude": "45.19660000",
    "longitude": "26.77649000",
    "wikiDataId": null
  },
  {
    "id": 95980,
    "name": "Puieștii de Jos",
    "state_id": 4756,
    "state_code": "BZ",
    "country_id": 181,
    "country_code": "RO",
    "latitude": "45.40267000",
    "longitude": "27.22013000",
    "wikiDataId": null
  },
  {
    "id": 96045,
    "name": "Racoviţeni",
    "state_id": 4756,
    "state_code": "BZ",
    "country_id": 181,
    "country_code": "RO",
    "latitude": "45.35536850",
    "longitude": "26.89400340",
    "wikiDataId": null
  },
  {
    "id": 96167,
    "name": "Râmnicelu",
    "state_id": 4756,
    "state_code": "BZ",
    "country_id": 181,
    "country_code": "RO",
    "latitude": "45.36381000",
    "longitude": "27.11121000",
    "wikiDataId": null
  },
  {
    "id": 96170,
    "name": "Râmnicu Sărat",
    "state_id": 4756,
    "state_code": "BZ",
    "country_id": 181,
    "country_code": "RO",
    "latitude": "45.38333000",
    "longitude": "27.05000000",
    "wikiDataId": null
  },
  {
    "id": 96097,
    "name": "Robeasca",
    "state_id": 4756,
    "state_code": "BZ",
    "country_id": 181,
    "country_code": "RO",
    "latitude": "45.16667000",
    "longitude": "27.13333000",
    "wikiDataId": null
  },
  {
    "id": 96143,
    "name": "Rubla",
    "state_id": 4756,
    "state_code": "BZ",
    "country_id": 181,
    "country_code": "RO",
    "latitude": "45.35300000",
    "longitude": "27.07525000",
    "wikiDataId": null
  },
  {
    "id": 96163,
    "name": "Ruşeţu",
    "state_id": 4756,
    "state_code": "BZ",
    "country_id": 181,
    "country_code": "RO",
    "latitude": "44.95000000",
    "longitude": "27.21667000",
    "wikiDataId": null
  },
  {
    "id": 106003,
    "name": "Săgeata",
    "state_id": 4756,
    "state_code": "BZ",
    "country_id": 181,
    "country_code": "RO",
    "latitude": "45.10000000",
    "longitude": "26.98333000",
    "wikiDataId": null
  },
  {
    "id": 106004,
    "name": "Săhăteni",
    "state_id": 4756,
    "state_code": "BZ",
    "country_id": 181,
    "country_code": "RO",
    "latitude": "45.03333000",
    "longitude": "26.51667000",
    "wikiDataId": null
  },
  {
    "id": 106009,
    "name": "Sălcioara",
    "state_id": 4756,
    "state_code": "BZ",
    "country_id": 181,
    "country_code": "RO",
    "latitude": "45.30874000",
    "longitude": "27.17692000",
    "wikiDataId": null
  },
  {
    "id": 106027,
    "name": "Săpoca",
    "state_id": 4756,
    "state_code": "BZ",
    "country_id": 181,
    "country_code": "RO",
    "latitude": "45.25000000",
    "longitude": "26.75000000",
    "wikiDataId": null
  },
  {
    "id": 106034,
    "name": "Săruleşti",
    "state_id": 4756,
    "state_code": "BZ",
    "country_id": 181,
    "country_code": "RO",
    "latitude": "45.50000000",
    "longitude": "26.75000000",
    "wikiDataId": null
  },
  {
    "id": 96282,
    "name": "Scorţoasa",
    "state_id": 4756,
    "state_code": "BZ",
    "country_id": 181,
    "country_code": "RO",
    "latitude": "45.36403000",
    "longitude": "26.66116000",
    "wikiDataId": null
  },
  {
    "id": 96289,
    "name": "Scurtești",
    "state_id": 4756,
    "state_code": "BZ",
    "country_id": 181,
    "country_code": "RO",
    "latitude": "45.13829000",
    "longitude": "26.90397000",
    "wikiDataId": null
  },
  {
    "id": 96291,
    "name": "Scutelnici",
    "state_id": 4756,
    "state_code": "BZ",
    "country_id": 181,
    "country_code": "RO",
    "latitude": "44.85000000",
    "longitude": "26.91667000",
    "wikiDataId": null
  },
  {
    "id": 96386,
    "name": "Smeeni",
    "state_id": 4756,
    "state_code": "BZ",
    "country_id": 181,
    "country_code": "RO",
    "latitude": "44.98333000",
    "longitude": "26.85000000",
    "wikiDataId": null
  },
  {
    "id": 96469,
    "name": "Stâlpu",
    "state_id": 4756,
    "state_code": "BZ",
    "country_id": 181,
    "country_code": "RO",
    "latitude": "45.08333000",
    "longitude": "26.71667000",
    "wikiDataId": null
  },
  {
    "id": 96475,
    "name": "Stăncești",
    "state_id": 4756,
    "state_code": "BZ",
    "country_id": 181,
    "country_code": "RO",
    "latitude": "45.12665000",
    "longitude": "26.92319000",
    "wikiDataId": null
  },
  {
    "id": 96494,
    "name": "Sudiți",
    "state_id": 4756,
    "state_code": "BZ",
    "country_id": 181,
    "country_code": "RO",
    "latitude": "45.26890000",
    "longitude": "26.87183000",
    "wikiDataId": null
  },
  {
    "id": 96599,
    "name": "Tăbărăști",
    "state_id": 4756,
    "state_code": "BZ",
    "country_id": 181,
    "country_code": "RO",
    "latitude": "45.07948000",
    "longitude": "26.91943000",
    "wikiDataId": null
  },
  {
    "id": 97108,
    "name": "Ţinteşti",
    "state_id": 4756,
    "state_code": "BZ",
    "country_id": 181,
    "country_code": "RO",
    "latitude": "45.06667000",
    "longitude": "26.86667000",
    "wikiDataId": null
  },
  {
    "id": 106131,
    "name": "Topliceni",
    "state_id": 4756,
    "state_code": "BZ",
    "country_id": 181,
    "country_code": "RO",
    "latitude": "45.41667000",
    "longitude": "27.00000000",
    "wikiDataId": null
  },
  {
    "id": 96645,
    "name": "Ulmeni",
    "state_id": 4756,
    "state_code": "BZ",
    "country_id": 181,
    "country_code": "RO",
    "latitude": "45.06667000",
    "longitude": "26.65000000",
    "wikiDataId": null
  },
  {
    "id": 96664,
    "name": "Unguriu",
    "state_id": 4756,
    "state_code": "BZ",
    "country_id": 181,
    "country_code": "RO",
    "latitude": "45.27933000",
    "longitude": "26.63208000",
    "wikiDataId": null
  },
  {
    "id": 96699,
    "name": "Vadu Paşii",
    "state_id": 4756,
    "state_code": "BZ",
    "country_id": 181,
    "country_code": "RO",
    "latitude": "45.16667000",
    "longitude": "26.90000000",
    "wikiDataId": null
  },
  {
    "id": 96702,
    "name": "Vadu Sorești",
    "state_id": 4756,
    "state_code": "BZ",
    "country_id": 181,
    "country_code": "RO",
    "latitude": "45.31500000",
    "longitude": "26.87748000",
    "wikiDataId": null
  },
  {
    "id": 96921,
    "name": "Vâlcele",
    "state_id": 4756,
    "state_code": "BZ",
    "country_id": 181,
    "country_code": "RO",
    "latitude": "45.08692000",
    "longitude": "26.63353000",
    "wikiDataId": null
  },
  {
    "id": 96923,
    "name": "Vâlcelele",
    "state_id": 4756,
    "state_code": "BZ",
    "country_id": 181,
    "country_code": "RO",
    "latitude": "45.34461060",
    "longitude": "27.34853860",
    "wikiDataId": null
  },
  {
    "id": 96747,
    "name": "Valea Părului",
    "state_id": 4756,
    "state_code": "BZ",
    "country_id": 181,
    "country_code": "RO",
    "latitude": "45.36374000",
    "longitude": "26.77706000",
    "wikiDataId": null
  },
  {
    "id": 96750,
    "name": "Valea Râmnicului",
    "state_id": 4756,
    "state_code": "BZ",
    "country_id": 181,
    "country_code": "RO",
    "latitude": "45.36395000",
    "longitude": "27.04197000",
    "wikiDataId": null
  },
  {
    "id": 96751,
    "name": "Valea Salciei",
    "state_id": 4756,
    "state_code": "BZ",
    "country_id": 181,
    "country_code": "RO",
    "latitude": "45.49622000",
    "longitude": "26.82361000",
    "wikiDataId": null
  },
  {
    "id": 96791,
    "name": "Verneşti",
    "state_id": 4756,
    "state_code": "BZ",
    "country_id": 181,
    "country_code": "RO",
    "latitude": "45.21667000",
    "longitude": "26.73333000",
    "wikiDataId": null
  },
  {
    "id": 96836,
    "name": "Vintilă Vodă",
    "state_id": 4756,
    "state_code": "BZ",
    "country_id": 181,
    "country_code": "RO",
    "latitude": "45.46667000",
    "longitude": "26.71667000",
    "wikiDataId": null
  },
  {
    "id": 96834,
    "name": "Vintileanca",
    "state_id": 4756,
    "state_code": "BZ",
    "country_id": 181,
    "country_code": "RO",
    "latitude": "44.98500000",
    "longitude": "26.58005000",
    "wikiDataId": null
  },
  {
    "id": 96838,
    "name": "Vipereşti",
    "state_id": 4756,
    "state_code": "BZ",
    "country_id": 181,
    "country_code": "RO",
    "latitude": "45.23333000",
    "longitude": "26.46667000",
    "wikiDataId": null
  },
  {
    "id": 97015,
    "name": "Zărneşti",
    "state_id": 4756,
    "state_code": "BZ",
    "country_id": 181,
    "country_code": "RO",
    "latitude": "45.30000000",
    "longitude": "26.86667000",
    "wikiDataId": null
  },
  {
    "id": 97017,
    "name": "Zărneștii de Slănic",
    "state_id": 4756,
    "state_code": "BZ",
    "country_id": 181,
    "country_code": "RO",
    "latitude": "45.27708000",
    "longitude": "26.75549000",
    "wikiDataId": null
  },
  {
    "id": 96991,
    "name": "Ziduri",
    "state_id": 4756,
    "state_code": "BZ",
    "country_id": 181,
    "country_code": "RO",
    "latitude": "45.30000000",
    "longitude": "27.08333000",
    "wikiDataId": null
  },
  {
    "id": 97002,
    "name": "Zorești",
    "state_id": 4756,
    "state_code": "BZ",
    "country_id": 181,
    "country_code": "RO",
    "latitude": "45.18177000",
    "longitude": "26.70291000",
    "wikiDataId": null
  }
]