[
  {
    "id": 48165,
    "name": "Aberchirder",
    "state_id": 2360,
    "state_code": "MRY",
    "country_id": 232,
    "country_code": "GB",
    "latitude": "57.56012000",
    "longitude": "-2.62856000",
    "wikiDataId": null
  },
  {
    "id": 48268,
    "name": "Ardersier",
    "state_id": 2360,
    "state_code": "MRY",
    "country_id": 232,
    "country_code": "GB",
    "latitude": "57.56681000",
    "longitude": "-4.03784000",
    "wikiDataId": null
  },
  {
    "id": 48320,
    "name": "Aviemore",
    "state_id": 2360,
    "state_code": "MRY",
    "country_id": 232,
    "country_code": "GB",
    "latitude": "57.19553000",
    "longitude": "-3.82590000",
    "wikiDataId": null
  },
  {
    "id": 48345,
    "name": "Balintore",
    "state_id": 2360,
    "state_code": "MRY",
    "country_id": 232,
    "country_code": "GB",
    "latitude": "57.75564000",
    "longitude": "-3.91232000",
    "wikiDataId": null
  },
  {
    "id": 48369,
    "name": "Banff",
    "state_id": 2360,
    "state_code": "MRY",
    "country_id": 232,
    "country_code": "GB",
    "latitude": "57.66477000",
    "longitude": "-2.52964000",
    "wikiDataId": null
  },
  {
    "id": 48724,
    "name": "Brora",
    "state_id": 2360,
    "state_code": "MRY",
    "country_id": 232,
    "country_code": "GB",
    "latitude": "58.00989000",
    "longitude": "-3.85182000",
    "wikiDataId": null
  },
  {
    "id": 48747,
    "name": "Buckie",
    "state_id": 2360,
    "state_code": "MRY",
    "country_id": 232,
    "country_code": "GB",
    "latitude": "57.67570000",
    "longitude": "-2.96238000",
    "wikiDataId": null
  },
  {
    "id": 48768,
    "name": "Burghead",
    "state_id": 2360,
    "state_code": "MRY",
    "country_id": 232,
    "country_code": "GB",
    "latitude": "57.70113000",
    "longitude": "-3.48992000",
    "wikiDataId": null
  },
  {
    "id": 48924,
    "name": "Charlestown of Aberlour",
    "state_id": 2360,
    "state_code": "MRY",
    "country_id": 232,
    "country_code": "GB",
    "latitude": "57.47076000",
    "longitude": "-3.22509000",
    "wikiDataId": null
  },
  {
    "id": 49198,
    "name": "Cullen",
    "state_id": 2360,
    "state_code": "MRY",
    "country_id": 232,
    "country_code": "GB",
    "latitude": "57.69045000",
    "longitude": "-2.81818000",
    "wikiDataId": null
  },
  {
    "id": 49310,
    "name": "Dornoch",
    "state_id": 2360,
    "state_code": "MRY",
    "country_id": 232,
    "country_code": "GB",
    "latitude": "57.88050000",
    "longitude": "-4.02879000",
    "wikiDataId": null
  },
  {
    "id": 49337,
    "name": "Dufftown",
    "state_id": 2360,
    "state_code": "MRY",
    "country_id": 232,
    "country_code": "GB",
    "latitude": "57.44571000",
    "longitude": "-3.12708000",
    "wikiDataId": null
  },
  {
    "id": 49451,
    "name": "Elgin",
    "state_id": 2360,
    "state_code": "MRY",
    "country_id": 232,
    "country_code": "GB",
    "latitude": "57.64947000",
    "longitude": "-3.31843000",
    "wikiDataId": null
  },
  {
    "id": 49556,
    "name": "Findochty",
    "state_id": 2360,
    "state_code": "MRY",
    "country_id": 232,
    "country_code": "GB",
    "latitude": "57.69735000",
    "longitude": "-2.90104000",
    "wikiDataId": null
  },
  {
    "id": 49579,
    "name": "Fochabers",
    "state_id": 2360,
    "state_code": "MRY",
    "country_id": 232,
    "country_code": "GB",
    "latitude": "57.61445000",
    "longitude": "-3.09947000",
    "wikiDataId": null
  },
  {
    "id": 49589,
    "name": "Forres",
    "state_id": 2360,
    "state_code": "MRY",
    "country_id": 232,
    "country_code": "GB",
    "latitude": "57.60997000",
    "longitude": "-3.62115000",
    "wikiDataId": null
  },
  {
    "id": 49675,
    "name": "Golspie",
    "state_id": 2360,
    "state_code": "MRY",
    "country_id": 232,
    "country_code": "GB",
    "latitude": "57.97266000",
    "longitude": "-3.97798000",
    "wikiDataId": null
  },
  {
    "id": 49700,
    "name": "Grantown on Spey",
    "state_id": 2360,
    "state_code": "MRY",
    "country_id": 232,
    "country_code": "GB",
    "latitude": "57.33051000",
    "longitude": "-3.60867000",
    "wikiDataId": null
  },
  {
    "id": 49985,
    "name": "Hopeman",
    "state_id": 2360,
    "state_code": "MRY",
    "country_id": 232,
    "country_code": "GB",
    "latitude": "57.70681000",
    "longitude": "-3.42911000",
    "wikiDataId": null
  },
  {
    "id": 50028,
    "name": "Huntly",
    "state_id": 2360,
    "state_code": "MRY",
    "country_id": 232,
    "country_code": "GB",
    "latitude": "57.44741000",
    "longitude": "-2.78608000",
    "wikiDataId": null
  },
  {
    "id": 50106,
    "name": "Keith",
    "state_id": 2360,
    "state_code": "MRY",
    "country_id": 232,
    "country_code": "GB",
    "latitude": "57.53633000",
    "longitude": "-2.94811000",
    "wikiDataId": null
  },
  {
    "id": 50185,
    "name": "Kingussie",
    "state_id": 2360,
    "state_code": "MRY",
    "country_id": 232,
    "country_code": "GB",
    "latitude": "57.07996000",
    "longitude": "-4.05231000",
    "wikiDataId": null
  },
  {
    "id": 50186,
    "name": "Kinloss",
    "state_id": 2360,
    "state_code": "MRY",
    "country_id": 232,
    "country_code": "GB",
    "latitude": "57.63494000",
    "longitude": "-3.57012000",
    "wikiDataId": null
  },
  {
    "id": 50298,
    "name": "Lhanbryde",
    "state_id": 2360,
    "state_code": "MRY",
    "country_id": 232,
    "country_code": "GB",
    "latitude": "57.63529000",
    "longitude": "-3.21839000",
    "wikiDataId": null
  },
  {
    "id": 50416,
    "name": "Lossiemouth",
    "state_id": 2360,
    "state_code": "MRY",
    "country_id": 232,
    "country_code": "GB",
    "latitude": "57.72136000",
    "longitude": "-3.28341000",
    "wikiDataId": null
  },
  {
    "id": 50459,
    "name": "Macduff",
    "state_id": 2360,
    "state_code": "MRY",
    "country_id": 232,
    "country_code": "GB",
    "latitude": "57.67012000",
    "longitude": "-2.49686000",
    "wikiDataId": null
  },
  {
    "id": 50623,
    "name": "Moray",
    "state_id": 2360,
    "state_code": "MRY",
    "country_id": 232,
    "country_code": "GB",
    "latitude": "57.41667000",
    "longitude": "-3.25000000",
    "wikiDataId": null
  },
  {
    "id": 50661,
    "name": "Nairn",
    "state_id": 2360,
    "state_code": "MRY",
    "country_id": 232,
    "country_code": "GB",
    "latitude": "57.58094000",
    "longitude": "-3.87973000",
    "wikiDataId": null
  },
  {
    "id": 50736,
    "name": "Newtonmore",
    "state_id": 2360,
    "state_code": "MRY",
    "country_id": 232,
    "country_code": "GB",
    "latitude": "57.06567000",
    "longitude": "-4.12097000",
    "wikiDataId": null
  },
  {
    "id": 50964,
    "name": "Portknockie",
    "state_id": 2360,
    "state_code": "MRY",
    "country_id": 232,
    "country_code": "GB",
    "latitude": "57.70248000",
    "longitude": "-2.85989000",
    "wikiDataId": null
  },
  {
    "id": 50972,
    "name": "Portsoy",
    "state_id": 2360,
    "state_code": "MRY",
    "country_id": 232,
    "country_code": "GB",
    "latitude": "57.68144000",
    "longitude": "-2.68956000",
    "wikiDataId": null
  },
  {
    "id": 51118,
    "name": "Rothes",
    "state_id": 2360,
    "state_code": "MRY",
    "country_id": 232,
    "country_code": "GB",
    "latitude": "57.52624000",
    "longitude": "-3.20663000",
    "wikiDataId": null
  },
  {
    "id": 51547,
    "name": "Tain",
    "state_id": 2360,
    "state_code": "MRY",
    "country_id": 232,
    "country_code": "GB",
    "latitude": "57.80903000",
    "longitude": "-4.05991000",
    "wikiDataId": null
  },
  {
    "id": 51875,
    "name": "Whitehills",
    "state_id": 2360,
    "state_code": "MRY",
    "country_id": 232,
    "country_code": "GB",
    "latitude": "57.67730000",
    "longitude": "-2.57863000",
    "wikiDataId": null
  }
]