[
  {
    "id": 19132,
    "name": "Abong Mbang",
    "state_id": 2661,
    "state_code": "ES",
    "country_id": 38,
    "country_code": "CM",
    "latitude": "3.98333000",
    "longitude": "13.18333000",
    "wikiDataId": null
  },
  {
    "id": 19152,
    "name": "Batouri",
    "state_id": 2661,
    "state_code": "ES",
    "country_id": 38,
    "country_code": "CM",
    "latitude": "4.43333000",
    "longitude": "14.36667000",
    "wikiDataId": null
  },
  {
    "id": 19161,
    "name": "Bélabo",
    "state_id": 2661,
    "state_code": "ES",
    "country_id": 38,
    "country_code": "CM",
    "latitude": "4.93333000",
    "longitude": "13.30000000",
    "wikiDataId": null
  },
  {
    "id": 19156,
    "name": "Bertoua",
    "state_id": 2661,
    "state_code": "ES",
    "country_id": 38,
    "country_code": "CM",
    "latitude": "4.57728000",
    "longitude": "13.68459000",
    "wikiDataId": null
  },
  {
    "id": 19163,
    "name": "Bétaré Oya",
    "state_id": 2661,
    "state_code": "ES",
    "country_id": 38,
    "country_code": "CM",
    "latitude": "5.60000000",
    "longitude": "14.08333000",
    "wikiDataId": null
  },
  {
    "id": 19166,
    "name": "Dimako",
    "state_id": 2661,
    "state_code": "ES",
    "country_id": 38,
    "country_code": "CM",
    "latitude": "4.38333000",
    "longitude": "13.56667000",
    "wikiDataId": null
  },
  {
    "id": 19170,
    "name": "Doumé",
    "state_id": 2661,
    "state_code": "ES",
    "country_id": 38,
    "country_code": "CM",
    "latitude": "4.23333000",
    "longitude": "13.45000000",
    "wikiDataId": null
  },
  {
    "id": 19182,
    "name": "Garoua Boulaï",
    "state_id": 2661,
    "state_code": "ES",
    "country_id": 38,
    "country_code": "CM",
    "latitude": "5.88333000",
    "longitude": "14.55000000",
    "wikiDataId": null
  },
  {
    "id": 19211,
    "name": "Mbang",
    "state_id": 2661,
    "state_code": "ES",
    "country_id": 38,
    "country_code": "CM",
    "latitude": "4.58333000",
    "longitude": "13.33333000",
    "wikiDataId": null
  },
  {
    "id": 19232,
    "name": "Ndelele",
    "state_id": 2661,
    "state_code": "ES",
    "country_id": 38,
    "country_code": "CM",
    "latitude": "4.04065000",
    "longitude": "14.92501000",
    "wikiDataId": null
  },
  {
    "id": 19267,
    "name": "Yokadouma",
    "state_id": 2661,
    "state_code": "ES",
    "country_id": 38,
    "country_code": "CM",
    "latitude": "3.51667000",
    "longitude": "15.05000000",
    "wikiDataId": null
  }
]