[
  {
    "id": 107052,
    "name": "Abana",
    "state_id": 2197,
    "state_code": "37",
    "country_id": 225,
    "country_code": "TR",
    "latitude": "41.97858000",
    "longitude": "34.01100000",
    "wikiDataId": null
  },
  {
    "id": 107243,
    "name": "Ağlı",
    "state_id": 2197,
    "state_code": "37",
    "country_id": 225,
    "country_code": "TR",
    "latitude": "41.69283000",
    "longitude": "33.54487000",
    "wikiDataId": null
  },
  {
    "id": 107177,
    "name": "Araç",
    "state_id": 2197,
    "state_code": "37",
    "country_id": 225,
    "country_code": "TR",
    "latitude": "41.24222000",
    "longitude": "33.32767000",
    "wikiDataId": null
  },
  {
    "id": 107235,
    "name": "Azdavay",
    "state_id": 2197,
    "state_code": "37",
    "country_id": 225,
    "country_code": "TR",
    "latitude": "41.64267000",
    "longitude": "33.30000000",
    "wikiDataId": null
  },
  {
    "id": 107383,
    "name": "Bozkurt",
    "state_id": 2197,
    "state_code": "37",
    "country_id": 225,
    "country_code": "TR",
    "latitude": "41.95769000",
    "longitude": "34.01087000",
    "wikiDataId": null
  },
  {
    "id": 108791,
    "name": "Çatalzeytin",
    "state_id": 2197,
    "state_code": "37",
    "country_id": 225,
    "country_code": "TR",
    "latitude": "41.93795000",
    "longitude": "34.20285000",
    "wikiDataId": null
  },
  {
    "id": 107430,
    "name": "Cide",
    "state_id": 2197,
    "state_code": "37",
    "country_id": 225,
    "country_code": "TR",
    "latitude": "41.85583000",
    "longitude": "33.03977000",
    "wikiDataId": null
  },
  {
    "id": 107439,
    "name": "Daday",
    "state_id": 2197,
    "state_code": "37",
    "country_id": 225,
    "country_code": "TR",
    "latitude": "41.47866000",
    "longitude": "33.46667000",
    "wikiDataId": null
  },
  {
    "id": 107488,
    "name": "Devrekani",
    "state_id": 2197,
    "state_code": "37",
    "country_id": 225,
    "country_code": "TR",
    "latitude": "41.60303000",
    "longitude": "33.83922000",
    "wikiDataId": null
  },
  {
    "id": 107521,
    "name": "Doğanyurt",
    "state_id": 2197,
    "state_code": "37",
    "country_id": 225,
    "country_code": "TR",
    "latitude": "42.00457000",
    "longitude": "33.46029000",
    "wikiDataId": null
  },
  {
    "id": 107793,
    "name": "Hanönü",
    "state_id": 2197,
    "state_code": "37",
    "country_id": 225,
    "country_code": "TR",
    "latitude": "41.62705000",
    "longitude": "34.46667000",
    "wikiDataId": null
  },
  {
    "id": 108881,
    "name": "İhsangazi",
    "state_id": 2197,
    "state_code": "37",
    "country_id": 225,
    "country_code": "TR",
    "latitude": "41.20432000",
    "longitude": "33.55455000",
    "wikiDataId": null
  },
  {
    "id": 108899,
    "name": "İnebolu",
    "state_id": 2197,
    "state_code": "37",
    "country_id": 225,
    "country_code": "TR",
    "latitude": "41.97472000",
    "longitude": "33.76083000",
    "wikiDataId": null
  },
  {
    "id": 108088,
    "name": "Küre",
    "state_id": 2197,
    "state_code": "37",
    "country_id": 225,
    "country_code": "TR",
    "latitude": "41.80578000",
    "longitude": "33.71161000",
    "wikiDataId": null
  },
  {
    "id": 107939,
    "name": "Merkez",
    "state_id": 2197,
    "state_code": "37",
    "country_id": 225,
    "country_code": "TR",
    "latitude": "41.37805000",
    "longitude": "33.77528000",
    "wikiDataId": null
  },
  {
    "id": 108358,
    "name": "Pınarbaşı",
    "state_id": 2197,
    "state_code": "37",
    "country_id": 225,
    "country_code": "TR",
    "latitude": "41.60388000",
    "longitude": "33.11099000",
    "wikiDataId": null
  },
  {
    "id": 108954,
    "name": "Şenpazar",
    "state_id": 2197,
    "state_code": "37",
    "country_id": 225,
    "country_code": "TR",
    "latitude": "41.81651000",
    "longitude": "33.21766000",
    "wikiDataId": null
  },
  {
    "id": 108448,
    "name": "Seydiler",
    "state_id": 2197,
    "state_code": "37",
    "country_id": 225,
    "country_code": "TR",
    "latitude": "41.62005000",
    "longitude": "33.71815000",
    "wikiDataId": null
  },
  {
    "id": 108548,
    "name": "Taşköprü",
    "state_id": 2197,
    "state_code": "37",
    "country_id": 225,
    "country_code": "TR",
    "latitude": "41.50980000",
    "longitude": "34.21414000",
    "wikiDataId": null
  },
  {
    "id": 108593,
    "name": "Tosya",
    "state_id": 2197,
    "state_code": "37",
    "country_id": 225,
    "country_code": "TR",
    "latitude": "41.01545000",
    "longitude": "34.04013000",
    "wikiDataId": null
  }
]