[
  {
    "id": 53427,
    "name": "Aguacatán",
    "state_id": 3670,
    "state_code": "13",
    "country_id": 90,
    "country_code": "GT",
    "latitude": "15.34222000",
    "longitude": "-91.31141000",
    "wikiDataId": null
  },
  {
    "id": 53435,
    "name": "Barillas",
    "state_id": 3670,
    "state_code": "13",
    "country_id": 90,
    "country_code": "GT",
    "latitude": "15.80361000",
    "longitude": "-91.31583000",
    "wikiDataId": null
  },
  {
    "id": 53447,
    "name": "Chiantla",
    "state_id": 3670,
    "state_code": "13",
    "country_id": 90,
    "country_code": "GT",
    "latitude": "15.35484000",
    "longitude": "-91.45807000",
    "wikiDataId": null
  },
  {
    "id": 53464,
    "name": "Colotenango",
    "state_id": 3670,
    "state_code": "13",
    "country_id": 90,
    "country_code": "GT",
    "latitude": "15.40602000",
    "longitude": "-91.71267000",
    "wikiDataId": null
  },
  {
    "id": 53470,
    "name": "Concepción Huista",
    "state_id": 3670,
    "state_code": "13",
    "country_id": 90,
    "country_code": "GT",
    "latitude": "15.62378000",
    "longitude": "-91.66521000",
    "wikiDataId": null
  },
  {
    "id": 53476,
    "name": "Cuilco",
    "state_id": 3670,
    "state_code": "13",
    "country_id": 90,
    "country_code": "GT",
    "latitude": "15.40719000",
    "longitude": "-91.94667000",
    "wikiDataId": null
  },
  {
    "id": 53503,
    "name": "Huehuetenango",
    "state_id": 3670,
    "state_code": "13",
    "country_id": 90,
    "country_code": "GT",
    "latitude": "15.31918000",
    "longitude": "-91.47241000",
    "wikiDataId": null
  },
  {
    "id": 53507,
    "name": "Ixtahuacán",
    "state_id": 3670,
    "state_code": "13",
    "country_id": 90,
    "country_code": "GT",
    "latitude": "15.41688000",
    "longitude": "-91.76927000",
    "wikiDataId": null
  },
  {
    "id": 53509,
    "name": "Jacaltenango",
    "state_id": 3670,
    "state_code": "13",
    "country_id": 90,
    "country_code": "GT",
    "latitude": "15.66662000",
    "longitude": "-91.71177000",
    "wikiDataId": null
  },
  {
    "id": 53521,
    "name": "La Libertad",
    "state_id": 3670,
    "state_code": "13",
    "country_id": 90,
    "country_code": "GT",
    "latitude": "15.51421000",
    "longitude": "-91.86944000",
    "wikiDataId": null
  },
  {
    "id": 53528,
    "name": "Malacatancito",
    "state_id": 3670,
    "state_code": "13",
    "country_id": 90,
    "country_code": "GT",
    "latitude": "15.24457000",
    "longitude": "-91.49901000",
    "wikiDataId": null
  },
  {
    "id": 53604,
    "name": "Nentón",
    "state_id": 3670,
    "state_code": "13",
    "country_id": 90,
    "country_code": "GT",
    "latitude": "15.80070000",
    "longitude": "-91.75464000",
    "wikiDataId": null
  },
  {
    "id": 53656,
    "name": "San Antonio Huista",
    "state_id": 3670,
    "state_code": "13",
    "country_id": 90,
    "country_code": "GT",
    "latitude": "15.65010000",
    "longitude": "-91.77163000",
    "wikiDataId": null
  },
  {
    "id": 53678,
    "name": "San Gaspar Ixchil",
    "state_id": 3670,
    "state_code": "13",
    "country_id": 90,
    "country_code": "GT",
    "latitude": "15.38796000",
    "longitude": "-91.72564000",
    "wikiDataId": null
  },
  {
    "id": 53691,
    "name": "San Juan Atitán",
    "state_id": 3670,
    "state_code": "13",
    "country_id": 90,
    "country_code": "GT",
    "latitude": "15.42886000",
    "longitude": "-91.62398000",
    "wikiDataId": null
  },
  {
    "id": 53696,
    "name": "San Juan Ixcoy",
    "state_id": 3670,
    "state_code": "13",
    "country_id": 90,
    "country_code": "GT",
    "latitude": "15.60022000",
    "longitude": "-91.44639000",
    "wikiDataId": null
  },
  {
    "id": 53714,
    "name": "San Mateo Ixtatán",
    "state_id": 3670,
    "state_code": "13",
    "country_id": 90,
    "country_code": "GT",
    "latitude": "15.83194000",
    "longitude": "-91.47806000",
    "wikiDataId": null
  },
  {
    "id": 53715,
    "name": "San Miguel Acatán",
    "state_id": 3670,
    "state_code": "13",
    "country_id": 90,
    "country_code": "GT",
    "latitude": "15.70401000",
    "longitude": "-91.59771000",
    "wikiDataId": null
  },
  {
    "id": 53727,
    "name": "San Pedro Necta",
    "state_id": 3670,
    "state_code": "13",
    "country_id": 90,
    "country_code": "GT",
    "latitude": "15.49142000",
    "longitude": "-91.76551000",
    "wikiDataId": null
  },
  {
    "id": 53732,
    "name": "San Rafael La Independencia",
    "state_id": 3670,
    "state_code": "13",
    "country_id": 90,
    "country_code": "GT",
    "latitude": "15.70150000",
    "longitude": "-91.53553000",
    "wikiDataId": null
  },
  {
    "id": 53734,
    "name": "San Rafael Petzal",
    "state_id": 3670,
    "state_code": "13",
    "country_id": 90,
    "country_code": "GT",
    "latitude": "15.40487000",
    "longitude": "-91.66451000",
    "wikiDataId": null
  },
  {
    "id": 53738,
    "name": "San Sebastián Coatán",
    "state_id": 3670,
    "state_code": "13",
    "country_id": 90,
    "country_code": "GT",
    "latitude": "15.73584000",
    "longitude": "-91.56285000",
    "wikiDataId": null
  },
  {
    "id": 53739,
    "name": "San Sebastián Huehuetenango",
    "state_id": 3670,
    "state_code": "13",
    "country_id": 90,
    "country_code": "GT",
    "latitude": "15.38768000",
    "longitude": "-91.61530000",
    "wikiDataId": null
  },
  {
    "id": 53744,
    "name": "Santa Ana Huista",
    "state_id": 3670,
    "state_code": "13",
    "country_id": 90,
    "country_code": "GT",
    "latitude": "15.68085000",
    "longitude": "-91.82005000",
    "wikiDataId": null
  },
  {
    "id": 53747,
    "name": "Santa Bárbara",
    "state_id": 3670,
    "state_code": "13",
    "country_id": 90,
    "country_code": "GT",
    "latitude": "15.31617000",
    "longitude": "-91.63279000",
    "wikiDataId": null
  },
  {
    "id": 53760,
    "name": "Santa Eulalia",
    "state_id": 3670,
    "state_code": "13",
    "country_id": 90,
    "country_code": "GT",
    "latitude": "15.73060000",
    "longitude": "-91.45846000",
    "wikiDataId": null
  },
  {
    "id": 53771,
    "name": "Santiago Chimaltenango",
    "state_id": 3670,
    "state_code": "13",
    "country_id": 90,
    "country_code": "GT",
    "latitude": "15.47658000",
    "longitude": "-91.69656000",
    "wikiDataId": null
  },
  {
    "id": 53783,
    "name": "Soloma",
    "state_id": 3670,
    "state_code": "13",
    "country_id": 90,
    "country_code": "GT",
    "latitude": "15.65841000",
    "longitude": "-91.42994000",
    "wikiDataId": null
  },
  {
    "id": 53791,
    "name": "Tectitán",
    "state_id": 3670,
    "state_code": "13",
    "country_id": 90,
    "country_code": "GT",
    "latitude": "15.30630000",
    "longitude": "-92.06051000",
    "wikiDataId": null
  },
  {
    "id": 53794,
    "name": "Todos Santos Cuchumatán",
    "state_id": 3670,
    "state_code": "13",
    "country_id": 90,
    "country_code": "GT",
    "latitude": "15.50846000",
    "longitude": "-91.60382000",
    "wikiDataId": null
  }
]