[
  {
    "id": 2023,
    "name": "Aragatsotn",
    "country_id": 12,
    "country_code": "AM",
    "state_code": "AG",
    "type": "region",
    "latitude": "40.25803490",
    "longitude": "44.17950890",
    "iso3166_2": "AM-AG",
    "native": "Արագածոտն",
    "timezone": "Asia/Yerevan"
  },
  {
    "id": 2024,
    "name": "Ararat",
    "country_id": 12,
    "country_code": "AM",
    "state_code": "AR",
    "type": "region",
    "latitude": "39.85533290",
    "longitude": "44.69437930",
    "iso3166_2": "AM-AR",
    "native": "Արարատ",
    "timezone": "Asia/Yerevan"
  },
  {
    "id": 2026,
    "name": "Armavir",
    "country_id": 12,
    "country_code": "AM",
    "state_code": "AV",
    "type": "region",
    "latitude": "40.15546310",
    "longitude": "44.03724460",
    "iso3166_2": "AM-AV",
    "native": "Armavir",
    "timezone": "Asia/Yerevan"
  },
  {
    "id": 2028,
    "name": "Gegharkunik",
    "country_id": 12,
    "country_code": "AM",
    "state_code": "GR",
    "type": "region",
    "latitude": "40.24832990",
    "longitude": "45.14551260",
    "iso3166_2": "AM-GR",
    "native": "Գեղարքունիք",
    "timezone": "Asia/Yerevan"
  },
  {
    "id": 2033,
    "name": "Kotayk",
    "country_id": 12,
    "country_code": "AM",
    "state_code": "KT",
    "type": "region",
    "latitude": "40.40332750",
    "longitude": "44.69599230",
    "iso3166_2": "AM-KT",
    "native": "Կոտայք",
    "timezone": "Asia/Yerevan"
  },
  {
    "id": 2029,
    "name": "Lori",
    "country_id": 12,
    "country_code": "AM",
    "state_code": "LO",
    "type": "region",
    "latitude": "41.00727100",
    "longitude": "44.49001130",
    "iso3166_2": "AM-LO",
    "native": "Լոռի",
    "timezone": "Asia/Yerevan"
  },
  {
    "id": 2031,
    "name": "Shirak",
    "country_id": 12,
    "country_code": "AM",
    "state_code": "SH",
    "type": "region",
    "latitude": "40.91859400",
    "longitude": "43.84035360",
    "iso3166_2": "AM-SH",
    "native": "Շիրակ",
    "timezone": "Asia/Yerevan"
  },
  {
    "id": 2027,
    "name": "Syunik",
    "country_id": 12,
    "country_code": "AM",
    "state_code": "SU",
    "type": "region",
    "latitude": "39.32814080",
    "longitude": "46.15302960",
    "iso3166_2": "AM-SU",
    "native": "Սյուն",
    "timezone": "Asia/Yerevan"
  },
  {
    "id": 2032,
    "name": "Tavush",
    "country_id": 12,
    "country_code": "AM",
    "state_code": "TV",
    "type": "region",
    "latitude": "40.91764240",
    "longitude": "45.40506810",
    "iso3166_2": "AM-TV",
    "native": "Տավուշ",
    "timezone": "Asia/Yerevan"
  },
  {
    "id": 2025,
    "name": "Vayots Dzor",
    "country_id": 12,
    "country_code": "AM",
    "state_code": "VD",
    "type": "region",
    "latitude": "39.80198490",
    "longitude": "45.45575910",
    "iso3166_2": "AM-VD",
    "native": "Վայոց ձոր",
    "timezone": "Asia/Yerevan"
  },
  {
    "id": 2030,
    "name": "Yerevan",
    "country_id": 12,
    "country_code": "AM",
    "state_code": "ER",
    "type": "city",
    "latitude": "40.17771120",
    "longitude": "44.51262330",
    "iso3166_2": "AM-ER",
    "native": "Yerevan",
    "timezone": "Asia/Yerevan"
  }
]