[
  {
    "id": 56179,
    "name": "Amlapura",
    "state_id": 1826,
    "state_code": "BA",
    "country_id": 102,
    "country_code": "ID",
    "latitude": "-8.45000000",
    "longitude": "115.61667000",
    "wikiDataId": null
  },
  {
    "id": 56200,
    "name": "Banjar",
    "state_id": 1826,
    "state_code": "BA",
    "country_id": 102,
    "country_code": "ID",
    "latitude": "-8.19000000",
    "longitude": "114.96750000",
    "wikiDataId": null
  },
  {
    "id": 56201,
    "name": "Banjar Wangsian",
    "state_id": 1826,
    "state_code": "BA",
    "country_id": 102,
    "country_code": "ID",
    "latitude": "-8.49497000",
    "longitude": "115.42342000",
    "wikiDataId": null
  },
  {
    "id": 56213,
    "name": "Bedugul",
    "state_id": 1826,
    "state_code": "BA",
    "country_id": 102,
    "country_code": "ID",
    "latitude": "-8.45040000",
    "longitude": "115.59250000",
    "wikiDataId": null
  },
  {
    "id": 56263,
    "name": "Denpasar",
    "state_id": 1826,
    "state_code": "BA",
    "country_id": 102,
    "country_code": "ID",
    "latitude": "-8.65000000",
    "longitude": "115.21667000",
    "wikiDataId": null
  },
  {
    "id": 56302,
    "name": "Jimbaran",
    "state_id": 1826,
    "state_code": "BA",
    "country_id": 102,
    "country_code": "ID",
    "latitude": "-8.79093000",
    "longitude": "115.16006000",
    "wikiDataId": null
  },
  {
    "id": 56322,
    "name": "Kabupaten Badung",
    "state_id": 1826,
    "state_code": "BA",
    "country_id": 102,
    "country_code": "ID",
    "latitude": "-8.51667000",
    "longitude": "115.20000000",
    "wikiDataId": null
  },
  {
    "id": 56334,
    "name": "Kabupaten Bangli",
    "state_id": 1826,
    "state_code": "BA",
    "country_id": 102,
    "country_code": "ID",
    "latitude": "-8.28333000",
    "longitude": "115.35000000",
    "wikiDataId": null
  },
  {
    "id": 56379,
    "name": "Kabupaten Buleleng",
    "state_id": 1826,
    "state_code": "BA",
    "country_id": 102,
    "country_code": "ID",
    "latitude": "-8.25000000",
    "longitude": "114.96667000",
    "wikiDataId": null
  },
  {
    "id": 56409,
    "name": "Kabupaten Gianyar",
    "state_id": 1826,
    "state_code": "BA",
    "country_id": 102,
    "country_code": "ID",
    "latitude": "-8.46667000",
    "longitude": "115.28333000",
    "wikiDataId": null
  },
  {
    "id": 56431,
    "name": "Kabupaten Jembrana",
    "state_id": 1826,
    "state_code": "BA",
    "country_id": 102,
    "country_code": "ID",
    "latitude": "-8.30000000",
    "longitude": "114.66667000",
    "wikiDataId": null
  },
  {
    "id": 56438,
    "name": "Kabupaten Karang Asem",
    "state_id": 1826,
    "state_code": "BA",
    "country_id": 102,
    "country_code": "ID",
    "latitude": "-8.38910000",
    "longitude": "115.53930000",
    "wikiDataId": null
  },
  {
    "id": 56460,
    "name": "Kabupaten Klungkung",
    "state_id": 1826,
    "state_code": "BA",
    "country_id": 102,
    "country_code": "ID",
    "latitude": "-8.55000000",
    "longitude": "115.40000000",
    "wikiDataId": null
  },
  {
    "id": 56658,
    "name": "Kabupaten Tabanan",
    "state_id": 1826,
    "state_code": "BA",
    "country_id": 102,
    "country_code": "ID",
    "latitude": "-8.43333000",
    "longitude": "115.06667000",
    "wikiDataId": null
  },
  {
    "id": 56720,
    "name": "Klungkung",
    "state_id": 1826,
    "state_code": "BA",
    "country_id": 102,
    "country_code": "ID",
    "latitude": "-8.53333000",
    "longitude": "115.40000000",
    "wikiDataId": null
  },
  {
    "id": 56827,
    "name": "Kuta",
    "state_id": 1826,
    "state_code": "BA",
    "country_id": 102,
    "country_code": "ID",
    "latitude": "-8.72332000",
    "longitude": "115.17234000",
    "wikiDataId": null
  },
  {
    "id": 56841,
    "name": "Legian",
    "state_id": 1826,
    "state_code": "BA",
    "country_id": 102,
    "country_code": "ID",
    "latitude": "-8.70415000",
    "longitude": "115.17028000",
    "wikiDataId": null
  },
  {
    "id": 56846,
    "name": "Lovina",
    "state_id": 1826,
    "state_code": "BA",
    "country_id": 102,
    "country_code": "ID",
    "latitude": "-8.14927000",
    "longitude": "115.03999000",
    "wikiDataId": null
  },
  {
    "id": 56879,
    "name": "Munduk",
    "state_id": 1826,
    "state_code": "BA",
    "country_id": 102,
    "country_code": "ID",
    "latitude": "-8.26866000",
    "longitude": "115.07947000",
    "wikiDataId": null
  },
  {
    "id": 56884,
    "name": "Negara",
    "state_id": 1826,
    "state_code": "BA",
    "country_id": 102,
    "country_code": "ID",
    "latitude": "-8.35694000",
    "longitude": "114.61694000",
    "wikiDataId": null
  },
  {
    "id": 56890,
    "name": "Nusa Dua",
    "state_id": 1826,
    "state_code": "BA",
    "country_id": 102,
    "country_code": "ID",
    "latitude": "-8.80047000",
    "longitude": "115.23341000",
    "wikiDataId": null
  },
  {
    "id": 56970,
    "name": "Seririt",
    "state_id": 1826,
    "state_code": "BA",
    "country_id": 102,
    "country_code": "ID",
    "latitude": "-8.19280000",
    "longitude": "114.93880000",
    "wikiDataId": null
  },
  {
    "id": 56981,
    "name": "Singaraja",
    "state_id": 1826,
    "state_code": "BA",
    "country_id": 102,
    "country_code": "ID",
    "latitude": "-8.11200000",
    "longitude": "115.08818000",
    "wikiDataId": null
  },
  {
    "id": 57013,
    "name": "Tabanan",
    "state_id": 1826,
    "state_code": "BA",
    "country_id": 102,
    "country_code": "ID",
    "latitude": "-8.54130000",
    "longitude": "115.12522000",
    "wikiDataId": null
  },
  {
    "id": 57046,
    "name": "Ubud",
    "state_id": 1826,
    "state_code": "BA",
    "country_id": 102,
    "country_code": "ID",
    "latitude": "-8.50980000",
    "longitude": "115.26540000",
    "wikiDataId": null
  }
]