[
  {
    "id": 131771,
    "name": "Dimapur",
    "state_id": 4018,
    "state_code": "NL",
    "country_id": 101,
    "country_code": "IN",
    "latitude": "25.77852000",
    "longitude": "93.78508000",
    "wikiDataId": null
  },
  {
    "id": 132549,
    "name": "Kohima",
    "state_id": 4018,
    "state_code": "NL",
    "country_id": 101,
    "country_code": "IN",
    "latitude": "25.67467000",
    "longitude": "94.11099000",
    "wikiDataId": null
  },
  {
    "id": 132989,
    "name": "Mokokchung",
    "state_id": 4018,
    "state_code": "NL",
    "country_id": 101,
    "country_code": "IN",
    "latitude": "26.31393000",
    "longitude": "94.51675000",
    "wikiDataId": null
  },
  {
    "id": 132990,
    "name": "Mon",
    "state_id": 4018,
    "state_code": "NL",
    "country_id": 101,
    "country_code": "IN",
    "latitude": "26.75000000",
    "longitude": "94.83333000",
    "wikiDataId": null
  },
  {
    "id": 133416,
    "name": "Peren",
    "state_id": 4018,
    "state_code": "NL",
    "country_id": 101,
    "country_code": "IN",
    "latitude": "25.51276000",
    "longitude": "93.73716000",
    "wikiDataId": null
  },
  {
    "id": 133438,
    "name": "Phek",
    "state_id": 4018,
    "state_code": "NL",
    "country_id": 101,
    "country_code": "IN",
    "latitude": "25.75000000",
    "longitude": "94.50000000",
    "wikiDataId": null
  },
  {
    "id": 134215,
    "name": "Tuensang",
    "state_id": 4018,
    "state_code": "NL",
    "country_id": 101,
    "country_code": "IN",
    "latitude": "26.26704000",
    "longitude": "94.82415000",
    "wikiDataId": null
  },
  {
    "id": 134216,
    "name": "Tuensang District",
    "state_id": 4018,
    "state_code": "NL",
    "country_id": 101,
    "country_code": "IN",
    "latitude": "26.25000000",
    "longitude": "94.75000000",
    "wikiDataId": null
  },
  {
    "id": 134413,
    "name": "Wokha",
    "state_id": 4018,
    "state_code": "NL",
    "country_id": 101,
    "country_code": "IN",
    "latitude": "26.16667000",
    "longitude": "94.25000000",
    "wikiDataId": null
  },
  {
    "id": 134445,
    "name": "Zunheboto",
    "state_id": 4018,
    "state_code": "NL",
    "country_id": 101,
    "country_code": "IN",
    "latitude": "26.00000000",
    "longitude": "94.50000000",
    "wikiDataId": null
  }
]