[
  {
    "id": 56190,
    "name": "Balikpapan",
    "state_id": 1804,
    "state_code": "KI",
    "country_id": 102,
    "country_code": "ID",
    "latitude": "-1.26753000",
    "longitude": "116.82887000",
    "wikiDataId": null
  },
  {
    "id": 56229,
    "name": "Bontang",
    "state_id": 1804,
    "state_code": "KI",
    "country_id": 102,
    "country_code": "ID",
    "latitude": "0.13240000",
    "longitude": "117.48540000",
    "wikiDataId": null
  },
  {
    "id": 56254,
    "name": "City of Balikpapan",
    "state_id": 1804,
    "state_code": "KI",
    "country_id": 102,
    "country_code": "ID",
    "latitude": "-1.24204000",
    "longitude": "116.89419000",
    "wikiDataId": null
  },
  {
    "id": 56358,
    "name": "Kabupaten Berau",
    "state_id": 1804,
    "state_code": "KI",
    "country_id": 102,
    "country_code": "ID",
    "latitude": "2.00000000",
    "longitude": "117.30000000",
    "wikiDataId": null
  },
  {
    "id": 56476,
    "name": "Kabupaten Kutai Barat",
    "state_id": 1804,
    "state_code": "KI",
    "country_id": 102,
    "country_code": "ID",
    "latitude": "-0.59417000",
    "longitude": "115.51575000",
    "wikiDataId": null
  },
  {
    "id": 56477,
    "name": "Kabupaten Kutai Kartanegara",
    "state_id": 1804,
    "state_code": "KI",
    "country_id": 102,
    "country_code": "ID",
    "latitude": "-0.44019000",
    "longitude": "116.98139000",
    "wikiDataId": null
  },
  {
    "id": 56478,
    "name": "Kabupaten Kutai Timur",
    "state_id": 1804,
    "state_code": "KI",
    "country_id": 102,
    "country_code": "ID",
    "latitude": "1.03769000",
    "longitude": "117.83112000",
    "wikiDataId": null
  },
  {
    "id": 56507,
    "name": "Kabupaten Mahakam Hulu",
    "state_id": 1804,
    "state_code": "KI",
    "country_id": 102,
    "country_code": "ID",
    "latitude": "0.37822000",
    "longitude": "115.38048000",
    "wikiDataId": null
  },
  {
    "id": 56581,
    "name": "Kabupaten Paser",
    "state_id": 1804,
    "state_code": "KI",
    "country_id": 102,
    "country_code": "ID",
    "latitude": "-1.43517000",
    "longitude": "116.23535000",
    "wikiDataId": null
  },
  {
    "id": 56588,
    "name": "Kabupaten Penajam Paser Utara",
    "state_id": 1804,
    "state_code": "KI",
    "country_id": 102,
    "country_code": "ID",
    "latitude": "-1.25000000",
    "longitude": "116.83333000",
    "wikiDataId": null
  },
  {
    "id": 56845,
    "name": "Loa Janan",
    "state_id": 1804,
    "state_code": "KI",
    "country_id": 102,
    "country_code": "ID",
    "latitude": "-0.58295000",
    "longitude": "117.09503000",
    "wikiDataId": null
  },
  {
    "id": 56959,
    "name": "Samarinda",
    "state_id": 1804,
    "state_code": "KI",
    "country_id": 102,
    "country_code": "ID",
    "latitude": "-0.49167000",
    "longitude": "117.14583000",
    "wikiDataId": null
  }
]