[
  {
    "id": 48733,
    "name": "Broxbourne",
    "state_id": 2476,
    "state_code": "ENF",
    "country_id": 232,
    "country_code": "GB",
    "latitude": "51.74712000",
    "longitude": "-0.01923000",
    "wikiDataId": null
  },
  {
    "id": 48954,
    "name": "Cheshunt",
    "state_id": 2476,
    "state_code": "ENF",
    "country_id": 232,
    "country_code": "GB",
    "latitude": "51.70020000",
    "longitude": "-0.03026000",
    "wikiDataId": null
  },
  {
    "id": 49196,
    "name": "Cuffley",
    "state_id": 2476,
    "state_code": "ENF",
    "country_id": 232,
    "country_code": "GB",
    "latitude": "51.70799000",
    "longitude": "-0.11209000",
    "wikiDataId": null
  },
  {
    "id": 49476,
    "name": "Enfield Town",
    "state_id": 2476,
    "state_code": "ENF",
    "country_id": 232,
    "country_code": "GB",
    "latitude": "51.65147000",
    "longitude": "-0.08497000",
    "wikiDataId": null
  },
  {
    "id": 49775,
    "name": "Hadley Wood",
    "state_id": 2476,
    "state_code": "ENF",
    "country_id": 232,
    "country_code": "GB",
    "latitude": "51.66669000",
    "longitude": "-0.16981000",
    "wikiDataId": null
  },
  {
    "id": 50975,
    "name": "Potters Bar",
    "state_id": 2476,
    "state_code": "ENF",
    "country_id": 232,
    "country_code": "GB",
    "latitude": "51.69353000",
    "longitude": "-0.17835000",
    "wikiDataId": null
  },
  {
    "id": 51738,
    "name": "Waltham Abbey",
    "state_id": 2476,
    "state_code": "ENF",
    "country_id": 232,
    "country_code": "GB",
    "latitude": "51.68700000",
    "longitude": "-0.00421000",
    "wikiDataId": null
  },
  {
    "id": 51739,
    "name": "Waltham Cross",
    "state_id": 2476,
    "state_code": "ENF",
    "country_id": 232,
    "country_code": "GB",
    "latitude": "51.68602000",
    "longitude": "-0.03575000",
    "wikiDataId": null
  }
]