[
  {
    "id": 81257,
    "name": "Anao",
    "state_id": 1295,
    "state_code": "TAR",
    "country_id": 174,
    "country_code": "PH",
    "latitude": "15.74348520",
    "longitude": "120.57733200",
    "wikiDataId": null
  },
  {
    "id": 81510,
    "name": "Bamban",
    "state_id": 1295,
    "state_code": "TAR",
    "country_id": 174,
    "country_code": "PH",
    "latitude": "15.24958250",
    "longitude": "120.31388110",
    "wikiDataId": null
  },
  {
    "id": 82089,
    "name": "Camiling",
    "state_id": 1295,
    "state_code": "TAR",
    "country_id": 174,
    "country_code": "PH",
    "latitude": "15.69344400",
    "longitude": "120.31758390",
    "wikiDataId": null
  },
  {
    "id": 82137,
    "name": "Capas",
    "state_id": 1295,
    "state_code": "TAR",
    "country_id": 174,
    "country_code": "PH",
    "latitude": "15.33294730",
    "longitude": "120.26422810",
    "wikiDataId": null
  },
  {
    "id": 154833,
    "name": "Concepcion",
    "state_id": 1295,
    "state_code": "TAR",
    "country_id": 174,
    "country_code": "PH",
    "latitude": "15.33908210",
    "longitude": "120.60927940",
    "wikiDataId": null
  },
  {
    "id": 82585,
    "name": "Gerona",
    "state_id": 1295,
    "state_code": "TAR",
    "country_id": 174,
    "country_code": "PH",
    "latitude": "15.60013720",
    "longitude": "120.48041050",
    "wikiDataId": null
  },
  {
    "id": 154834,
    "name": "La Paz",
    "state_id": 1295,
    "state_code": "TAR",
    "country_id": 174,
    "country_code": "PH",
    "latitude": "15.45716560",
    "longitude": "120.63415970",
    "wikiDataId": null
  },
  {
    "id": 83646,
    "name": "Mayantoc",
    "state_id": 1295,
    "state_code": "TAR",
    "country_id": 174,
    "country_code": "PH",
    "latitude": "15.57221810",
    "longitude": "120.12983870",
    "wikiDataId": null
  },
  {
    "id": 83699,
    "name": "Moncada",
    "state_id": 1295,
    "state_code": "TAR",
    "country_id": 174,
    "country_code": "PH",
    "latitude": "15.76286300",
    "longitude": "120.46074950",
    "wikiDataId": null
  },
  {
    "id": 83990,
    "name": "Paniqui",
    "state_id": 1295,
    "state_code": "TAR",
    "country_id": 174,
    "country_code": "PH",
    "latitude": "15.67708780",
    "longitude": "120.46336720",
    "wikiDataId": null
  },
  {
    "id": 84283,
    "name": "Pura",
    "state_id": 1295,
    "state_code": "TAR",
    "country_id": 174,
    "country_code": "PH",
    "latitude": "15.62322250",
    "longitude": "120.64037560",
    "wikiDataId": null
  },
  {
    "id": 84325,
    "name": "Ramos",
    "state_id": 1295,
    "state_code": "TAR",
    "country_id": 174,
    "country_code": "PH",
    "latitude": "15.67045640",
    "longitude": "120.63318720",
    "wikiDataId": null
  },
  {
    "id": 84463,
    "name": "San Clemente",
    "state_id": 1295,
    "state_code": "TAR",
    "country_id": 174,
    "country_code": "PH",
    "latitude": "15.67877350",
    "longitude": "120.24960860",
    "wikiDataId": null
  },
  {
    "id": 154835,
    "name": "San Jose",
    "state_id": 1295,
    "state_code": "TAR",
    "country_id": 174,
    "country_code": "PH",
    "latitude": "15.43212170",
    "longitude": "120.19033890",
    "wikiDataId": null
  },
  {
    "id": 154836,
    "name": "San Manuel",
    "state_id": 1295,
    "state_code": "TAR",
    "country_id": 174,
    "country_code": "PH",
    "latitude": "15.82887130",
    "longitude": "120.55838760",
    "wikiDataId": null
  },
  {
    "id": 84672,
    "name": "Santa Ignacia",
    "state_id": 1295,
    "state_code": "TAR",
    "country_id": 174,
    "country_code": "PH",
    "latitude": "15.58367330",
    "longitude": "120.37297900",
    "wikiDataId": null
  },
  {
    "id": 85058,
    "name": "Tarlac City",
    "state_id": 1295,
    "state_code": "TAR",
    "country_id": 174,
    "country_code": "PH",
    "latitude": "15.47274830",
    "longitude": "120.53060610",
    "wikiDataId": null
  },
  {
    "id": 154837,
    "name": "Victoria",
    "state_id": 1295,
    "state_code": "TAR",
    "country_id": 174,
    "country_code": "PH",
    "latitude": "15.57946790",
    "longitude": "120.60706980",
    "wikiDataId": null
  }
]