[
  {
    "id": 130188,
    "name": "Cát Bà",
    "state_id": 3783,
    "state_code": "HP",
    "country_id": 240,
    "country_code": "VN",
    "latitude": "20.72779000",
    "longitude": "107.04819000",
    "wikiDataId": null
  },
  {
    "id": 130562,
    "name": "Hải Dương",
    "state_id": 3783,
    "state_code": "HP",
    "country_id": 240,
    "country_code": "VN",
    "latitude": "20.94099000",
    "longitude": "106.33302000",
    "wikiDataId": null
  },
  {
    "id": 130200,
    "name": "Haiphong",
    "state_id": 3783,
    "state_code": "HP",
    "country_id": 240,
    "country_code": "VN",
    "latitude": "20.86481000",
    "longitude": "106.68345000",
    "wikiDataId": null
  },
  {
    "id": 130221,
    "name": "Huyện Bình Giang",
    "state_id": 3783,
    "state_code": "HP",
    "country_id": 240,
    "country_code": "VN",
    "latitude": "20.87586000",
    "longitude": "106.19138000",
    "wikiDataId": null
  },
  {
    "id": 130274,
    "name": "Huyện Cẩm Giàng",
    "state_id": 3783,
    "state_code": "HP",
    "country_id": 240,
    "country_code": "VN",
    "latitude": "20.95000000",
    "longitude": "106.21667000",
    "wikiDataId": null
  },
  {
    "id": 130286,
    "name": "Huyện Gia Lộc",
    "state_id": 3783,
    "state_code": "HP",
    "country_id": 240,
    "country_code": "VN",
    "latitude": "20.85164000",
    "longitude": "106.29130000",
    "wikiDataId": null
  },
  {
    "id": 130329,
    "name": "Huyện Kinh Môn",
    "state_id": 3783,
    "state_code": "HP",
    "country_id": 240,
    "country_code": "VN",
    "latitude": "21.01634000",
    "longitude": "106.50384000",
    "wikiDataId": null
  },
  {
    "id": 130376,
    "name": "Huyện Nam Sách",
    "state_id": 3783,
    "state_code": "HP",
    "country_id": 240,
    "country_code": "VN",
    "latitude": "21.00484000",
    "longitude": "106.34042000",
    "wikiDataId": null
  },
  {
    "id": 130438,
    "name": "Huyện Thanh Miện",
    "state_id": 3783,
    "state_code": "HP",
    "country_id": 240,
    "country_code": "VN",
    "latitude": "20.77953000",
    "longitude": "106.22218000",
    "wikiDataId": null
  },
  {
    "id": 130609,
    "name": "Thị Xã Chí Linh",
    "state_id": 3783,
    "state_code": "HP",
    "country_id": 240,
    "country_code": "VN",
    "latitude": "21.13722000",
    "longitude": "106.39638000",
    "wikiDataId": null
  }
]