[
  {
    "id": 65571,
    "name": "Ad Dasmah",
    "state_id": 976,
    "state_code": "KU",
    "country_id": 117,
    "country_code": "KW",
    "latitude": "29.36500000",
    "longitude": "48.00139000",
    "wikiDataId": null
  },
  {
    "id": 65584,
    "name": "Ar Rābiyah",
    "state_id": 976,
    "state_code": "KU",
    "country_id": 117,
    "country_code": "KW",
    "latitude": "29.29500000",
    "longitude": "47.93306000",
    "wikiDataId": null
  },
  {
    "id": 65586,
    "name": "Ash Shāmīyah",
    "state_id": 976,
    "state_code": "KU",
    "country_id": 117,
    "country_code": "KW",
    "latitude": "29.34722000",
    "longitude": "47.96167000",
    "wikiDataId": null
  },
  {
    "id": 65587,
    "name": "Az Zawr",
    "state_id": 976,
    "state_code": "KU",
    "country_id": 117,
    "country_code": "KW",
    "latitude": "29.44250000",
    "longitude": "48.27472000",
    "wikiDataId": null
  },
  {
    "id": 65590,
    "name": "Kuwait City",
    "state_id": 976,
    "state_code": "KU",
    "country_id": 117,
    "country_code": "KW",
    "latitude": "29.36972000",
    "longitude": "47.97833000",
    "wikiDataId": null
  }
]