[
  {
    "id": 79998,
    "name": "Boca de Parita",
    "state_id": 1389,
    "state_code": "6",
    "country_id": 170,
    "country_code": "PA",
    "latitude": "8.00796000",
    "longitude": "-80.45320000",
    "wikiDataId": null
  },
  {
    "id": 80015,
    "name": "Cabuya",
    "state_id": 1389,
    "state_code": "6",
    "country_id": 170,
    "country_code": "PA",
    "latitude": "8.03138000",
    "longitude": "-80.63227000",
    "wikiDataId": null
  },
  {
    "id": 80049,
    "name": "Cerro Largo",
    "state_id": 1389,
    "state_code": "6",
    "country_id": 170,
    "country_code": "PA",
    "latitude": "7.83377000",
    "longitude": "-80.83168000",
    "wikiDataId": null
  },
  {
    "id": 80064,
    "name": "Chitré",
    "state_id": 1389,
    "state_code": "6",
    "country_id": 170,
    "country_code": "PA",
    "latitude": "7.96082000",
    "longitude": "-80.42944000",
    "wikiDataId": null
  },
  {
    "id": 80065,
    "name": "Chumical",
    "state_id": 1389,
    "state_code": "6",
    "country_id": 170,
    "country_code": "PA",
    "latitude": "7.84482000",
    "longitude": "-80.72627000",
    "wikiDataId": null
  },
  {
    "id": 80066,
    "name": "Chupampa",
    "state_id": 1389,
    "state_code": "6",
    "country_id": 170,
    "country_code": "PA",
    "latitude": "8.07620000",
    "longitude": "-80.77656000",
    "wikiDataId": null
  },
  {
    "id": 80105,
    "name": "Distrito de Chitré",
    "state_id": 1389,
    "state_code": "6",
    "country_id": 170,
    "country_code": "PA",
    "latitude": "7.98333000",
    "longitude": "-80.43333000",
    "wikiDataId": null
  },
  {
    "id": 80115,
    "name": "Distrito de Las Minas",
    "state_id": 1389,
    "state_code": "6",
    "country_id": 170,
    "country_code": "PA",
    "latitude": "7.76525000",
    "longitude": "-80.82249000",
    "wikiDataId": null
  },
  {
    "id": 80118,
    "name": "Distrito de Los Pozos",
    "state_id": 1389,
    "state_code": "6",
    "country_id": 170,
    "country_code": "PA",
    "latitude": "7.70944000",
    "longitude": "-80.64311000",
    "wikiDataId": null
  },
  {
    "id": 80123,
    "name": "Distrito de Ocú",
    "state_id": 1389,
    "state_code": "6",
    "country_id": 170,
    "country_code": "PA",
    "latitude": "7.90641000",
    "longitude": "-80.79752000",
    "wikiDataId": null
  },
  {
    "id": 80126,
    "name": "Distrito de Parita",
    "state_id": 1389,
    "state_code": "6",
    "country_id": 170,
    "country_code": "PA",
    "latitude": "8.06240000",
    "longitude": "-80.56373000",
    "wikiDataId": null
  },
  {
    "id": 80128,
    "name": "Distrito de Pesé",
    "state_id": 1389,
    "state_code": "6",
    "country_id": 170,
    "country_code": "PA",
    "latitude": "7.88194000",
    "longitude": "-80.63261000",
    "wikiDataId": null
  },
  {
    "id": 80141,
    "name": "Distrito de Santa María",
    "state_id": 1389,
    "state_code": "6",
    "country_id": 170,
    "country_code": "PA",
    "latitude": "8.11667000",
    "longitude": "-80.68333000",
    "wikiDataId": null
  },
  {
    "id": 80153,
    "name": "El Calabacito",
    "state_id": 1389,
    "state_code": "6",
    "country_id": 170,
    "country_code": "PA",
    "latitude": "7.71843000",
    "longitude": "-80.59757000",
    "wikiDataId": null
  },
  {
    "id": 80154,
    "name": "El Capurí",
    "state_id": 1389,
    "state_code": "6",
    "country_id": 170,
    "country_code": "PA",
    "latitude": "7.72571000",
    "longitude": "-80.64349000",
    "wikiDataId": null
  },
  {
    "id": 80158,
    "name": "El Cedro",
    "state_id": 1389,
    "state_code": "6",
    "country_id": 170,
    "country_code": "PA",
    "latitude": "7.68565000",
    "longitude": "-80.65927000",
    "wikiDataId": null
  },
  {
    "id": 80188,
    "name": "El Pedregoso",
    "state_id": 1389,
    "state_code": "6",
    "country_id": 170,
    "country_code": "PA",
    "latitude": "7.93642000",
    "longitude": "-80.63807000",
    "wikiDataId": null
  },
  {
    "id": 80199,
    "name": "El Rincón",
    "state_id": 1389,
    "state_code": "6",
    "country_id": 170,
    "country_code": "PA",
    "latitude": "8.11923000",
    "longitude": "-80.61707000",
    "wikiDataId": null
  },
  {
    "id": 80204,
    "name": "El Toro",
    "state_id": 1389,
    "state_code": "6",
    "country_id": 170,
    "country_code": "PA",
    "latitude": "7.75110000",
    "longitude": "-80.86943000",
    "wikiDataId": null
  },
  {
    "id": 80241,
    "name": "La Arena",
    "state_id": 1389,
    "state_code": "6",
    "country_id": 170,
    "country_code": "PA",
    "latitude": "7.96766000",
    "longitude": "-80.46523000",
    "wikiDataId": null
  },
  {
    "id": 80279,
    "name": "La Trinidad",
    "state_id": 1389,
    "state_code": "6",
    "country_id": 170,
    "country_code": "PA",
    "latitude": "7.91457000",
    "longitude": "-80.70332000",
    "wikiDataId": null
  },
  {
    "id": 80289,
    "name": "Las Guabas",
    "state_id": 1389,
    "state_code": "6",
    "country_id": 170,
    "country_code": "PA",
    "latitude": "7.90949000",
    "longitude": "-80.80706000",
    "wikiDataId": null
  },
  {
    "id": 80300,
    "name": "Las Minas",
    "state_id": 1389,
    "state_code": "6",
    "country_id": 170,
    "country_code": "PA",
    "latitude": "7.79581000",
    "longitude": "-80.74570000",
    "wikiDataId": null
  },
  {
    "id": 80309,
    "name": "Leones Arriba",
    "state_id": 1389,
    "state_code": "6",
    "country_id": 170,
    "country_code": "PA",
    "latitude": "7.76590000",
    "longitude": "-80.84515000",
    "wikiDataId": null
  },
  {
    "id": 80312,
    "name": "Limón de Tijeras",
    "state_id": 1389,
    "state_code": "6",
    "country_id": 170,
    "country_code": "PA",
    "latitude": "7.81756000",
    "longitude": "-80.91335000",
    "wikiDataId": null
  },
  {
    "id": 80314,
    "name": "Llano Bonito",
    "state_id": 1389,
    "state_code": "6",
    "country_id": 170,
    "country_code": "PA",
    "latitude": "7.97637000",
    "longitude": "-80.41646000",
    "wikiDataId": null
  },
  {
    "id": 80321,
    "name": "Llano de La Cruz",
    "state_id": 1389,
    "state_code": "6",
    "country_id": 170,
    "country_code": "PA",
    "latitude": "7.95178000",
    "longitude": "-80.64239000",
    "wikiDataId": null
  },
  {
    "id": 80315,
    "name": "Llano Grande",
    "state_id": 1389,
    "state_code": "6",
    "country_id": 170,
    "country_code": "PA",
    "latitude": "7.97406000",
    "longitude": "-80.71103000",
    "wikiDataId": null
  },
  {
    "id": 80330,
    "name": "Los Canelos",
    "state_id": 1389,
    "state_code": "6",
    "country_id": 170,
    "country_code": "PA",
    "latitude": "8.11722000",
    "longitude": "-80.70769000",
    "wikiDataId": null
  },
  {
    "id": 80331,
    "name": "Los Castillos",
    "state_id": 1389,
    "state_code": "6",
    "country_id": 170,
    "country_code": "PA",
    "latitude": "7.98565000",
    "longitude": "-80.61886000",
    "wikiDataId": null
  },
  {
    "id": 80333,
    "name": "Los Cerritos",
    "state_id": 1389,
    "state_code": "6",
    "country_id": 170,
    "country_code": "PA",
    "latitude": "7.79746000",
    "longitude": "-80.61071000",
    "wikiDataId": null
  },
  {
    "id": 80334,
    "name": "Los Cerros de Paja",
    "state_id": 1389,
    "state_code": "6",
    "country_id": 170,
    "country_code": "PA",
    "latitude": "7.71821000",
    "longitude": "-80.67273000",
    "wikiDataId": null
  },
  {
    "id": 80341,
    "name": "Los Pozos",
    "state_id": 1389,
    "state_code": "6",
    "country_id": 170,
    "country_code": "PA",
    "latitude": "7.78300000",
    "longitude": "-80.64524000",
    "wikiDataId": null
  },
  {
    "id": 80358,
    "name": "Monagrillo",
    "state_id": 1389,
    "state_code": "6",
    "country_id": 170,
    "country_code": "PA",
    "latitude": "7.98179000",
    "longitude": "-80.43764000",
    "wikiDataId": null
  },
  {
    "id": 80382,
    "name": "Ocú",
    "state_id": 1389,
    "state_code": "6",
    "country_id": 170,
    "country_code": "PA",
    "latitude": "7.94052000",
    "longitude": "-80.77936000",
    "wikiDataId": null
  },
  {
    "id": 80401,
    "name": "París",
    "state_id": 1389,
    "state_code": "6",
    "country_id": 170,
    "country_code": "PA",
    "latitude": "8.05053000",
    "longitude": "-80.55409000",
    "wikiDataId": null
  },
  {
    "id": 80398,
    "name": "Parita",
    "state_id": 1389,
    "state_code": "6",
    "country_id": 170,
    "country_code": "PA",
    "latitude": "7.99393000",
    "longitude": "-80.52097000",
    "wikiDataId": null
  },
  {
    "id": 80410,
    "name": "Peñas Chatas",
    "state_id": 1389,
    "state_code": "6",
    "country_id": 170,
    "country_code": "PA",
    "latitude": "8.01502000",
    "longitude": "-80.80366000",
    "wikiDataId": null
  },
  {
    "id": 80408,
    "name": "Pesé",
    "state_id": 1389,
    "state_code": "6",
    "country_id": 170,
    "country_code": "PA",
    "latitude": "7.90863000",
    "longitude": "-80.61433000",
    "wikiDataId": null
  },
  {
    "id": 80413,
    "name": "Pitaloza Arriba",
    "state_id": 1389,
    "state_code": "6",
    "country_id": 170,
    "country_code": "PA",
    "latitude": "7.64216000",
    "longitude": "-80.66788000",
    "wikiDataId": null
  },
  {
    "id": 80422,
    "name": "Portobelillo",
    "state_id": 1389,
    "state_code": "6",
    "country_id": 170,
    "country_code": "PA",
    "latitude": "8.01738000",
    "longitude": "-80.59538000",
    "wikiDataId": null
  },
  {
    "id": 80427,
    "name": "Potuga",
    "state_id": 1389,
    "state_code": "6",
    "country_id": 170,
    "country_code": "PA",
    "latitude": "8.06317000",
    "longitude": "-80.62271000",
    "wikiDataId": null
  },
  {
    "id": 80448,
    "name": "Quebrada del Rosario",
    "state_id": 1389,
    "state_code": "6",
    "country_id": 170,
    "country_code": "PA",
    "latitude": "7.71238000",
    "longitude": "-80.74222000",
    "wikiDataId": null
  },
  {
    "id": 80453,
    "name": "Rincón Hondo",
    "state_id": 1389,
    "state_code": "6",
    "country_id": 170,
    "country_code": "PA",
    "latitude": "7.84436000",
    "longitude": "-80.60397000",
    "wikiDataId": null
  },
  {
    "id": 80467,
    "name": "Sabana Grande",
    "state_id": 1389,
    "state_code": "6",
    "country_id": 170,
    "country_code": "PA",
    "latitude": "7.88002000",
    "longitude": "-80.63818000",
    "wikiDataId": null
  },
  {
    "id": 80485,
    "name": "San Juan Bautista",
    "state_id": 1389,
    "state_code": "6",
    "country_id": 170,
    "country_code": "PA",
    "latitude": "7.96099000",
    "longitude": "-80.41283000",
    "wikiDataId": null
  },
  {
    "id": 80504,
    "name": "Santa María",
    "state_id": 1389,
    "state_code": "6",
    "country_id": 170,
    "country_code": "PA",
    "latitude": "8.11143000",
    "longitude": "-80.66582000",
    "wikiDataId": null
  }
]