[
  {
    "id": 66585,
    "name": "Aukstadvaris",
    "state_id": 1606,
    "state_code": "57",
    "country_id": 126,
    "country_code": "LT",
    "latitude": "54.57946000",
    "longitude": "24.52683000",
    "wikiDataId": null
  },
  {
    "id": 66586,
    "name": "Baltoji Vokė",
    "state_id": 1606,
    "state_code": "57",
    "country_id": 126,
    "country_code": "LT",
    "latitude": "54.60002000",
    "longitude": "25.19318000",
    "wikiDataId": null
  },
  {
    "id": 66596,
    "name": "Eišiškės",
    "state_id": 1606,
    "state_code": "57",
    "country_id": 126,
    "country_code": "LT",
    "latitude": "54.17414000",
    "longitude": "24.99917000",
    "wikiDataId": null
  },
  {
    "id": 66597,
    "name": "Elektrėnai",
    "state_id": 1606,
    "state_code": "57",
    "country_id": 126,
    "country_code": "LT",
    "latitude": "54.78544000",
    "longitude": "24.66302000",
    "wikiDataId": null
  },
  {
    "id": 66599,
    "name": "Fabijoniškės",
    "state_id": 1606,
    "state_code": "57",
    "country_id": 126,
    "country_code": "LT",
    "latitude": "54.73333000",
    "longitude": "25.24167000",
    "wikiDataId": null
  },
  {
    "id": 66603,
    "name": "Grigiškės",
    "state_id": 1606,
    "state_code": "57",
    "country_id": 126,
    "country_code": "LT",
    "latitude": "54.68333000",
    "longitude": "25.08333000",
    "wikiDataId": null
  },
  {
    "id": 66610,
    "name": "Justiniškės",
    "state_id": 1606,
    "state_code": "57",
    "country_id": 126,
    "country_code": "LT",
    "latitude": "54.71664000",
    "longitude": "25.21740000",
    "wikiDataId": null
  },
  {
    "id": 66631,
    "name": "Lazdynai",
    "state_id": 1606,
    "state_code": "57",
    "country_id": 126,
    "country_code": "LT",
    "latitude": "54.66815000",
    "longitude": "25.20684000",
    "wikiDataId": null
  },
  {
    "id": 66632,
    "name": "Lentvaris",
    "state_id": 1606,
    "state_code": "57",
    "country_id": 126,
    "country_code": "LT",
    "latitude": "54.64364000",
    "longitude": "25.05162000",
    "wikiDataId": null
  },
  {
    "id": 66641,
    "name": "Naujamiestis",
    "state_id": 1606,
    "state_code": "57",
    "country_id": 126,
    "country_code": "LT",
    "latitude": "54.67951000",
    "longitude": "25.26855000",
    "wikiDataId": null
  },
  {
    "id": 66643,
    "name": "Nemenčinė",
    "state_id": 1606,
    "state_code": "57",
    "country_id": 126,
    "country_code": "LT",
    "latitude": "54.84776000",
    "longitude": "25.46992000",
    "wikiDataId": null
  },
  {
    "id": 66647,
    "name": "Pabradė",
    "state_id": 1606,
    "state_code": "57",
    "country_id": 126,
    "country_code": "LT",
    "latitude": "54.98100000",
    "longitude": "25.76100000",
    "wikiDataId": null
  },
  {
    "id": 66655,
    "name": "Pašilaičiai",
    "state_id": 1606,
    "state_code": "57",
    "country_id": 126,
    "country_code": "LT",
    "latitude": "54.73429000",
    "longitude": "25.21912000",
    "wikiDataId": null
  },
  {
    "id": 66656,
    "name": "Pilaitė",
    "state_id": 1606,
    "state_code": "57",
    "country_id": 126,
    "country_code": "LT",
    "latitude": "54.69981000",
    "longitude": "25.18393000",
    "wikiDataId": null
  },
  {
    "id": 66667,
    "name": "Rasos",
    "state_id": 1606,
    "state_code": "57",
    "country_id": 126,
    "country_code": "LT",
    "latitude": "54.67877000",
    "longitude": "25.31173000",
    "wikiDataId": null
  },
  {
    "id": 66671,
    "name": "Rūdiškės",
    "state_id": 1606,
    "state_code": "57",
    "country_id": 126,
    "country_code": "LT",
    "latitude": "54.51609000",
    "longitude": "24.83084000",
    "wikiDataId": null
  },
  {
    "id": 66709,
    "name": "Šalčininkai",
    "state_id": 1606,
    "state_code": "57",
    "country_id": 126,
    "country_code": "LT",
    "latitude": "54.30000000",
    "longitude": "25.38333000",
    "wikiDataId": null
  },
  {
    "id": 66676,
    "name": "Senieji Trakai",
    "state_id": 1606,
    "state_code": "57",
    "country_id": 126,
    "country_code": "LT",
    "latitude": "54.60900000",
    "longitude": "24.98000000",
    "wikiDataId": null
  },
  {
    "id": 66711,
    "name": "Šeškinė",
    "state_id": 1606,
    "state_code": "57",
    "country_id": 126,
    "country_code": "LT",
    "latitude": "54.70972000",
    "longitude": "25.25053000",
    "wikiDataId": null
  },
  {
    "id": 66679,
    "name": "Sirvintos",
    "state_id": 1606,
    "state_code": "57",
    "country_id": 126,
    "country_code": "LT",
    "latitude": "55.05000000",
    "longitude": "24.95000000",
    "wikiDataId": null
  },
  {
    "id": 66680,
    "name": "Skaidiškės",
    "state_id": 1606,
    "state_code": "57",
    "country_id": 126,
    "country_code": "LT",
    "latitude": "54.61398000",
    "longitude": "25.39573000",
    "wikiDataId": null
  },
  {
    "id": 66720,
    "name": "Švenčionėliai",
    "state_id": 1606,
    "state_code": "57",
    "country_id": 126,
    "country_code": "LT",
    "latitude": "55.16163000",
    "longitude": "26.00177000",
    "wikiDataId": null
  },
  {
    "id": 66682,
    "name": "Svencionys",
    "state_id": 1606,
    "state_code": "57",
    "country_id": 126,
    "country_code": "LT",
    "latitude": "55.15000000",
    "longitude": "26.16667000",
    "wikiDataId": null
  },
  {
    "id": 66687,
    "name": "Trakai",
    "state_id": 1606,
    "state_code": "57",
    "country_id": 126,
    "country_code": "LT",
    "latitude": "54.63783000",
    "longitude": "24.93433000",
    "wikiDataId": null
  },
  {
    "id": 66689,
    "name": "Ukmerge",
    "state_id": 1606,
    "state_code": "57",
    "country_id": 126,
    "country_code": "LT",
    "latitude": "55.25000000",
    "longitude": "24.75000000",
    "wikiDataId": null
  },
  {
    "id": 66698,
    "name": "Vievis",
    "state_id": 1606,
    "state_code": "57",
    "country_id": 126,
    "country_code": "LT",
    "latitude": "54.76667000",
    "longitude": "24.80000000",
    "wikiDataId": null
  },
  {
    "id": 66702,
    "name": "Vilkpėdė",
    "state_id": 1606,
    "state_code": "57",
    "country_id": 126,
    "country_code": "LT",
    "latitude": "54.66969000",
    "longitude": "25.24770000",
    "wikiDataId": null
  },
  {
    "id": 66703,
    "name": "Vilnius",
    "state_id": 1606,
    "state_code": "57",
    "country_id": 126,
    "country_code": "LT",
    "latitude": "54.68916000",
    "longitude": "25.27980000",
    "wikiDataId": null
  },
  {
    "id": 66704,
    "name": "Vilnius District Municipality",
    "state_id": 1606,
    "state_code": "57",
    "country_id": 126,
    "country_code": "LT",
    "latitude": "54.73333000",
    "longitude": "25.38333000",
    "wikiDataId": null
  }
]