[
  {
    "id": 54387,
    "name": "Batrina",
    "state_id": 737,
    "state_code": "12",
    "country_id": 55,
    "country_code": "HR",
    "latitude": "45.18944000",
    "longitude": "17.66639000",
    "wikiDataId": null
  },
  {
    "id": 54425,
    "name": "Brodski Varoš",
    "state_id": 737,
    "state_code": "12",
    "country_id": 55,
    "country_code": "HR",
    "latitude": "45.18111000",
    "longitude": "17.97861000",
    "wikiDataId": null
  },
  {
    "id": 54434,
    "name": "Bukovlje",
    "state_id": 737,
    "state_code": "12",
    "country_id": 55,
    "country_code": "HR",
    "latitude": "45.18528000",
    "longitude": "18.07000000",
    "wikiDataId": null
  },
  {
    "id": 54441,
    "name": "Cernik",
    "state_id": 737,
    "state_code": "12",
    "country_id": 55,
    "country_code": "HR",
    "latitude": "45.28861000",
    "longitude": "17.38194000",
    "wikiDataId": null
  },
  {
    "id": 54450,
    "name": "Davor",
    "state_id": 737,
    "state_code": "12",
    "country_id": 55,
    "country_code": "HR",
    "latitude": "45.11528000",
    "longitude": "17.51639000",
    "wikiDataId": null
  },
  {
    "id": 54460,
    "name": "Donji Andrijevci",
    "state_id": 737,
    "state_code": "12",
    "country_id": 55,
    "country_code": "HR",
    "latitude": "45.18833000",
    "longitude": "18.29972000",
    "wikiDataId": null
  },
  {
    "id": 54490,
    "name": "Garčin",
    "state_id": 737,
    "state_code": "12",
    "country_id": 55,
    "country_code": "HR",
    "latitude": "45.18278000",
    "longitude": "18.18306000",
    "wikiDataId": null
  },
  {
    "id": 54498,
    "name": "Gornji Bogićevci",
    "state_id": 737,
    "state_code": "12",
    "country_id": 55,
    "country_code": "HR",
    "latitude": "45.25572000",
    "longitude": "17.23454000",
    "wikiDataId": null
  },
  {
    "id": 54534,
    "name": "Grad Nova Gradiška",
    "state_id": 737,
    "state_code": "12",
    "country_id": 55,
    "country_code": "HR",
    "latitude": "45.26667000",
    "longitude": "17.40000000",
    "wikiDataId": null
  },
  {
    "id": 54551,
    "name": "Grad Slavonski Brod",
    "state_id": 737,
    "state_code": "12",
    "country_id": 55,
    "country_code": "HR",
    "latitude": "45.16267000",
    "longitude": "18.03062000",
    "wikiDataId": null
  },
  {
    "id": 54590,
    "name": "Gundinci",
    "state_id": 737,
    "state_code": "12",
    "country_id": 55,
    "country_code": "HR",
    "latitude": "45.15833000",
    "longitude": "18.49139000",
    "wikiDataId": null
  },
  {
    "id": 54661,
    "name": "Korenica",
    "state_id": 737,
    "state_code": "12",
    "country_id": 55,
    "country_code": "HR",
    "latitude": "45.22472000",
    "longitude": "18.16556000",
    "wikiDataId": null
  },
  {
    "id": 54672,
    "name": "Kruševica",
    "state_id": 737,
    "state_code": "12",
    "country_id": 55,
    "country_code": "HR",
    "latitude": "45.07750000",
    "longitude": "18.48278000",
    "wikiDataId": null
  },
  {
    "id": 54708,
    "name": "Lužani",
    "state_id": 737,
    "state_code": "12",
    "country_id": 55,
    "country_code": "HR",
    "latitude": "45.16806000",
    "longitude": "17.70694000",
    "wikiDataId": null
  },
  {
    "id": 54757,
    "name": "Nova Gradiška",
    "state_id": 737,
    "state_code": "12",
    "country_id": 55,
    "country_code": "HR",
    "latitude": "45.25500000",
    "longitude": "17.38306000",
    "wikiDataId": null
  },
  {
    "id": 54774,
    "name": "Okučani",
    "state_id": 737,
    "state_code": "12",
    "country_id": 55,
    "country_code": "HR",
    "latitude": "45.26034000",
    "longitude": "17.19925000",
    "wikiDataId": null
  },
  {
    "id": 54778,
    "name": "Oprisavci",
    "state_id": 737,
    "state_code": "12",
    "country_id": 55,
    "country_code": "HR",
    "latitude": "45.15111000",
    "longitude": "18.22972000",
    "wikiDataId": null
  },
  {
    "id": 54790,
    "name": "Oriovac",
    "state_id": 737,
    "state_code": "12",
    "country_id": 55,
    "country_code": "HR",
    "latitude": "45.16611000",
    "longitude": "17.76000000",
    "wikiDataId": null
  },
  {
    "id": 54819,
    "name": "Podvinje",
    "state_id": 737,
    "state_code": "12",
    "country_id": 55,
    "country_code": "HR",
    "latitude": "45.19028000",
    "longitude": "18.02694000",
    "wikiDataId": null
  },
  {
    "id": 54862,
    "name": "Rešetari",
    "state_id": 737,
    "state_code": "12",
    "country_id": 55,
    "country_code": "HR",
    "latitude": "45.26232000",
    "longitude": "17.42346000",
    "wikiDataId": null
  },
  {
    "id": 54874,
    "name": "Ruščica",
    "state_id": 737,
    "state_code": "12",
    "country_id": 55,
    "country_code": "HR",
    "latitude": "45.14667000",
    "longitude": "18.07944000",
    "wikiDataId": null
  },
  {
    "id": 54887,
    "name": "Sibinj",
    "state_id": 737,
    "state_code": "12",
    "country_id": 55,
    "country_code": "HR",
    "latitude": "45.19167000",
    "longitude": "17.90806000",
    "wikiDataId": null
  },
  {
    "id": 54889,
    "name": "Sikirevci",
    "state_id": 737,
    "state_code": "12",
    "country_id": 55,
    "country_code": "HR",
    "latitude": "45.10889000",
    "longitude": "18.46444000",
    "wikiDataId": null
  },
  {
    "id": 54897,
    "name": "Slavonski Brod",
    "state_id": 737,
    "state_code": "12",
    "country_id": 55,
    "country_code": "HR",
    "latitude": "45.16028000",
    "longitude": "18.01556000",
    "wikiDataId": null
  },
  {
    "id": 54899,
    "name": "Slobodnica",
    "state_id": 737,
    "state_code": "12",
    "country_id": 55,
    "country_code": "HR",
    "latitude": "45.16222000",
    "longitude": "17.93278000",
    "wikiDataId": null
  },
  {
    "id": 54910,
    "name": "Stari Perkovci",
    "state_id": 737,
    "state_code": "12",
    "country_id": 55,
    "country_code": "HR",
    "latitude": "45.21750000",
    "longitude": "18.34861000",
    "wikiDataId": null
  },
  {
    "id": 54957,
    "name": "Velika Kopanica",
    "state_id": 737,
    "state_code": "12",
    "country_id": 55,
    "country_code": "HR",
    "latitude": "45.15611000",
    "longitude": "18.39306000",
    "wikiDataId": null
  },
  {
    "id": 54995,
    "name": "Vrpolje",
    "state_id": 737,
    "state_code": "12",
    "country_id": 55,
    "country_code": "HR",
    "latitude": "45.21056000",
    "longitude": "18.40556000",
    "wikiDataId": null
  }
]