[
  {
    "id": 154996,
    "name": "Ducos",
    "state_id": 5400,
    "state_code": "03",
    "country_id": 138,
    "country_code": "MQ",
    "latitude": "14.57854420",
    "longitude": "-61.00973860",
    "wikiDataId": null
  },
  {
    "id": 154995,
    "name": "Le Diamant",
    "state_id": 5400,
    "state_code": "03",
    "country_id": 138,
    "country_code": "MQ",
    "latitude": "14.47680040",
    "longitude": "-61.05973840",
    "wikiDataId": null
  },
  {
    "id": 154997,
    "name": "Le François",
    "state_id": 5400,
    "state_code": "03",
    "country_id": 138,
    "country_code": "MQ",
    "latitude": "14.60928850",
    "longitude": "-60.97999110",
    "wikiDataId": null
  },
  {
    "id": 154998,
    "name": "Le Marin",
    "state_id": 5400,
    "state_code": "03",
    "country_id": 138,
    "country_code": "MQ",
    "latitude": "14.48221690",
    "longitude": "-60.90011410",
    "wikiDataId": null
  },
  {
    "id": 155005,
    "name": "Le Vauclin",
    "state_id": 5400,
    "state_code": "03",
    "country_id": 138,
    "country_code": "MQ",
    "latitude": "14.54208600",
    "longitude": "-60.90060060",
    "wikiDataId": null
  },
  {
    "id": 154994,
    "name": "Les Anses-d'Arlet",
    "state_id": 5400,
    "state_code": "03",
    "country_id": 138,
    "country_code": "MQ",
    "latitude": "14.49954780",
    "longitude": "-61.11481620",
    "wikiDataId": null
  },
  {
    "id": 155004,
    "name": "Les Trois-Îlets",
    "state_id": 5400,
    "state_code": "03",
    "country_id": 138,
    "country_code": "MQ",
    "latitude": "14.53287460",
    "longitude": "-61.07877690",
    "wikiDataId": null
  },
  {
    "id": 154999,
    "name": "Rivière-Pilote",
    "state_id": 5400,
    "state_code": "03",
    "country_id": 138,
    "country_code": "MQ",
    "latitude": "14.50266970",
    "longitude": "-60.93819210",
    "wikiDataId": null
  },
  {
    "id": 155000,
    "name": "Rivière-Salée",
    "state_id": 5400,
    "state_code": "03",
    "country_id": 138,
    "country_code": "MQ",
    "latitude": "14.52621400",
    "longitude": "-61.00353090",
    "wikiDataId": null
  },
  {
    "id": 155001,
    "name": "Saint-Esprit",
    "state_id": 5400,
    "state_code": "03",
    "country_id": 138,
    "country_code": "MQ",
    "latitude": "14.56175950",
    "longitude": "-60.96451110",
    "wikiDataId": null
  },
  {
    "id": 155002,
    "name": "Sainte-Anne",
    "state_id": 5400,
    "state_code": "03",
    "country_id": 138,
    "country_code": "MQ",
    "latitude": "14.43142200",
    "longitude": "-60.89278760",
    "wikiDataId": null
  },
  {
    "id": 155003,
    "name": "Sainte-Luce",
    "state_id": 5400,
    "state_code": "03",
    "country_id": 138,
    "country_code": "MQ",
    "latitude": "14.49040930",
    "longitude": "-60.98793650",
    "wikiDataId": null
  }
]