[
  {
    "id": 48189,
    "name": "Acklington",
    "state_id": 2365,
    "state_code": "NBL",
    "country_id": 232,
    "country_code": "GB",
    "latitude": "55.30000000",
    "longitude": "-1.63333000",
    "wikiDataId": null
  },
  {
    "id": 48226,
    "name": "Alnwick",
    "state_id": 2365,
    "state_code": "NBL",
    "country_id": 232,
    "country_code": "GB",
    "latitude": "55.41318000",
    "longitude": "-1.70563000",
    "wikiDataId": null
  },
  {
    "id": 48239,
    "name": "Amble",
    "state_id": 2365,
    "state_code": "NBL",
    "country_id": 232,
    "country_code": "GB",
    "latitude": "55.33333000",
    "longitude": "-1.58333000",
    "wikiDataId": null
  },
  {
    "id": 48364,
    "name": "Bamburgh",
    "state_id": 2365,
    "state_code": "NBL",
    "country_id": 232,
    "country_code": "GB",
    "latitude": "55.60652000",
    "longitude": "-1.71704000",
    "wikiDataId": null
  },
  {
    "id": 48437,
    "name": "Beadnell",
    "state_id": 2365,
    "state_code": "NBL",
    "country_id": 232,
    "country_code": "GB",
    "latitude": "55.55670000",
    "longitude": "-1.63250000",
    "wikiDataId": null
  },
  {
    "id": 48459,
    "name": "Belford",
    "state_id": 2365,
    "state_code": "NBL",
    "country_id": 232,
    "country_code": "GB",
    "latitude": "55.60000000",
    "longitude": "-1.83333000",
    "wikiDataId": null
  },
  {
    "id": 48461,
    "name": "Bellingham",
    "state_id": 2365,
    "state_code": "NBL",
    "country_id": 232,
    "country_code": "GB",
    "latitude": "55.14464000",
    "longitude": "-2.25383000",
    "wikiDataId": null
  },
  {
    "id": 49469,
    "name": "Embleton",
    "state_id": 2365,
    "state_code": "NBL",
    "country_id": 232,
    "country_code": "GB",
    "latitude": "55.49592000",
    "longitude": "-1.63619000",
    "wikiDataId": null
  },
  {
    "id": 49541,
    "name": "Felton",
    "state_id": 2365,
    "state_code": "NBL",
    "country_id": 232,
    "country_code": "GB",
    "latitude": "55.29768000",
    "longitude": "-1.71143000",
    "wikiDataId": null
  },
  {
    "id": 49777,
    "name": "Hadston",
    "state_id": 2365,
    "state_code": "NBL",
    "country_id": 232,
    "country_code": "GB",
    "latitude": "55.29428000",
    "longitude": "-1.60392000",
    "wikiDataId": null
  },
  {
    "id": 50284,
    "name": "Lesbury",
    "state_id": 2365,
    "state_code": "NBL",
    "country_id": 232,
    "country_code": "GB",
    "latitude": "55.39832000",
    "longitude": "-1.62830000",
    "wikiDataId": null
  },
  {
    "id": 50406,
    "name": "Longhorsley",
    "state_id": 2365,
    "state_code": "NBL",
    "country_id": 232,
    "country_code": "GB",
    "latitude": "55.24586000",
    "longitude": "-1.76914000",
    "wikiDataId": null
  },
  {
    "id": 50407,
    "name": "Longhoughton",
    "state_id": 2365,
    "state_code": "NBL",
    "country_id": 232,
    "country_code": "GB",
    "latitude": "55.43131000",
    "longitude": "-1.61691000",
    "wikiDataId": null
  },
  {
    "id": 50430,
    "name": "Lowick",
    "state_id": 2365,
    "state_code": "NBL",
    "country_id": 232,
    "country_code": "GB",
    "latitude": "55.65044000",
    "longitude": "-1.97809000",
    "wikiDataId": null
  },
  {
    "id": 50766,
    "name": "North Sunderland",
    "state_id": 2365,
    "state_code": "NBL",
    "country_id": 232,
    "country_code": "GB",
    "latitude": "55.57688000",
    "longitude": "-1.66436000",
    "wikiDataId": null
  },
  {
    "id": 50781,
    "name": "Northumberland",
    "state_id": 2365,
    "state_code": "NBL",
    "country_id": 232,
    "country_code": "GB",
    "latitude": "55.25000000",
    "longitude": "-2.00000000",
    "wikiDataId": null
  },
  {
    "id": 50825,
    "name": "Otterburn",
    "state_id": 2365,
    "state_code": "NBL",
    "country_id": 232,
    "country_code": "GB",
    "latitude": "55.23340000",
    "longitude": "-2.18059000",
    "wikiDataId": null
  },
  {
    "id": 51115,
    "name": "Rothbury",
    "state_id": 2365,
    "state_code": "NBL",
    "country_id": 232,
    "country_code": "GB",
    "latitude": "55.31059000",
    "longitude": "-1.90845000",
    "wikiDataId": null
  },
  {
    "id": 51223,
    "name": "Seahouses",
    "state_id": 2365,
    "state_code": "NBL",
    "country_id": 232,
    "country_code": "GB",
    "latitude": "55.58063000",
    "longitude": "-1.65497000",
    "wikiDataId": null
  },
  {
    "id": 51278,
    "name": "Shilbottle",
    "state_id": 2365,
    "state_code": "NBL",
    "country_id": 232,
    "country_code": "GB",
    "latitude": "55.37099000",
    "longitude": "-1.68820000",
    "wikiDataId": null
  },
  {
    "id": 51752,
    "name": "Warkworth",
    "state_id": 2365,
    "state_code": "NBL",
    "country_id": 232,
    "country_code": "GB",
    "latitude": "55.35000000",
    "longitude": "-1.61667000",
    "wikiDataId": null
  },
  {
    "id": 51881,
    "name": "Whittingham",
    "state_id": 2365,
    "state_code": "NBL",
    "country_id": 232,
    "country_code": "GB",
    "latitude": "55.40115000",
    "longitude": "-1.89340000",
    "wikiDataId": null
  },
  {
    "id": 51980,
    "name": "Wooler",
    "state_id": 2365,
    "state_code": "NBL",
    "country_id": 232,
    "country_code": "GB",
    "latitude": "55.54755000",
    "longitude": "-2.01186000",
    "wikiDataId": null
  }
]