[
  {
    "id": 104019,
    "name": "Åsele",
    "state_id": 1543,
    "state_code": "AC",
    "country_id": 213,
    "country_code": "SE",
    "latitude": "64.16026000",
    "longitude": "17.34762000",
    "wikiDataId": null
  },
  {
    "id": 103025,
    "name": "Backa",
    "state_id": 1543,
    "state_code": "AC",
    "country_id": 213,
    "country_code": "SE",
    "latitude": "64.98333000",
    "longitude": "21.06667000",
    "wikiDataId": null
  },
  {
    "id": 103044,
    "name": "Bjurholm",
    "state_id": 1543,
    "state_code": "AC",
    "country_id": 213,
    "country_code": "SE",
    "latitude": "63.93027000",
    "longitude": "19.21369000",
    "wikiDataId": null
  },
  {
    "id": 103063,
    "name": "Boliden",
    "state_id": 1543,
    "state_code": "AC",
    "country_id": 213,
    "country_code": "SE",
    "latitude": "64.86667000",
    "longitude": "20.38333000",
    "wikiDataId": null
  },
  {
    "id": 103098,
    "name": "Bureå",
    "state_id": 1543,
    "state_code": "AC",
    "country_id": 213,
    "country_code": "SE",
    "latitude": "64.61667000",
    "longitude": "21.20000000",
    "wikiDataId": null
  },
  {
    "id": 103100,
    "name": "Burträsk",
    "state_id": 1543,
    "state_code": "AC",
    "country_id": 213,
    "country_code": "SE",
    "latitude": "64.51667000",
    "longitude": "20.65000000",
    "wikiDataId": null
  },
  {
    "id": 103101,
    "name": "Byske",
    "state_id": 1543,
    "state_code": "AC",
    "country_id": 213,
    "country_code": "SE",
    "latitude": "64.95258000",
    "longitude": "21.20580000",
    "wikiDataId": null
  },
  {
    "id": 103125,
    "name": "Dorotea",
    "state_id": 1543,
    "state_code": "AC",
    "country_id": 213,
    "country_code": "SE",
    "latitude": "64.26185000",
    "longitude": "16.41306000",
    "wikiDataId": null
  },
  {
    "id": 103149,
    "name": "Ersmark",
    "state_id": 1543,
    "state_code": "AC",
    "country_id": 213,
    "country_code": "SE",
    "latitude": "63.88333000",
    "longitude": "20.31667000",
    "wikiDataId": null
  },
  {
    "id": 103176,
    "name": "Forsbacka",
    "state_id": 1543,
    "state_code": "AC",
    "country_id": 213,
    "country_code": "SE",
    "latitude": "64.76667000",
    "longitude": "20.50000000",
    "wikiDataId": null
  },
  {
    "id": 103296,
    "name": "Holmsund",
    "state_id": 1543,
    "state_code": "AC",
    "country_id": 213,
    "country_code": "SE",
    "latitude": "63.70602000",
    "longitude": "20.36409000",
    "wikiDataId": null
  },
  {
    "id": 103340,
    "name": "Hörnefors",
    "state_id": 1543,
    "state_code": "AC",
    "country_id": 213,
    "country_code": "SE",
    "latitude": "63.62312000",
    "longitude": "19.90856000",
    "wikiDataId": null
  },
  {
    "id": 103348,
    "name": "Insjön",
    "state_id": 1543,
    "state_code": "AC",
    "country_id": 213,
    "country_code": "SE",
    "latitude": "64.40000000",
    "longitude": "17.48333000",
    "wikiDataId": null
  },
  {
    "id": 103439,
    "name": "Kåge",
    "state_id": 1543,
    "state_code": "AC",
    "country_id": 213,
    "country_code": "SE",
    "latitude": "64.83571000",
    "longitude": "20.98453000",
    "wikiDataId": null
  },
  {
    "id": 103503,
    "name": "Långsele",
    "state_id": 1543,
    "state_code": "AC",
    "country_id": 213,
    "country_code": "SE",
    "latitude": "64.81667000",
    "longitude": "20.25000000",
    "wikiDataId": null
  },
  {
    "id": 103497,
    "name": "Lycksele",
    "state_id": 1543,
    "state_code": "AC",
    "country_id": 213,
    "country_code": "SE",
    "latitude": "64.59537000",
    "longitude": "18.67351000",
    "wikiDataId": null
  },
  {
    "id": 103520,
    "name": "Malå",
    "state_id": 1543,
    "state_code": "AC",
    "country_id": 213,
    "country_code": "SE",
    "latitude": "65.18501000",
    "longitude": "18.74243000",
    "wikiDataId": null
  },
  {
    "id": 103582,
    "name": "Nordmaling",
    "state_id": 1543,
    "state_code": "AC",
    "country_id": 213,
    "country_code": "SE",
    "latitude": "63.56852000",
    "longitude": "19.50244000",
    "wikiDataId": null
  },
  {
    "id": 103590,
    "name": "Norsjö",
    "state_id": 1543,
    "state_code": "AC",
    "country_id": 213,
    "country_code": "SE",
    "latitude": "64.91206000",
    "longitude": "19.48153000",
    "wikiDataId": null
  },
  {
    "id": 103606,
    "name": "Obbola",
    "state_id": 1543,
    "state_code": "AC",
    "country_id": 213,
    "country_code": "SE",
    "latitude": "63.70000000",
    "longitude": "20.31667000",
    "wikiDataId": null
  },
  {
    "id": 103671,
    "name": "Röbäck",
    "state_id": 1543,
    "state_code": "AC",
    "country_id": 213,
    "country_code": "SE",
    "latitude": "63.80879000",
    "longitude": "20.18901000",
    "wikiDataId": null
  },
  {
    "id": 103650,
    "name": "Robertsfors",
    "state_id": 1543,
    "state_code": "AC",
    "country_id": 213,
    "country_code": "SE",
    "latitude": "64.19324000",
    "longitude": "20.84806000",
    "wikiDataId": null
  },
  {
    "id": 103811,
    "name": "Sävar",
    "state_id": 1543,
    "state_code": "AC",
    "country_id": 213,
    "country_code": "SE",
    "latitude": "63.90383000",
    "longitude": "20.55014000",
    "wikiDataId": null
  },
  {
    "id": 103701,
    "name": "Skellefteå",
    "state_id": 1543,
    "state_code": "AC",
    "country_id": 213,
    "country_code": "SE",
    "latitude": "64.75067000",
    "longitude": "20.95279000",
    "wikiDataId": null
  },
  {
    "id": 103700,
    "name": "Skelleftehamn",
    "state_id": 1543,
    "state_code": "AC",
    "country_id": 213,
    "country_code": "SE",
    "latitude": "64.68333000",
    "longitude": "21.23333000",
    "wikiDataId": null
  },
  {
    "id": 103818,
    "name": "Söderfors",
    "state_id": 1543,
    "state_code": "AC",
    "country_id": 213,
    "country_code": "SE",
    "latitude": "64.81667000",
    "longitude": "18.05000000",
    "wikiDataId": null
  },
  {
    "id": 103741,
    "name": "Sorsele",
    "state_id": 1543,
    "state_code": "AC",
    "country_id": 213,
    "country_code": "SE",
    "latitude": "65.53484000",
    "longitude": "17.53702000",
    "wikiDataId": null
  },
  {
    "id": 103765,
    "name": "Storuman",
    "state_id": 1543,
    "state_code": "AC",
    "country_id": 213,
    "country_code": "SE",
    "latitude": "65.09590000",
    "longitude": "17.11731000",
    "wikiDataId": null
  },
  {
    "id": 103767,
    "name": "Storvik",
    "state_id": 1543,
    "state_code": "AC",
    "country_id": 213,
    "country_code": "SE",
    "latitude": "65.15000000",
    "longitude": "20.73333000",
    "wikiDataId": null
  },
  {
    "id": 103888,
    "name": "Täfteå",
    "state_id": 1543,
    "state_code": "AC",
    "country_id": 213,
    "country_code": "SE",
    "latitude": "63.83970000",
    "longitude": "20.47857000",
    "wikiDataId": null
  },
  {
    "id": 103898,
    "name": "Umeå",
    "state_id": 1543,
    "state_code": "AC",
    "country_id": 213,
    "country_code": "SE",
    "latitude": "63.82842000",
    "longitude": "20.25972000",
    "wikiDataId": null
  },
  {
    "id": 103906,
    "name": "Ursviken",
    "state_id": 1543,
    "state_code": "AC",
    "country_id": 213,
    "country_code": "SE",
    "latitude": "64.71261000",
    "longitude": "21.16580000",
    "wikiDataId": null
  },
  {
    "id": 103964,
    "name": "Vännäs",
    "state_id": 1543,
    "state_code": "AC",
    "country_id": 213,
    "country_code": "SE",
    "latitude": "63.90676000",
    "longitude": "19.75712000",
    "wikiDataId": null
  },
  {
    "id": 103966,
    "name": "Vännäsby",
    "state_id": 1543,
    "state_code": "AC",
    "country_id": 213,
    "country_code": "SE",
    "latitude": "63.91564000",
    "longitude": "19.82438000",
    "wikiDataId": null
  },
  {
    "id": 103942,
    "name": "Viken",
    "state_id": 1543,
    "state_code": "AC",
    "country_id": 213,
    "country_code": "SE",
    "latitude": "64.72587000",
    "longitude": "20.91548000",
    "wikiDataId": null
  },
  {
    "id": 103945,
    "name": "Vilhelmina",
    "state_id": 1543,
    "state_code": "AC",
    "country_id": 213,
    "country_code": "SE",
    "latitude": "64.62417000",
    "longitude": "16.65596000",
    "wikiDataId": null
  },
  {
    "id": 103949,
    "name": "Vindeln",
    "state_id": 1543,
    "state_code": "AC",
    "country_id": 213,
    "country_code": "SE",
    "latitude": "64.20175000",
    "longitude": "19.71945000",
    "wikiDataId": null
  }
]