[
  {
    "id": 2594,
    "name": "Addu",
    "country_id": 133,
    "country_code": "MV",
    "state_code": "01",
    "type": "city",
    "latitude": "-0.64149350",
    "longitude": "73.16299780",
    "iso3166_2": "MV-01",
    "native": "ދުޢާ",
    "timezone": "Indian/Maldives"
  },
  {
    "id": 2587,
    "name": "Alif Alif",
    "country_id": 133,
    "country_code": "MV",
    "state_code": "02",
    "type": "administrative atoll",
    "latitude": "4.43892360",
    "longitude": "72.87168540",
    "iso3166_2": "MV-02",
    "native": "އަލީފް އަލީފް",
    "timezone": "Indian/Maldives"
  },
  {
    "id": 2600,
    "name": "Alif Dhaal",
    "country_id": 133,
    "country_code": "MV",
    "state_code": "00",
    "type": "administrative atoll",
    "latitude": "3.61230260",
    "longitude": "72.85566300",
    "iso3166_2": "MV-00",
    "native": "އަލީފް ދަލް",
    "timezone": "Indian/Maldives"
  },
  {
    "id": 2604,
    "name": "Central",
    "country_id": 133,
    "country_code": "MV",
    "state_code": "CE",
    "type": "province",
    "latitude": "39.86291630",
    "longitude": "32.85410400",
    "iso3166_2": "MV-CE",
    "native": "ސެންޓްރަލް",
    "timezone": "Indian/Maldives"
  },
  {
    "id": 2590,
    "name": "Dhaalu",
    "country_id": 133,
    "country_code": "MV",
    "state_code": "17",
    "type": "administrative atoll",
    "latitude": "2.84734540",
    "longitude": "72.90295260",
    "iso3166_2": "MV-17",
    "native": "ދައުލޫ",
    "timezone": "Indian/Maldives"
  },
  {
    "id": 2599,
    "name": "Faafu",
    "country_id": 133,
    "country_code": "MV",
    "state_code": "14",
    "type": "administrative atoll",
    "latitude": "3.13149090",
    "longitude": "72.88435670",
    "iso3166_2": "MV-14",
    "native": "ފައު",
    "timezone": "Indian/Maldives"
  },
  {
    "id": 2598,
    "name": "Gaafu Alif",
    "country_id": 133,
    "country_code": "MV",
    "state_code": "27",
    "type": "administrative atoll",
    "latitude": "0.98295270",
    "longitude": "73.27809390",
    "iso3166_2": "MV-27",
    "native": "އެ ސުވާލު އަލިފް",
    "timezone": "Indian/Maldives"
  },
  {
    "id": 2603,
    "name": "Gaafu Dhaalu",
    "country_id": 133,
    "country_code": "MV",
    "state_code": "28",
    "type": "administrative atoll",
    "latitude": "0.30417830",
    "longitude": "73.21247460",
    "iso3166_2": "MV-28",
    "native": "އެމީހުންނަށް ވާރުތަވާ ސުވާލު",
    "timezone": "Indian/Maldives"
  },
  {
    "id": 2595,
    "name": "Gnaviyani",
    "country_id": 133,
    "country_code": "MV",
    "state_code": "29",
    "type": "administrative atoll",
    "latitude": "-0.20532640",
    "longitude": "73.25698680",
    "iso3166_2": "MV-29",
    "native": "ގްނާވިއަން",
    "timezone": "Indian/Maldives"
  },
  {
    "id": 2586,
    "name": "Haa Alif",
    "country_id": 133,
    "country_code": "MV",
    "state_code": "07",
    "type": "administrative atoll",
    "latitude": "7.06072960",
    "longitude": "72.98966280",
    "iso3166_2": "MV-07",
    "native": "ހާ އަލިފް",
    "timezone": "Indian/Maldives"
  },
  {
    "id": 2597,
    "name": "Haa Dhaalu",
    "country_id": 133,
    "country_code": "MV",
    "state_code": "23",
    "type": "administrative atoll",
    "latitude": "6.44990100",
    "longitude": "72.62648990",
    "iso3166_2": "MV-23",
    "native": "އޭނާއަށް ވާރުތަވާށިއެވެ .",
    "timezone": "Indian/Maldives"
  },
  {
    "id": 2596,
    "name": "Kaafu",
    "country_id": 133,
    "country_code": "MV",
    "state_code": "26",
    "type": "administrative atoll",
    "latitude": "4.35429900",
    "longitude": "73.57600320",
    "iso3166_2": "MV-26",
    "native": "ކައިފީ",
    "timezone": "Indian/Maldives"
  },
  {
    "id": 2601,
    "name": "Laamu",
    "country_id": 133,
    "country_code": "MV",
    "state_code": "05",
    "type": "administrative atoll",
    "latitude": "1.88994180",
    "longitude": "73.31400270",
    "iso3166_2": "MV-05",
    "native": "ސަރުކާރު",
    "timezone": "Indian/Maldives"
  },
  {
    "id": 2607,
    "name": "Lhaviyani",
    "country_id": 133,
    "country_code": "MV",
    "state_code": "03",
    "type": "administrative atoll",
    "latitude": "5.39925440",
    "longitude": "73.52739240",
    "iso3166_2": "MV-03",
    "native": "ލަހަވާނީ",
    "timezone": "Indian/Maldives"
  },
  {
    "id": 2609,
    "name": "Malé",
    "country_id": 133,
    "country_code": "MV",
    "state_code": "MLE",
    "type": "administrative atoll",
    "latitude": "4.17798790",
    "longitude": "73.51073870",
    "iso3166_2": "MV-MLE",
    "native": "ކުޑަ",
    "timezone": "Indian/Maldives"
  },
  {
    "id": 2608,
    "name": "Meemu",
    "country_id": 133,
    "country_code": "MV",
    "state_code": "12",
    "type": "administrative atoll",
    "latitude": "2.78780940",
    "longitude": "73.53429870",
    "iso3166_2": "MV-12",
    "native": "މީމު",
    "timezone": "Indian/Maldives"
  },
  {
    "id": 2592,
    "name": "Noonu",
    "country_id": 133,
    "country_code": "MV",
    "state_code": "25",
    "type": "administrative atoll",
    "latitude": "5.78675500",
    "longitude": "73.41843360",
    "iso3166_2": "MV-25",
    "native": "ނޫނޫނެވެ",
    "timezone": "Indian/Maldives"
  },
  {
    "id": 2589,
    "name": "North Central",
    "country_id": 133,
    "country_code": "MV",
    "state_code": "NC",
    "type": "province",
    "latitude": "3.94102320",
    "longitude": "73.48984850",
    "iso3166_2": "MV-NC",
    "native": "ނޯތު ސެންޓްރަލް",
    "timezone": "Indian/Maldives"
  },
  {
    "id": 2602,
    "name": "Raa",
    "country_id": 133,
    "country_code": "MV",
    "state_code": "13",
    "type": "administrative atoll",
    "latitude": "5.66094850",
    "longitude": "72.76816450",
    "iso3166_2": "MV-13",
    "native": "ރާ",
    "timezone": "Indian/Maldives"
  },
  {
    "id": 2585,
    "name": "Shaviyani",
    "country_id": 133,
    "country_code": "MV",
    "state_code": "24",
    "type": "administrative atoll",
    "latitude": "6.33229970",
    "longitude": "73.23246350",
    "iso3166_2": "MV-24",
    "native": "ލޮނު",
    "timezone": "Indian/Maldives"
  },
  {
    "id": 2605,
    "name": "South",
    "country_id": 133,
    "country_code": "MV",
    "state_code": "SU",
    "type": "province",
    "latitude": "2.74096980",
    "longitude": "73.01774140",
    "iso3166_2": "MV-SU",
    "native": "ދެކުނު",
    "timezone": "Indian/Maldives"
  },
  {
    "id": 2606,
    "name": "South Central",
    "country_id": 133,
    "country_code": "MV",
    "state_code": "SC",
    "type": "province",
    "latitude": "2.17076980",
    "longitude": "72.91687870",
    "iso3166_2": "MV-SC",
    "native": "ސައުތު ސެންޓްރަލް",
    "timezone": "Indian/Maldives"
  },
  {
    "id": 2591,
    "name": "Thaa",
    "country_id": 133,
    "country_code": "MV",
    "state_code": "08",
    "type": "administrative atoll",
    "latitude": "2.14616550",
    "longitude": "73.02882450",
    "iso3166_2": "MV-08",
    "native": "ތައާ",
    "timezone": "Indian/Maldives"
  },
  {
    "id": 2593,
    "name": "Upper South",
    "country_id": 133,
    "country_code": "MV",
    "state_code": "US",
    "type": "province",
    "latitude": "0.23070000",
    "longitude": "73.27948460",
    "iso3166_2": "MV-US",
    "native": "މަތީ ދެކުނު",
    "timezone": "Indian/Maldives"
  },
  {
    "id": 2584,
    "name": "Vaavu",
    "country_id": 133,
    "country_code": "MV",
    "state_code": "04",
    "type": "administrative atoll",
    "latitude": "3.61524920",
    "longitude": "73.58699860",
    "iso3166_2": "MV-04",
    "native": "ހެދުން",
    "timezone": "Indian/Maldives"
  }
]