[
  {
    "id": 129902,
    "name": "Beruniy",
    "state_id": 2548,
    "state_code": "QR",
    "country_id": 236,
    "country_code": "UZ",
    "latitude": "41.69111000",
    "longitude": "60.75250000",
    "wikiDataId": null
  },
  {
    "id": 129944,
    "name": "Kegeyli Shahar",
    "state_id": 2548,
    "state_code": "QR",
    "country_id": 236,
    "country_code": "UZ",
    "latitude": "42.77667000",
    "longitude": "59.60778000",
    "wikiDataId": null
  },
  {
    "id": 129947,
    "name": "Khŭjayli",
    "state_id": 2548,
    "state_code": "QR",
    "country_id": 236,
    "country_code": "UZ",
    "latitude": "42.40043000",
    "longitude": "59.46005000",
    "wikiDataId": null
  },
  {
    "id": 129954,
    "name": "Manghit",
    "state_id": 2548,
    "state_code": "QR",
    "country_id": 236,
    "country_code": "UZ",
    "latitude": "42.11556000",
    "longitude": "60.05972000",
    "wikiDataId": null
  },
  {
    "id": 129959,
    "name": "Mŭynoq",
    "state_id": 2548,
    "state_code": "QR",
    "country_id": 236,
    "country_code": "UZ",
    "latitude": "43.76833000",
    "longitude": "59.02139000",
    "wikiDataId": null
  },
  {
    "id": 129963,
    "name": "Novyy Turtkul’",
    "state_id": 2548,
    "state_code": "QR",
    "country_id": 236,
    "country_code": "UZ",
    "latitude": "41.55000000",
    "longitude": "61.01667000",
    "wikiDataId": null
  },
  {
    "id": 129964,
    "name": "Nukus",
    "state_id": 2548,
    "state_code": "QR",
    "country_id": 236,
    "country_code": "UZ",
    "latitude": "42.45306000",
    "longitude": "59.61028000",
    "wikiDataId": null
  },
  {
    "id": 129970,
    "name": "Oltinko‘l",
    "state_id": 2548,
    "state_code": "QR",
    "country_id": 236,
    "country_code": "UZ",
    "latitude": "43.06874000",
    "longitude": "58.90372000",
    "wikiDataId": null
  }
]