[
  {
    "id": 82380,
    "name": "Baliguian",
    "state_id": 1302,
    "state_code": "ZAN",
    "country_id": 174,
    "country_code": "PH",
    "latitude": "7.82305300",
    "longitude": "122.26409910",
    "wikiDataId": null
  },
  {
    "id": 82381,
    "name": "Dapitan",
    "state_id": 1302,
    "state_code": "ZAN",
    "country_id": 174,
    "country_code": "PH",
    "latitude": "8.57700720",
    "longitude": "123.26873100",
    "wikiDataId": null
  },
  {
    "id": 82444,
    "name": "Dipolog",
    "state_id": 1302,
    "state_code": "ZAN",
    "country_id": 174,
    "country_code": "PH",
    "latitude": "8.50856760",
    "longitude": "123.27535230",
    "wikiDataId": null
  },
  {
    "id": 154847,
    "name": "Godod",
    "state_id": 1302,
    "state_code": "ZAN",
    "country_id": 174,
    "country_code": "PH",
    "latitude": "7.98032130",
    "longitude": "122.66062060",
    "wikiDataId": null
  },
  {
    "id": 82660,
    "name": "Gutalac",
    "state_id": 1302,
    "state_code": "ZAN",
    "country_id": 174,
    "country_code": "PH",
    "latitude": "7.92708590",
    "longitude": "122.18988210",
    "wikiDataId": null
  },
  {
    "id": 154848,
    "name": "Jose Dalman",
    "state_id": 1302,
    "state_code": "ZAN",
    "country_id": 174,
    "country_code": "PH",
    "latitude": "8.40066740",
    "longitude": "122.90296350",
    "wikiDataId": null
  },
  {
    "id": 82844,
    "name": "Kalawit",
    "state_id": 1302,
    "state_code": "ZAN",
    "country_id": 174,
    "country_code": "PH",
    "latitude": "7.90949500",
    "longitude": "122.36049210",
    "wikiDataId": null
  },
  {
    "id": 82880,
    "name": "Katipunan",
    "state_id": 1302,
    "state_code": "ZAN",
    "country_id": 174,
    "country_code": "PH",
    "latitude": "8.43463170",
    "longitude": "123.13998500",
    "wikiDataId": null
  },
  {
    "id": 154849,
    "name": "La Libertad",
    "state_id": 1302,
    "state_code": "ZAN",
    "country_id": 174,
    "country_code": "PH",
    "latitude": "8.47784130",
    "longitude": "123.49332240",
    "wikiDataId": null
  },
  {
    "id": 82958,
    "name": "Labason",
    "state_id": 1302,
    "state_code": "ZAN",
    "country_id": 174,
    "country_code": "PH",
    "latitude": "8.05714820",
    "longitude": "122.36175820",
    "wikiDataId": null
  },
  {
    "id": 154850,
    "name": "Leon B. Postigo",
    "state_id": 1302,
    "state_code": "ZAN",
    "country_id": 174,
    "country_code": "PH",
    "latitude": "8.05754150",
    "longitude": "122.86997390",
    "wikiDataId": null
  },
  {
    "id": 83113,
    "name": "Liloy",
    "state_id": 1302,
    "state_code": "ZAN",
    "country_id": 174,
    "country_code": "PH",
    "latitude": "8.09758210",
    "longitude": "122.59801940",
    "wikiDataId": null
  },
  {
    "id": 83545,
    "name": "Manukan",
    "state_id": 1302,
    "state_code": "ZAN",
    "country_id": 174,
    "country_code": "PH",
    "latitude": "8.41864590",
    "longitude": "123.03112110",
    "wikiDataId": null
  },
  {
    "id": 154851,
    "name": "Mutia",
    "state_id": 1302,
    "state_code": "ZAN",
    "country_id": 174,
    "country_code": "PH",
    "latitude": "8.38928300",
    "longitude": "123.42478350",
    "wikiDataId": null
  },
  {
    "id": 154852,
    "name": "Piñan",
    "state_id": 1302,
    "state_code": "ZAN",
    "country_id": 174,
    "country_code": "PH",
    "latitude": "8.42077890",
    "longitude": "123.37813450",
    "wikiDataId": null
  },
  {
    "id": 84142,
    "name": "Polanco",
    "state_id": 1302,
    "state_code": "ZAN",
    "country_id": 174,
    "country_code": "PH",
    "latitude": "8.47426640",
    "longitude": "123.31989830",
    "wikiDataId": null
  },
  {
    "id": 154853,
    "name": "President Manuel A. Roxas",
    "state_id": 1302,
    "state_code": "ZAN",
    "country_id": 174,
    "country_code": "PH",
    "latitude": "8.44009000",
    "longitude": "123.13274450",
    "wikiDataId": null
  },
  {
    "id": 154854,
    "name": "Rizal",
    "state_id": 1302,
    "state_code": "ZAN",
    "country_id": 174,
    "country_code": "PH",
    "latitude": "8.57176310",
    "longitude": "123.49207780",
    "wikiDataId": null
  },
  {
    "id": 84415,
    "name": "Salug",
    "state_id": 1302,
    "state_code": "ZAN",
    "country_id": 174,
    "country_code": "PH",
    "latitude": "8.08479540",
    "longitude": "122.71702360",
    "wikiDataId": null
  },
  {
    "id": 154855,
    "name": "Sergio Osmeña Sr.",
    "state_id": 1302,
    "state_code": "ZAN",
    "country_id": 174,
    "country_code": "PH",
    "latitude": "8.28119810",
    "longitude": "123.03393440",
    "wikiDataId": null
  },
  {
    "id": 84767,
    "name": "Siayan",
    "state_id": 1302,
    "state_code": "ZAN",
    "country_id": 174,
    "country_code": "PH",
    "latitude": "8.14239820",
    "longitude": "122.93553630",
    "wikiDataId": null
  },
  {
    "id": 84773,
    "name": "Sibuco",
    "state_id": 1302,
    "state_code": "ZAN",
    "country_id": 174,
    "country_code": "PH",
    "latitude": "7.32205300",
    "longitude": "121.89981740",
    "wikiDataId": null
  },
  {
    "id": 154856,
    "name": "Sibutad",
    "state_id": 1302,
    "state_code": "ZAN",
    "country_id": 174,
    "country_code": "PH",
    "latitude": "8.61753740",
    "longitude": "123.40341160",
    "wikiDataId": null
  },
  {
    "id": 84813,
    "name": "Sindangan",
    "state_id": 1302,
    "state_code": "ZAN",
    "country_id": 174,
    "country_code": "PH",
    "latitude": "8.25232670",
    "longitude": "122.86009110",
    "wikiDataId": null
  },
  {
    "id": 84823,
    "name": "Siocon",
    "state_id": 1302,
    "state_code": "ZAN",
    "country_id": 174,
    "country_code": "PH",
    "latitude": "7.70006280",
    "longitude": "122.03508650",
    "wikiDataId": null
  },
  {
    "id": 154857,
    "name": "Sirawai",
    "state_id": 1302,
    "state_code": "ZAN",
    "country_id": 174,
    "country_code": "PH",
    "latitude": "7.54208790",
    "longitude": "122.00684820",
    "wikiDataId": null
  },
  {
    "id": 85025,
    "name": "Tampilisan",
    "state_id": 1302,
    "state_code": "ZAN",
    "country_id": 174,
    "country_code": "PH",
    "latitude": "7.97363090",
    "longitude": "122.59574480",
    "wikiDataId": null
  }
]