[
  {
    "id": 2994,
    "name": "Barlavento Islands",
    "country_id": 40,
    "country_code": "CV",
    "state_code": "B",
    "type": "geographical region",
    "latitude": "17.05552850",
    "longitude": "-25.17230490",
    "iso3166_2": "CV-B",
    "native": "Barlavento Islands",
    "timezone": "Atlantic/Cape_Verde"
  },
  {
    "id": 2999,
    "name": "Boa Vista",
    "country_id": 40,
    "country_code": "CV",
    "state_code": "BV",
    "type": "municipality",
    "latitude": "16.09950900",
    "longitude": "-22.80094110",
    "iso3166_2": "CV-BV",
    "native": "Boa Vista",
    "timezone": "Atlantic/Cape_Verde"
  },
  {
    "id": 2996,
    "name": "Brava",
    "country_id": 40,
    "country_code": "CV",
    "state_code": "BR",
    "type": "municipality",
    "latitude": "14.85194260",
    "longitude": "-24.70869390",
    "iso3166_2": "CV-BR",
    "native": "Brava",
    "timezone": "Atlantic/Cape_Verde"
  },
  {
    "id": 2991,
    "name": "Maio",
    "country_id": 40,
    "country_code": "CV",
    "state_code": "MA",
    "type": "municipality",
    "latitude": "15.22721820",
    "longitude": "-23.15630140",
    "iso3166_2": "CV-MA",
    "native": "Maio",
    "timezone": "Atlantic/Cape_Verde"
  },
  {
    "id": 2987,
    "name": "Mosteiros",
    "country_id": 40,
    "country_code": "CV",
    "state_code": "MO",
    "type": "municipality",
    "latitude": "15.03472570",
    "longitude": "-24.32774210",
    "iso3166_2": "CV-MO",
    "native": "Mosteiros",
    "timezone": "Atlantic/Cape_Verde"
  },
  {
    "id": 2997,
    "name": "Paul",
    "country_id": 40,
    "country_code": "CV",
    "state_code": "PA",
    "type": "municipality",
    "latitude": "17.11502950",
    "longitude": "-25.02015890",
    "iso3166_2": "CV-PA",
    "native": "Paul",
    "timezone": "Atlantic/Cape_Verde"
  },
  {
    "id": 2989,
    "name": "Porto Novo",
    "country_id": 40,
    "country_code": "CV",
    "state_code": "PN",
    "type": "municipality",
    "latitude": "17.01934230",
    "longitude": "-25.06419220",
    "iso3166_2": "CV-PN",
    "native": "Porto Novo",
    "timezone": "Atlantic/Cape_Verde"
  },
  {
    "id": 2988,
    "name": "Praia",
    "country_id": 40,
    "country_code": "CV",
    "state_code": "PR",
    "type": "municipality",
    "latitude": "14.94812010",
    "longitude": "-23.51589450",
    "iso3166_2": "CV-PR",
    "native": "Praia",
    "timezone": "Atlantic/Cape_Verde"
  },
  {
    "id": 2982,
    "name": "Ribeira Brava",
    "country_id": 40,
    "country_code": "CV",
    "state_code": "RB",
    "type": "municipality",
    "latitude": "16.61572800",
    "longitude": "-24.29825430",
    "iso3166_2": "CV-RB",
    "native": "Ribeira Brava",
    "timezone": "Atlantic/Cape_Verde"
  },
  {
    "id": 3002,
    "name": "Ribeira Grande",
    "country_id": 40,
    "country_code": "CV",
    "state_code": "RG",
    "type": "municipality",
    "latitude": "17.18335470",
    "longitude": "-25.06437950",
    "iso3166_2": "CV-RG",
    "native": "Ribeira Grande",
    "timezone": "Atlantic/Cape_Verde"
  },
  {
    "id": 2984,
    "name": "Ribeira Grande de Santiago",
    "country_id": 40,
    "country_code": "CV",
    "state_code": "RS",
    "type": "municipality",
    "latitude": "14.98302980",
    "longitude": "-23.65617250",
    "iso3166_2": "CV-RS",
    "native": "Ribeira Grande de Santiago",
    "timezone": "Atlantic/Cape_Verde"
  },
  {
    "id": 2998,
    "name": "Sal",
    "country_id": 40,
    "country_code": "CV",
    "state_code": "SL",
    "type": "municipality",
    "latitude": "16.72045560",
    "longitude": "-22.93867610",
    "iso3166_2": "CV-SL",
    "native": "Sal",
    "timezone": "Atlantic/Cape_Verde"
  },
  {
    "id": 2985,
    "name": "Santa Catarina",
    "country_id": 40,
    "country_code": "CV",
    "state_code": "CA",
    "type": "municipality",
    "latitude": "15.08907540",
    "longitude": "-23.71343040",
    "iso3166_2": "CV-CA",
    "native": "Santa Catarina",
    "timezone": "Atlantic/Cape_Verde"
  },
  {
    "id": 2995,
    "name": "Santa Catarina do Fogo",
    "country_id": 40,
    "country_code": "CV",
    "state_code": "CF",
    "type": "municipality",
    "latitude": "14.90225450",
    "longitude": "-24.32125790",
    "iso3166_2": "CV-CF",
    "native": "Santa Catarina do Fogo",
    "timezone": "Atlantic/Cape_Verde"
  },
  {
    "id": 3004,
    "name": "Santa Cruz",
    "country_id": 40,
    "country_code": "CV",
    "state_code": "CR",
    "type": "municipality",
    "latitude": "15.13239320",
    "longitude": "-23.55768190",
    "iso3166_2": "CV-CR",
    "native": "Santa Cruz",
    "timezone": "Atlantic/Cape_Verde"
  },
  {
    "id": 2986,
    "name": "São Domingos",
    "country_id": 40,
    "country_code": "CV",
    "state_code": "SD",
    "type": "municipality",
    "latitude": "15.02861650",
    "longitude": "-23.56392200",
    "iso3166_2": "CV-SD",
    "native": "São Domingos",
    "timezone": "Atlantic/Cape_Verde"
  },
  {
    "id": 3000,
    "name": "São Filipe",
    "country_id": 40,
    "country_code": "CV",
    "state_code": "SF",
    "type": "municipality",
    "latitude": "14.89516790",
    "longitude": "-24.49456360",
    "iso3166_2": "CV-SF",
    "native": "São Filipe",
    "timezone": "Atlantic/Cape_Verde"
  },
  {
    "id": 2993,
    "name": "São Lourenço dos Órgãos",
    "country_id": 40,
    "country_code": "CV",
    "state_code": "SO",
    "type": "municipality",
    "latitude": "15.07094420",
    "longitude": "-23.58651310",
    "iso3166_2": "CV-SO",
    "native": "São Lourenço dos Órgãos",
    "timezone": "Atlantic/Cape_Verde"
  },
  {
    "id": 2990,
    "name": "São Miguel",
    "country_id": 40,
    "country_code": "CV",
    "state_code": "SM",
    "type": "municipality",
    "latitude": "15.18996620",
    "longitude": "-23.64204860",
    "iso3166_2": "CV-SM",
    "native": "São Miguel",
    "timezone": "Atlantic/Cape_Verde"
  },
  {
    "id": 3001,
    "name": "São Vicente",
    "country_id": 40,
    "country_code": "CV",
    "state_code": "SV",
    "type": "municipality",
    "latitude": "16.84944120",
    "longitude": "-24.97187920",
    "iso3166_2": "CV-SV",
    "native": "São Vicente",
    "timezone": "Atlantic/Cape_Verde"
  },
  {
    "id": 2992,
    "name": "Sotavento Islands",
    "country_id": 40,
    "country_code": "CV",
    "state_code": "S",
    "type": "geographical region",
    "latitude": "15.12007580",
    "longitude": "-23.63481810",
    "iso3166_2": "CV-S",
    "native": "Ilhas das Ilhas Sotavent",
    "timezone": "Atlantic/Cape_Verde"
  },
  {
    "id": 2983,
    "name": "Tarrafal",
    "country_id": 40,
    "country_code": "CV",
    "state_code": "TA",
    "type": "municipality",
    "latitude": "15.27605780",
    "longitude": "-23.74840770",
    "iso3166_2": "CV-TA",
    "native": "Tarrafal",
    "timezone": "Atlantic/Cape_Verde"
  },
  {
    "id": 3003,
    "name": "Tarrafal de São Nicolau",
    "country_id": 40,
    "country_code": "CV",
    "state_code": "TS",
    "type": "municipality",
    "latitude": "16.56364980",
    "longitude": "-24.35494200",
    "iso3166_2": "CV-TS",
    "native": "Tarrafal de São Nicolau",
    "timezone": "Atlantic/Cape_Verde"
  }
]