[
  {
    "id": 48219,
    "name": "Alfreton",
    "state_id": 2403,
    "state_code": "DBY",
    "country_id": 232,
    "country_code": "GB",
    "latitude": "53.09766000",
    "longitude": "-1.38376000",
    "wikiDataId": null
  },
  {
    "id": 48287,
    "name": "Ashbourne",
    "state_id": 2403,
    "state_code": "DBY",
    "country_id": 232,
    "country_code": "GB",
    "latitude": "53.01667000",
    "longitude": "-1.73333000",
    "wikiDataId": null
  },
  {
    "id": 48465,
    "name": "Belper",
    "state_id": 2403,
    "state_code": "DBY",
    "country_id": 232,
    "country_code": "GB",
    "latitude": "53.02330000",
    "longitude": "-1.48119000",
    "wikiDataId": null
  },
  {
    "id": 48551,
    "name": "Blackwell",
    "state_id": 2403,
    "state_code": "DBY",
    "country_id": 232,
    "country_code": "GB",
    "latitude": "53.11667000",
    "longitude": "-1.33333000",
    "wikiDataId": null
  },
  {
    "id": 49167,
    "name": "Cromford",
    "state_id": 2403,
    "state_code": "DBY",
    "country_id": 232,
    "country_code": "GB",
    "latitude": "53.10848000",
    "longitude": "-1.56014000",
    "wikiDataId": null
  },
  {
    "id": 49336,
    "name": "Duffield",
    "state_id": 2403,
    "state_code": "DBY",
    "country_id": 232,
    "country_code": "GB",
    "latitude": "52.98627000",
    "longitude": "-1.48865000",
    "wikiDataId": null
  },
  {
    "id": 49491,
    "name": "Etwall",
    "state_id": 2403,
    "state_code": "DBY",
    "country_id": 232,
    "country_code": "GB",
    "latitude": "52.88353000",
    "longitude": "-1.60023000",
    "wikiDataId": null
  },
  {
    "id": 49873,
    "name": "Heage",
    "state_id": 2403,
    "state_code": "DBY",
    "country_id": 232,
    "country_code": "GB",
    "latitude": "53.05050000",
    "longitude": "-1.44688000",
    "wikiDataId": null
  },
  {
    "id": 50141,
    "name": "Kilburn",
    "state_id": 2403,
    "state_code": "DBY",
    "country_id": 232,
    "country_code": "GB",
    "latitude": "53.00580000",
    "longitude": "-1.43869000",
    "wikiDataId": null
  },
  {
    "id": 50327,
    "name": "Little Eaton",
    "state_id": 2403,
    "state_code": "DBY",
    "country_id": 232,
    "country_code": "GB",
    "latitude": "52.97028000",
    "longitude": "-1.45950000",
    "wikiDataId": null
  },
  {
    "id": 50526,
    "name": "Matlock",
    "state_id": 2403,
    "state_code": "DBY",
    "country_id": 232,
    "country_code": "GB",
    "latitude": "53.13838000",
    "longitude": "-1.55560000",
    "wikiDataId": null
  },
  {
    "id": 50532,
    "name": "Mayfield",
    "state_id": 2403,
    "state_code": "DBY",
    "country_id": 232,
    "country_code": "GB",
    "latitude": "53.00000000",
    "longitude": "-1.76667000",
    "wikiDataId": null
  },
  {
    "id": 50911,
    "name": "Pilsley",
    "state_id": 2403,
    "state_code": "DBY",
    "country_id": 232,
    "country_code": "GB",
    "latitude": "53.15000000",
    "longitude": "-1.36667000",
    "wikiDataId": null
  },
  {
    "id": 50915,
    "name": "Pinxton",
    "state_id": 2403,
    "state_code": "DBY",
    "country_id": 232,
    "country_code": "GB",
    "latitude": "53.09062000",
    "longitude": "-1.31767000",
    "wikiDataId": null
  },
  {
    "id": 51085,
    "name": "Ripley",
    "state_id": 2403,
    "state_code": "DBY",
    "country_id": 232,
    "country_code": "GB",
    "latitude": "53.03333000",
    "longitude": "-1.40000000",
    "wikiDataId": null
  },
  {
    "id": 51289,
    "name": "Shirland",
    "state_id": 2403,
    "state_code": "DBY",
    "country_id": 232,
    "country_code": "GB",
    "latitude": "53.12155000",
    "longitude": "-1.40464000",
    "wikiDataId": null
  },
  {
    "id": 51367,
    "name": "South Wingfield",
    "state_id": 2403,
    "state_code": "DBY",
    "country_id": 232,
    "country_code": "GB",
    "latitude": "53.09593000",
    "longitude": "-1.43998000",
    "wikiDataId": null
  },
  {
    "id": 51557,
    "name": "Tansley",
    "state_id": 2403,
    "state_code": "DBY",
    "country_id": 232,
    "country_code": "GB",
    "latitude": "53.13197000",
    "longitude": "-1.51882000",
    "wikiDataId": null
  },
  {
    "id": 51617,
    "name": "Tibshelf",
    "state_id": 2403,
    "state_code": "DBY",
    "country_id": 232,
    "country_code": "GB",
    "latitude": "53.14436000",
    "longitude": "-1.34056000",
    "wikiDataId": null
  },
  {
    "id": 51940,
    "name": "Wirksworth",
    "state_id": 2403,
    "state_code": "DBY",
    "country_id": 232,
    "country_code": "GB",
    "latitude": "53.08232000",
    "longitude": "-1.57391000",
    "wikiDataId": null
  }
]