[
  {
    "id": 10087,
    "name": "Afonso Cláudio",
    "state_id": 2018,
    "state_code": "ES",
    "country_id": 31,
    "country_code": "BR",
    "latitude": "-20.10512000",
    "longitude": "-41.12422000",
    "wikiDataId": null
  },
  {
    "id": 15658,
    "name": "Água Doce do Norte",
    "state_id": 2018,
    "state_code": "ES",
    "country_id": 31,
    "country_code": "BR",
    "latitude": "-18.50646000",
    "longitude": "-40.99190000",
    "wikiDataId": null
  },
  {
    "id": 15676,
    "name": "Águia Branca",
    "state_id": 2018,
    "state_code": "ES",
    "country_id": 31,
    "country_code": "BR",
    "latitude": "-18.98306000",
    "longitude": "-40.74028000",
    "wikiDataId": null
  },
  {
    "id": 10123,
    "name": "Alegre",
    "state_id": 2018,
    "state_code": "ES",
    "country_id": 31,
    "country_code": "BR",
    "latitude": "-20.70897000",
    "longitude": "-41.51937000",
    "wikiDataId": null
  },
  {
    "id": 10131,
    "name": "Alfredo Chaves",
    "state_id": 2018,
    "state_code": "ES",
    "country_id": 31,
    "country_code": "BR",
    "latitude": "-20.54245000",
    "longitude": "-40.82368000",
    "wikiDataId": null
  },
  {
    "id": 10182,
    "name": "Alto Rio Novo",
    "state_id": 2018,
    "state_code": "ES",
    "country_id": 31,
    "country_code": "BR",
    "latitude": "-19.03248000",
    "longitude": "-40.99144000",
    "wikiDataId": null
  },
  {
    "id": 10240,
    "name": "Anchieta",
    "state_id": 2018,
    "state_code": "ES",
    "country_id": 31,
    "country_code": "BR",
    "latitude": "-20.73420000",
    "longitude": "-40.70056000",
    "wikiDataId": null
  },
  {
    "id": 10292,
    "name": "Apiacá",
    "state_id": 2018,
    "state_code": "ES",
    "country_id": 31,
    "country_code": "BR",
    "latitude": "-21.08025000",
    "longitude": "-41.56100000",
    "wikiDataId": null
  },
  {
    "id": 10314,
    "name": "Aracruz",
    "state_id": 2018,
    "state_code": "ES",
    "country_id": 31,
    "country_code": "BR",
    "latitude": "-19.81952000",
    "longitude": "-40.19097000",
    "wikiDataId": null
  },
  {
    "id": 10441,
    "name": "Atílio Vivacqua",
    "state_id": 2018,
    "state_code": "ES",
    "country_id": 31,
    "country_code": "BR",
    "latitude": "-20.95472000",
    "longitude": "-41.19096000",
    "wikiDataId": null
  },
  {
    "id": 10479,
    "name": "Baixo Guandu",
    "state_id": 2018,
    "state_code": "ES",
    "country_id": 31,
    "country_code": "BR",
    "latitude": "-19.51889000",
    "longitude": "-41.01583000",
    "wikiDataId": null
  },
  {
    "id": 10528,
    "name": "Barra de São Francisco",
    "state_id": 2018,
    "state_code": "ES",
    "country_id": 31,
    "country_code": "BR",
    "latitude": "-18.75500000",
    "longitude": "-40.89083000",
    "wikiDataId": null
  },
  {
    "id": 10657,
    "name": "Boa Esperança",
    "state_id": 2018,
    "state_code": "ES",
    "country_id": 31,
    "country_code": "BR",
    "latitude": "-18.54000000",
    "longitude": "-40.29583000",
    "wikiDataId": null
  },
  {
    "id": 10712,
    "name": "Bom Jesus do Norte",
    "state_id": 2018,
    "state_code": "ES",
    "country_id": 31,
    "country_code": "BR",
    "latitude": "-21.08831000",
    "longitude": "-41.63939000",
    "wikiDataId": null
  },
  {
    "id": 10784,
    "name": "Brejetuba",
    "state_id": 2018,
    "state_code": "ES",
    "country_id": 31,
    "country_code": "BR",
    "latitude": "-20.15621000",
    "longitude": "-41.30650000",
    "wikiDataId": null
  },
  {
    "id": 10879,
    "name": "Cachoeiro de Itapemirim",
    "state_id": 2018,
    "state_code": "ES",
    "country_id": 31,
    "country_code": "BR",
    "latitude": "-20.84889000",
    "longitude": "-41.11278000",
    "wikiDataId": null
  },
  {
    "id": 11127,
    "name": "Cariacica",
    "state_id": 2018,
    "state_code": "ES",
    "country_id": 31,
    "country_code": "BR",
    "latitude": "-20.30050000",
    "longitude": "-40.46919000",
    "wikiDataId": null
  },
  {
    "id": 11187,
    "name": "Castelo",
    "state_id": 2018,
    "state_code": "ES",
    "country_id": 31,
    "country_code": "BR",
    "latitude": "-20.60361000",
    "longitude": "-41.18472000",
    "wikiDataId": null
  },
  {
    "id": 11320,
    "name": "Colatina",
    "state_id": 2018,
    "state_code": "ES",
    "country_id": 31,
    "country_code": "BR",
    "latitude": "-19.53944000",
    "longitude": "-40.63056000",
    "wikiDataId": null
  },
  {
    "id": 11346,
    "name": "Conceição da Barra",
    "state_id": 2018,
    "state_code": "ES",
    "country_id": 31,
    "country_code": "BR",
    "latitude": "-18.58540000",
    "longitude": "-39.73618000",
    "wikiDataId": null
  },
  {
    "id": 11356,
    "name": "Conceição do Castelo",
    "state_id": 2018,
    "state_code": "ES",
    "country_id": 31,
    "country_code": "BR",
    "latitude": "-20.36226000",
    "longitude": "-41.26622000",
    "wikiDataId": null
  },
  {
    "id": 11602,
    "name": "Divino de São Lourenço",
    "state_id": 2018,
    "state_code": "ES",
    "country_id": 31,
    "country_code": "BR",
    "latitude": "-20.59751000",
    "longitude": "-41.72185000",
    "wikiDataId": null
  },
  {
    "id": 11637,
    "name": "Domingos Martins",
    "state_id": 2018,
    "state_code": "ES",
    "country_id": 31,
    "country_code": "BR",
    "latitude": "-20.36333000",
    "longitude": "-40.65917000",
    "wikiDataId": null
  },
  {
    "id": 11646,
    "name": "Dores do Rio Preto",
    "state_id": 2018,
    "state_code": "ES",
    "country_id": 31,
    "country_code": "BR",
    "latitude": "-20.63511000",
    "longitude": "-41.81208000",
    "wikiDataId": null
  },
  {
    "id": 11673,
    "name": "Ecoporanga",
    "state_id": 2018,
    "state_code": "ES",
    "country_id": 31,
    "country_code": "BR",
    "latitude": "-18.37333000",
    "longitude": "-40.83056000",
    "wikiDataId": null
  },
  {
    "id": 11904,
    "name": "Fundão",
    "state_id": 2018,
    "state_code": "ES",
    "country_id": 31,
    "country_code": "BR",
    "latitude": "-19.98985000",
    "longitude": "-40.31579000",
    "wikiDataId": null
  },
  {
    "id": 11985,
    "name": "Governador Lindenberg",
    "state_id": 2018,
    "state_code": "ES",
    "country_id": 31,
    "country_code": "BR",
    "latitude": "-19.20034000",
    "longitude": "-40.49510000",
    "wikiDataId": null
  },
  {
    "id": 12075,
    "name": "Guaçuí",
    "state_id": 2018,
    "state_code": "ES",
    "country_id": 31,
    "country_code": "BR",
    "latitude": "-20.76804000",
    "longitude": "-41.71116000",
    "wikiDataId": null
  },
  {
    "id": 12051,
    "name": "Guarapari",
    "state_id": 2018,
    "state_code": "ES",
    "country_id": 31,
    "country_code": "BR",
    "latitude": "-20.67182000",
    "longitude": "-40.50196000",
    "wikiDataId": null
  },
  {
    "id": 12124,
    "name": "Ibatiba",
    "state_id": 2018,
    "state_code": "ES",
    "country_id": 31,
    "country_code": "BR",
    "latitude": "-20.23389000",
    "longitude": "-41.51056000",
    "wikiDataId": null
  },
  {
    "id": 12154,
    "name": "Ibiraçu",
    "state_id": 2018,
    "state_code": "ES",
    "country_id": 31,
    "country_code": "BR",
    "latitude": "-19.83194000",
    "longitude": "-40.36972000",
    "wikiDataId": null
  },
  {
    "id": 12160,
    "name": "Ibitirama",
    "state_id": 2018,
    "state_code": "ES",
    "country_id": 31,
    "country_code": "BR",
    "latitude": "-20.51148000",
    "longitude": "-41.66962000",
    "wikiDataId": null
  },
  {
    "id": 12172,
    "name": "Iconha",
    "state_id": 2018,
    "state_code": "ES",
    "country_id": 31,
    "country_code": "BR",
    "latitude": "-20.74759000",
    "longitude": "-40.86570000",
    "wikiDataId": null
  },
  {
    "id": 12321,
    "name": "Irupi",
    "state_id": 2018,
    "state_code": "ES",
    "country_id": 31,
    "country_code": "BR",
    "latitude": "-20.34528000",
    "longitude": "-41.64111000",
    "wikiDataId": null
  },
  {
    "id": 12355,
    "name": "Itaguaçu",
    "state_id": 2018,
    "state_code": "ES",
    "country_id": 31,
    "country_code": "BR",
    "latitude": "-19.80194000",
    "longitude": "-40.85556000",
    "wikiDataId": null
  },
  {
    "id": 12409,
    "name": "Itapemirim",
    "state_id": 2018,
    "state_code": "ES",
    "country_id": 31,
    "country_code": "BR",
    "latitude": "-21.01111000",
    "longitude": "-40.83389000",
    "wikiDataId": null
  },
  {
    "id": 12447,
    "name": "Itarana",
    "state_id": 2018,
    "state_code": "ES",
    "country_id": 31,
    "country_code": "BR",
    "latitude": "-19.87389000",
    "longitude": "-40.87528000",
    "wikiDataId": null
  },
  {
    "id": 12507,
    "name": "Iúna",
    "state_id": 2018,
    "state_code": "ES",
    "country_id": 31,
    "country_code": "BR",
    "latitude": "-20.34583000",
    "longitude": "-41.53583000",
    "wikiDataId": null
  },
  {
    "id": 12550,
    "name": "Jaguaré",
    "state_id": 2018,
    "state_code": "ES",
    "country_id": 31,
    "country_code": "BR",
    "latitude": "-18.99187000",
    "longitude": "-39.97521000",
    "wikiDataId": null
  },
  {
    "id": 12624,
    "name": "Jerônimo Monteiro",
    "state_id": 2018,
    "state_code": "ES",
    "country_id": 31,
    "country_code": "BR",
    "latitude": "-20.81243000",
    "longitude": "-41.39536000",
    "wikiDataId": null
  },
  {
    "id": 12628,
    "name": "Jetibá",
    "state_id": 2018,
    "state_code": "ES",
    "country_id": 31,
    "country_code": "BR",
    "latitude": "-20.02069000",
    "longitude": "-40.68145000",
    "wikiDataId": null
  },
  {
    "id": 12664,
    "name": "João Neiva",
    "state_id": 2018,
    "state_code": "ES",
    "country_id": 31,
    "country_code": "BR",
    "latitude": "-19.75750000",
    "longitude": "-40.38556000",
    "wikiDataId": null
  },
  {
    "id": 12794,
    "name": "Laranja da Terra",
    "state_id": 2018,
    "state_code": "ES",
    "country_id": 31,
    "country_code": "BR",
    "latitude": "-19.89889000",
    "longitude": "-41.05667000",
    "wikiDataId": null
  },
  {
    "id": 12840,
    "name": "Linhares",
    "state_id": 2018,
    "state_code": "ES",
    "country_id": 31,
    "country_code": "BR",
    "latitude": "-19.39111000",
    "longitude": "-40.07222000",
    "wikiDataId": null
  },
  {
    "id": 12959,
    "name": "Mantenópolis",
    "state_id": 2018,
    "state_code": "ES",
    "country_id": 31,
    "country_code": "BR",
    "latitude": "-18.86250000",
    "longitude": "-41.12278000",
    "wikiDataId": null
  },
  {
    "id": 12981,
    "name": "Marataizes",
    "state_id": 2018,
    "state_code": "ES",
    "country_id": 31,
    "country_code": "BR",
    "latitude": "-21.04333000",
    "longitude": "-40.82444000",
    "wikiDataId": null
  },
  {
    "id": 13000,
    "name": "Marechal Floriano",
    "state_id": 2018,
    "state_code": "ES",
    "country_id": 31,
    "country_code": "BR",
    "latitude": "-20.41278000",
    "longitude": "-40.68306000",
    "wikiDataId": null
  },
  {
    "id": 13016,
    "name": "Marilândia",
    "state_id": 2018,
    "state_code": "ES",
    "country_id": 31,
    "country_code": "BR",
    "latitude": "-19.42199000",
    "longitude": "-40.52021000",
    "wikiDataId": null
  },
  {
    "id": 13120,
    "name": "Mimoso do Sul",
    "state_id": 2018,
    "state_code": "ES",
    "country_id": 31,
    "country_code": "BR",
    "latitude": "-21.10474000",
    "longitude": "-41.37566000",
    "wikiDataId": null
  },
  {
    "id": 13183,
    "name": "Montanha",
    "state_id": 2018,
    "state_code": "ES",
    "country_id": 31,
    "country_code": "BR",
    "latitude": "-18.12694000",
    "longitude": "-40.36333000",
    "wikiDataId": null
  },
  {
    "id": 13263,
    "name": "Mucurici",
    "state_id": 2018,
    "state_code": "ES",
    "country_id": 31,
    "country_code": "BR",
    "latitude": "-18.09333000",
    "longitude": "-40.51583000",
    "wikiDataId": null
  },
  {
    "id": 13275,
    "name": "Muniz Freire",
    "state_id": 2018,
    "state_code": "ES",
    "country_id": 31,
    "country_code": "BR",
    "latitude": "-20.46417000",
    "longitude": "-41.41306000",
    "wikiDataId": null
  },
  {
    "id": 13276,
    "name": "Muqui",
    "state_id": 2018,
    "state_code": "ES",
    "country_id": 31,
    "country_code": "BR",
    "latitude": "-20.91522000",
    "longitude": "-41.30089000",
    "wikiDataId": null
  },
  {
    "id": 13446,
    "name": "Nova Venécia",
    "state_id": 2018,
    "state_code": "ES",
    "country_id": 31,
    "country_code": "BR",
    "latitude": "-18.71056000",
    "longitude": "-40.40056000",
    "wikiDataId": null
  },
  {
    "id": 13614,
    "name": "Pancas",
    "state_id": 2018,
    "state_code": "ES",
    "country_id": 31,
    "country_code": "BR",
    "latitude": "-19.22500000",
    "longitude": "-40.85139000",
    "wikiDataId": null
  },
  {
    "id": 13775,
    "name": "Pedro Canário",
    "state_id": 2018,
    "state_code": "ES",
    "country_id": 31,
    "country_code": "BR",
    "latitude": "-18.20359000",
    "longitude": "-40.03155000",
    "wikiDataId": null
  },
  {
    "id": 13872,
    "name": "Pinheiros",
    "state_id": 2018,
    "state_code": "ES",
    "country_id": 31,
    "country_code": "BR",
    "latitude": "-18.34486000",
    "longitude": "-40.20984000",
    "wikiDataId": null
  },
  {
    "id": 13931,
    "name": "Piúma",
    "state_id": 2018,
    "state_code": "ES",
    "country_id": 31,
    "country_code": "BR",
    "latitude": "-20.83106000",
    "longitude": "-40.72932000",
    "wikiDataId": null
  },
  {
    "id": 13975,
    "name": "Ponto Belo",
    "state_id": 2018,
    "state_code": "ES",
    "country_id": 31,
    "country_code": "BR",
    "latitude": "-18.25222000",
    "longitude": "-40.49863000",
    "wikiDataId": null
  },
  {
    "id": 14087,
    "name": "Presidente Kennedy",
    "state_id": 2018,
    "state_code": "ES",
    "country_id": 31,
    "country_code": "BR",
    "latitude": "-21.14995000",
    "longitude": "-41.07293000",
    "wikiDataId": null
  },
  {
    "id": 14259,
    "name": "Rio Bananal",
    "state_id": 2018,
    "state_code": "ES",
    "country_id": 31,
    "country_code": "BR",
    "latitude": "-19.26500000",
    "longitude": "-40.33333000",
    "wikiDataId": null
  },
  {
    "id": 14286,
    "name": "Rio Novo do Sul",
    "state_id": 2018,
    "state_code": "ES",
    "country_id": 31,
    "country_code": "BR",
    "latitude": "-20.78326000",
    "longitude": "-40.93976000",
    "wikiDataId": null
  },
  {
    "id": 14487,
    "name": "Santa Leopoldina",
    "state_id": 2018,
    "state_code": "ES",
    "country_id": 31,
    "country_code": "BR",
    "latitude": "-20.10056000",
    "longitude": "-40.52972000",
    "wikiDataId": null
  },
  {
    "id": 14510,
    "name": "Santa Maria de Jetibá",
    "state_id": 2018,
    "state_code": "ES",
    "country_id": 31,
    "country_code": "BR",
    "latitude": "-20.02745000",
    "longitude": "-40.74336000",
    "wikiDataId": null
  },
  {
    "id": 14551,
    "name": "Santa Teresa",
    "state_id": 2018,
    "state_code": "ES",
    "country_id": 31,
    "country_code": "BR",
    "latitude": "-19.93556000",
    "longitude": "-40.60028000",
    "wikiDataId": null
  },
  {
    "id": 14872,
    "name": "São Domingos do Norte",
    "state_id": 2018,
    "state_code": "ES",
    "country_id": 31,
    "country_code": "BR",
    "latitude": "-19.12970000",
    "longitude": "-40.55454000",
    "wikiDataId": null
  },
  {
    "id": 14910,
    "name": "São Gabriel da Palha",
    "state_id": 2018,
    "state_code": "ES",
    "country_id": 31,
    "country_code": "BR",
    "latitude": "-18.97356000",
    "longitude": "-40.52522000",
    "wikiDataId": null
  },
  {
    "id": 14964,
    "name": "São José do Calçado",
    "state_id": 2018,
    "state_code": "ES",
    "country_id": 31,
    "country_code": "BR",
    "latitude": "-20.98599000",
    "longitude": "-41.66419000",
    "wikiDataId": null
  },
  {
    "id": 15075,
    "name": "São Mateus",
    "state_id": 2018,
    "state_code": "ES",
    "country_id": 31,
    "country_code": "BR",
    "latitude": "-18.72011000",
    "longitude": "-39.85891000",
    "wikiDataId": null
  },
  {
    "id": 15133,
    "name": "São Roque do Canaã",
    "state_id": 2018,
    "state_code": "ES",
    "country_id": 31,
    "country_code": "BR",
    "latitude": "-19.73027000",
    "longitude": "-40.67143000",
    "wikiDataId": null
  },
  {
    "id": 14721,
    "name": "Serra",
    "state_id": 2018,
    "state_code": "ES",
    "country_id": 31,
    "country_code": "BR",
    "latitude": "-20.10822000",
    "longitude": "-40.30186000",
    "wikiDataId": null
  },
  {
    "id": 14810,
    "name": "Sooretama",
    "state_id": 2018,
    "state_code": "ES",
    "country_id": 31,
    "country_code": "BR",
    "latitude": "-19.08218000",
    "longitude": "-40.14134000",
    "wikiDataId": null
  },
  {
    "id": 15509,
    "name": "Vargem Alta",
    "state_id": 2018,
    "state_code": "ES",
    "country_id": 31,
    "country_code": "BR",
    "latitude": "-20.64727000",
    "longitude": "-41.00855000",
    "wikiDataId": null
  },
  {
    "id": 15526,
    "name": "Venda Nova do Imigrante",
    "state_id": 2018,
    "state_code": "ES",
    "country_id": 31,
    "country_code": "BR",
    "latitude": "-20.38487000",
    "longitude": "-41.13539000",
    "wikiDataId": null
  },
  {
    "id": 15553,
    "name": "Viana",
    "state_id": 2018,
    "state_code": "ES",
    "country_id": 31,
    "country_code": "BR",
    "latitude": "-20.36757000",
    "longitude": "-40.51413000",
    "wikiDataId": null
  },
  {
    "id": 15574,
    "name": "Vila Pavão",
    "state_id": 2018,
    "state_code": "ES",
    "country_id": 31,
    "country_code": "BR",
    "latitude": "-18.61186000",
    "longitude": "-40.65163000",
    "wikiDataId": null
  },
  {
    "id": 15577,
    "name": "Vila Valério",
    "state_id": 2018,
    "state_code": "ES",
    "country_id": 31,
    "country_code": "BR",
    "latitude": "-18.97995000",
    "longitude": "-40.36633000",
    "wikiDataId": null
  },
  {
    "id": 15578,
    "name": "Vila Velha",
    "state_id": 2018,
    "state_code": "ES",
    "country_id": 31,
    "country_code": "BR",
    "latitude": "-20.32972000",
    "longitude": "-40.29250000",
    "wikiDataId": null
  },
  {
    "id": 15597,
    "name": "Vitória",
    "state_id": 2018,
    "state_code": "ES",
    "country_id": 31,
    "country_code": "BR",
    "latitude": "-20.31944000",
    "longitude": "-40.33778000",
    "wikiDataId": null
  }
]