[
  {
    "id": 21642,
    "name": "Acosta",
    "state_id": 1214,
    "state_code": "SJ",
    "country_id": 53,
    "country_code": "CR",
    "latitude": "9.80000000",
    "longitude": "-84.20000000",
    "wikiDataId": null
  },
  {
    "id": 21644,
    "name": "Alajuelita",
    "state_id": 1214,
    "state_code": "SJ",
    "country_id": 53,
    "country_code": "CR",
    "latitude": "9.90000000",
    "longitude": "-84.10000000",
    "wikiDataId": null
  },
  {
    "id": 21646,
    "name": "Aserrí",
    "state_id": 1214,
    "state_code": "SJ",
    "country_id": 53,
    "country_code": "CR",
    "latitude": "9.86667000",
    "longitude": "-84.10000000",
    "wikiDataId": null
  },
  {
    "id": 21655,
    "name": "Calle Blancos",
    "state_id": 1214,
    "state_code": "SJ",
    "country_id": 53,
    "country_code": "CR",
    "latitude": "9.95000000",
    "longitude": "-84.06667000",
    "wikiDataId": null
  },
  {
    "id": 21663,
    "name": "Colima",
    "state_id": 1214,
    "state_code": "SJ",
    "country_id": 53,
    "country_code": "CR",
    "latitude": "9.95091000",
    "longitude": "-84.08503000",
    "wikiDataId": null
  },
  {
    "id": 21664,
    "name": "Colón",
    "state_id": 1214,
    "state_code": "SJ",
    "country_id": 53,
    "country_code": "CR",
    "latitude": "9.91491000",
    "longitude": "-84.24170000",
    "wikiDataId": null
  },
  {
    "id": 21670,
    "name": "Curridabat",
    "state_id": 1214,
    "state_code": "SJ",
    "country_id": 53,
    "country_code": "CR",
    "latitude": "9.91667000",
    "longitude": "-84.03333000",
    "wikiDataId": null
  },
  {
    "id": 21671,
    "name": "Daniel Flores",
    "state_id": 1214,
    "state_code": "SJ",
    "country_id": 53,
    "country_code": "CR",
    "latitude": "9.33554000",
    "longitude": "-83.66940000",
    "wikiDataId": null
  },
  {
    "id": 21673,
    "name": "Desamparados",
    "state_id": 1214,
    "state_code": "SJ",
    "country_id": 53,
    "country_code": "CR",
    "latitude": "9.90000000",
    "longitude": "-84.06667000",
    "wikiDataId": null
  },
  {
    "id": 21674,
    "name": "Dota",
    "state_id": 1214,
    "state_code": "SJ",
    "country_id": 53,
    "country_code": "CR",
    "latitude": "9.65000000",
    "longitude": "-83.95000000",
    "wikiDataId": null
  },
  {
    "id": 21676,
    "name": "Escazú",
    "state_id": 1214,
    "state_code": "SJ",
    "country_id": 53,
    "country_code": "CR",
    "latitude": "9.93333000",
    "longitude": "-84.13333000",
    "wikiDataId": null
  },
  {
    "id": 21682,
    "name": "Goicoechea",
    "state_id": 1214,
    "state_code": "SJ",
    "country_id": 53,
    "country_code": "CR",
    "latitude": "9.94848000",
    "longitude": "-84.06365000",
    "wikiDataId": null
  },
  {
    "id": 21684,
    "name": "Granadilla",
    "state_id": 1214,
    "state_code": "SJ",
    "country_id": 53,
    "country_code": "CR",
    "latitude": "9.93491000",
    "longitude": "-84.01688000",
    "wikiDataId": null
  },
  {
    "id": 21686,
    "name": "Guadalupe",
    "state_id": 1214,
    "state_code": "SJ",
    "country_id": 53,
    "country_code": "CR",
    "latitude": "9.94805000",
    "longitude": "-84.05665000",
    "wikiDataId": null
  },
  {
    "id": 21692,
    "name": "Ipís",
    "state_id": 1214,
    "state_code": "SJ",
    "country_id": 53,
    "country_code": "CR",
    "latitude": "9.96745000",
    "longitude": "-84.01326000",
    "wikiDataId": null
  },
  {
    "id": 21701,
    "name": "León Cortés",
    "state_id": 1214,
    "state_code": "SJ",
    "country_id": 53,
    "country_code": "CR",
    "latitude": "9.68300000",
    "longitude": "-84.04781000",
    "wikiDataId": null
  },
  {
    "id": 21707,
    "name": "Mercedes",
    "state_id": 1214,
    "state_code": "SJ",
    "country_id": 53,
    "country_code": "CR",
    "latitude": "9.26270000",
    "longitude": "-83.58202000",
    "wikiDataId": null
  },
  {
    "id": 21710,
    "name": "Montes de Oca",
    "state_id": 1214,
    "state_code": "SJ",
    "country_id": 53,
    "country_code": "CR",
    "latitude": "9.93960000",
    "longitude": "-84.03013000",
    "wikiDataId": null
  },
  {
    "id": 21712,
    "name": "Mora",
    "state_id": 1214,
    "state_code": "SJ",
    "country_id": 53,
    "country_code": "CR",
    "latitude": "9.91667000",
    "longitude": "-84.25000000",
    "wikiDataId": null
  },
  {
    "id": 21713,
    "name": "Moravia",
    "state_id": 1214,
    "state_code": "SJ",
    "country_id": 53,
    "country_code": "CR",
    "latitude": "10.04000000",
    "longitude": "-84.00000000",
    "wikiDataId": null
  },
  {
    "id": 21723,
    "name": "Palmichal",
    "state_id": 1214,
    "state_code": "SJ",
    "country_id": 53,
    "country_code": "CR",
    "latitude": "9.83778000",
    "longitude": "-84.20478000",
    "wikiDataId": null
  },
  {
    "id": 21727,
    "name": "Patarrá",
    "state_id": 1214,
    "state_code": "SJ",
    "country_id": 53,
    "country_code": "CR",
    "latitude": "9.88071000",
    "longitude": "-84.03501000",
    "wikiDataId": null
  },
  {
    "id": 21737,
    "name": "Pérez Zeledón",
    "state_id": 1214,
    "state_code": "SJ",
    "country_id": 53,
    "country_code": "CR",
    "latitude": "9.35473000",
    "longitude": "-83.63484000",
    "wikiDataId": null
  },
  {
    "id": 21735,
    "name": "Puriscal",
    "state_id": 1214,
    "state_code": "SJ",
    "country_id": 53,
    "country_code": "CR",
    "latitude": "9.75000000",
    "longitude": "-84.41667000",
    "wikiDataId": null
  },
  {
    "id": 21736,
    "name": "Purral",
    "state_id": 1214,
    "state_code": "SJ",
    "country_id": 53,
    "country_code": "CR",
    "latitude": "9.95808000",
    "longitude": "-84.03050000",
    "wikiDataId": null
  },
  {
    "id": 21743,
    "name": "Sabanilla",
    "state_id": 1214,
    "state_code": "SJ",
    "country_id": 53,
    "country_code": "CR",
    "latitude": "9.94522000",
    "longitude": "-84.03927000",
    "wikiDataId": null
  },
  {
    "id": 21744,
    "name": "Salitral",
    "state_id": 1214,
    "state_code": "SJ",
    "country_id": 53,
    "country_code": "CR",
    "latitude": "9.91163000",
    "longitude": "-84.17835000",
    "wikiDataId": null
  },
  {
    "id": 21745,
    "name": "Salitrillos",
    "state_id": 1214,
    "state_code": "SJ",
    "country_id": 53,
    "country_code": "CR",
    "latitude": "9.85259000",
    "longitude": "-84.09062000",
    "wikiDataId": null
  },
  {
    "id": 21749,
    "name": "San Felipe",
    "state_id": 1214,
    "state_code": "SJ",
    "country_id": 53,
    "country_code": "CR",
    "latitude": "9.90488000",
    "longitude": "-84.10551000",
    "wikiDataId": null
  },
  {
    "id": 21751,
    "name": "San Ignacio",
    "state_id": 1214,
    "state_code": "SJ",
    "country_id": 53,
    "country_code": "CR",
    "latitude": "9.79853000",
    "longitude": "-84.16173000",
    "wikiDataId": null
  },
  {
    "id": 21752,
    "name": "San Isidro",
    "state_id": 1214,
    "state_code": "SJ",
    "country_id": 53,
    "country_code": "CR",
    "latitude": "9.36740000",
    "longitude": "-83.69713000",
    "wikiDataId": null
  },
  {
    "id": 21756,
    "name": "San José",
    "state_id": 1214,
    "state_code": "SJ",
    "country_id": 53,
    "country_code": "CR",
    "latitude": "9.93333000",
    "longitude": "-84.08333000",
    "wikiDataId": null
  },
  {
    "id": 21757,
    "name": "San Juan",
    "state_id": 1214,
    "state_code": "SJ",
    "country_id": 53,
    "country_code": "CR",
    "latitude": "9.95974000",
    "longitude": "-84.08165000",
    "wikiDataId": null
  },
  {
    "id": 21759,
    "name": "San Juan de Dios",
    "state_id": 1214,
    "state_code": "SJ",
    "country_id": 53,
    "country_code": "CR",
    "latitude": "9.87730000",
    "longitude": "-84.08470000",
    "wikiDataId": null
  },
  {
    "id": 21760,
    "name": "San Marcos",
    "state_id": 1214,
    "state_code": "SJ",
    "country_id": 53,
    "country_code": "CR",
    "latitude": "9.66010000",
    "longitude": "-84.02026000",
    "wikiDataId": null
  },
  {
    "id": 21762,
    "name": "San Miguel",
    "state_id": 1214,
    "state_code": "SJ",
    "country_id": 53,
    "country_code": "CR",
    "latitude": "9.87121000",
    "longitude": "-84.06084000",
    "wikiDataId": null
  },
  {
    "id": 21764,
    "name": "San Pedro",
    "state_id": 1214,
    "state_code": "SJ",
    "country_id": 53,
    "country_code": "CR",
    "latitude": "9.92829000",
    "longitude": "-84.05074000",
    "wikiDataId": null
  },
  {
    "id": 21765,
    "name": "San Rafael",
    "state_id": 1214,
    "state_code": "SJ",
    "country_id": 53,
    "country_code": "CR",
    "latitude": "9.92787000",
    "longitude": "-84.13722000",
    "wikiDataId": null
  },
  {
    "id": 21768,
    "name": "San Rafael Abajo",
    "state_id": 1214,
    "state_code": "SJ",
    "country_id": 53,
    "country_code": "CR",
    "latitude": "9.83100000",
    "longitude": "-84.29008000",
    "wikiDataId": null
  },
  {
    "id": 21769,
    "name": "San Rafael Arriba",
    "state_id": 1214,
    "state_code": "SJ",
    "country_id": 53,
    "country_code": "CR",
    "latitude": "9.87556000",
    "longitude": "-84.07661000",
    "wikiDataId": null
  },
  {
    "id": 21771,
    "name": "San Vicente",
    "state_id": 1214,
    "state_code": "SJ",
    "country_id": 53,
    "country_code": "CR",
    "latitude": "9.96016000",
    "longitude": "-84.04762000",
    "wikiDataId": null
  },
  {
    "id": 21772,
    "name": "San Vicente de Moravia",
    "state_id": 1214,
    "state_code": "SJ",
    "country_id": 53,
    "country_code": "CR",
    "latitude": "9.96164000",
    "longitude": "-84.04880000",
    "wikiDataId": null
  },
  {
    "id": 21774,
    "name": "Santa Ana",
    "state_id": 1214,
    "state_code": "SJ",
    "country_id": 53,
    "country_code": "CR",
    "latitude": "9.93260000",
    "longitude": "-84.18255000",
    "wikiDataId": null
  },
  {
    "id": 21778,
    "name": "Santiago",
    "state_id": 1214,
    "state_code": "SJ",
    "country_id": 53,
    "country_code": "CR",
    "latitude": "9.84636000",
    "longitude": "-84.31428000",
    "wikiDataId": null
  },
  {
    "id": 21786,
    "name": "Tarrazú",
    "state_id": 1214,
    "state_code": "SJ",
    "country_id": 53,
    "country_code": "CR",
    "latitude": "9.65965000",
    "longitude": "-84.02138000",
    "wikiDataId": null
  },
  {
    "id": 21787,
    "name": "Tejar",
    "state_id": 1214,
    "state_code": "SJ",
    "country_id": 53,
    "country_code": "CR",
    "latitude": "9.74622000",
    "longitude": "-84.23368000",
    "wikiDataId": null
  },
  {
    "id": 21788,
    "name": "Tibás",
    "state_id": 1214,
    "state_code": "SJ",
    "country_id": 53,
    "country_code": "CR",
    "latitude": "9.96667000",
    "longitude": "-84.08333000",
    "wikiDataId": null
  },
  {
    "id": 21794,
    "name": "Turrubares",
    "state_id": 1214,
    "state_code": "SJ",
    "country_id": 53,
    "country_code": "CR",
    "latitude": "9.75000000",
    "longitude": "-84.50000000",
    "wikiDataId": null
  },
  {
    "id": 21797,
    "name": "Vázquez de Coronado",
    "state_id": 1214,
    "state_code": "SJ",
    "country_id": 53,
    "country_code": "CR",
    "latitude": "10.06000000",
    "longitude": "-84.00000000",
    "wikiDataId": null
  }
]