[
  {
    "id": 153970,
    "name": "ad-Dhahiriya",
    "state_id": 5121,
    "state_code": "HBN",
    "country_id": 169,
    "country_code": "PS",
    "latitude": "31.40967250",
    "longitude": "34.95490830",
    "wikiDataId": null
  },
  {
    "id": 153980,
    "name": "as-Samu",
    "state_id": 5121,
    "state_code": "HBN",
    "country_id": 169,
    "country_code": "PS",
    "latitude": "31.39864450",
    "longitude": "35.04468830",
    "wikiDataId": null
  },
  {
    "id": 153971,
    "name": "Bani Na'im",
    "state_id": 5121,
    "state_code": "HBN",
    "country_id": 169,
    "country_code": "PS",
    "latitude": "31.51490050",
    "longitude": "35.14474030",
    "wikiDataId": null
  },
  {
    "id": 153972,
    "name": "Beit 'Awwa",
    "state_id": 5121,
    "state_code": "HBN",
    "country_id": 169,
    "country_code": "PS",
    "latitude": "31.50675240",
    "longitude": "34.92956130",
    "wikiDataId": null
  },
  {
    "id": 153973,
    "name": "Beit Ula",
    "state_id": 5121,
    "state_code": "HBN",
    "country_id": 169,
    "country_code": "PS",
    "latitude": "31.59845640",
    "longitude": "35.00577530",
    "wikiDataId": null
  },
  {
    "id": 153974,
    "name": "Beit Ummar",
    "state_id": 5121,
    "state_code": "HBN",
    "country_id": 169,
    "country_code": "PS",
    "latitude": "31.62284640",
    "longitude": "35.08159930",
    "wikiDataId": null
  },
  {
    "id": 153975,
    "name": "Deir Sammit",
    "state_id": 5121,
    "state_code": "HBN",
    "country_id": 169,
    "country_code": "PS",
    "latitude": "31.51996340",
    "longitude": "34.95207130",
    "wikiDataId": null
  },
  {
    "id": 153966,
    "name": "Dura",
    "state_id": 5121,
    "state_code": "HBN",
    "country_id": 169,
    "country_code": "PS",
    "latitude": "31.50512740",
    "longitude": "35.00692730",
    "wikiDataId": null
  },
  {
    "id": 153967,
    "name": "Halhul",
    "state_id": 5121,
    "state_code": "HBN",
    "country_id": 169,
    "country_code": "PS",
    "latitude": "31.57992420",
    "longitude": "35.07930450",
    "wikiDataId": null
  },
  {
    "id": 153968,
    "name": "Hebron",
    "state_id": 5121,
    "state_code": "HBN",
    "country_id": 169,
    "country_code": "PS",
    "latitude": "31.53260350",
    "longitude": "35.07922630",
    "wikiDataId": null
  },
  {
    "id": 153976,
    "name": "Idhna",
    "state_id": 5121,
    "state_code": "HBN",
    "country_id": 169,
    "country_code": "PS",
    "latitude": "31.55728640",
    "longitude": "34.95864330",
    "wikiDataId": null
  },
  {
    "id": 153977,
    "name": "Kharas",
    "state_id": 5121,
    "state_code": "HBN",
    "country_id": 169,
    "country_code": "PS",
    "latitude": "31.61225240",
    "longitude": "35.02365130",
    "wikiDataId": null
  },
  {
    "id": 153978,
    "name": "Nuba",
    "state_id": 5121,
    "state_code": "HBN",
    "country_id": 169,
    "country_code": "PS",
    "latitude": "31.61382080",
    "longitude": "35.00579200",
    "wikiDataId": null
  },
  {
    "id": 153979,
    "name": "Sa'ir",
    "state_id": 5121,
    "state_code": "HBN",
    "country_id": 169,
    "country_code": "PS",
    "latitude": "31.58248950",
    "longitude": "35.12317630",
    "wikiDataId": null
  },
  {
    "id": 153981,
    "name": "Surif",
    "state_id": 5121,
    "state_code": "HBN",
    "country_id": 169,
    "country_code": "PS",
    "latitude": "31.64958640",
    "longitude": "35.04411230",
    "wikiDataId": null
  },
  {
    "id": 153983,
    "name": "Taffuh",
    "state_id": 5121,
    "state_code": "HBN",
    "country_id": 169,
    "country_code": "PS",
    "latitude": "31.53848250",
    "longitude": "35.03037330",
    "wikiDataId": null
  },
  {
    "id": 153982,
    "name": "Tarqumiya",
    "state_id": 5121,
    "state_code": "HBN",
    "country_id": 169,
    "country_code": "PS",
    "latitude": "31.57736440",
    "longitude": "34.99357430",
    "wikiDataId": null
  },
  {
    "id": 153969,
    "name": "Yatta",
    "state_id": 5121,
    "state_code": "HBN",
    "country_id": 169,
    "country_code": "PS",
    "latitude": "31.44418450",
    "longitude": "35.06950530",
    "wikiDataId": null
  }
]