[
  {
    "id": 21811,
    "name": "Baraguá",
    "state_id": 282,
    "state_code": "08",
    "country_id": 56,
    "country_code": "CU",
    "latitude": "21.68216000",
    "longitude": "-78.62567000",
    "wikiDataId": null
  },
  {
    "id": 21832,
    "name": "Chambas",
    "state_id": 282,
    "state_code": "08",
    "country_id": 56,
    "country_code": "CU",
    "latitude": "22.19534000",
    "longitude": "-78.91230000",
    "wikiDataId": null
  },
  {
    "id": 21833,
    "name": "Ciego de Ávila",
    "state_id": 282,
    "state_code": "08",
    "country_id": 56,
    "country_code": "CU",
    "latitude": "21.84000000",
    "longitude": "-78.76194000",
    "wikiDataId": null
  },
  {
    "id": 21836,
    "name": "Ciro Redondo",
    "state_id": 282,
    "state_code": "08",
    "country_id": 56,
    "country_code": "CU",
    "latitude": "22.01921000",
    "longitude": "-78.70365000",
    "wikiDataId": null
  },
  {
    "id": 21853,
    "name": "Florencia",
    "state_id": 282,
    "state_code": "08",
    "country_id": 56,
    "country_code": "CU",
    "latitude": "22.14610000",
    "longitude": "-78.97328000",
    "wikiDataId": null
  },
  {
    "id": 21902,
    "name": "Morón",
    "state_id": 282,
    "state_code": "08",
    "country_id": 56,
    "country_code": "CU",
    "latitude": "22.10774000",
    "longitude": "-78.62667000",
    "wikiDataId": null
  },
  {
    "id": 21909,
    "name": "Municipio de Ciego de Ávila",
    "state_id": 282,
    "state_code": "08",
    "country_id": 56,
    "country_code": "CU",
    "latitude": "21.85000000",
    "longitude": "-78.76667000",
    "wikiDataId": null
  },
  {
    "id": 21926,
    "name": "Municipio de Morón",
    "state_id": 282,
    "state_code": "08",
    "country_id": 56,
    "country_code": "CU",
    "latitude": "22.29980000",
    "longitude": "-78.56875000",
    "wikiDataId": null
  },
  {
    "id": 21945,
    "name": "Primero de Enero",
    "state_id": 282,
    "state_code": "08",
    "country_id": 56,
    "country_code": "CU",
    "latitude": "21.94501000",
    "longitude": "-78.43130000",
    "wikiDataId": null
  },
  {
    "id": 21981,
    "name": "Venezuela",
    "state_id": 282,
    "state_code": "08",
    "country_id": 56,
    "country_code": "CU",
    "latitude": "21.73748000",
    "longitude": "-78.79336000",
    "wikiDataId": null
  }
]