[
  {
    "id": 65572,
    "name": "Al Aḩmadī",
    "state_id": 977,
    "state_code": "AH",
    "country_id": 117,
    "country_code": "KW",
    "latitude": "29.07694000",
    "longitude": "48.08389000",
    "wikiDataId": null
  },
  {
    "id": 65574,
    "name": "Al Faḩāḩīl",
    "state_id": 977,
    "state_code": "AH",
    "country_id": 117,
    "country_code": "KW",
    "latitude": "29.08250000",
    "longitude": "48.13028000",
    "wikiDataId": null
  },
  {
    "id": 65575,
    "name": "Al Finţās",
    "state_id": 977,
    "state_code": "AH",
    "country_id": 117,
    "country_code": "KW",
    "latitude": "29.17389000",
    "longitude": "48.12111000",
    "wikiDataId": null
  },
  {
    "id": 65578,
    "name": "Al Mahbūlah",
    "state_id": 977,
    "state_code": "AH",
    "country_id": 117,
    "country_code": "KW",
    "latitude": "29.14500000",
    "longitude": "48.13028000",
    "wikiDataId": null
  },
  {
    "id": 65579,
    "name": "Al Manqaf",
    "state_id": 977,
    "state_code": "AH",
    "country_id": 117,
    "country_code": "KW",
    "latitude": "29.09611000",
    "longitude": "48.13278000",
    "wikiDataId": null
  },
  {
    "id": 65580,
    "name": "Al Wafrah",
    "state_id": 977,
    "state_code": "AH",
    "country_id": 117,
    "country_code": "KW",
    "latitude": "28.63917000",
    "longitude": "47.93056000",
    "wikiDataId": null
  },
  {
    "id": 65582,
    "name": "Ar Riqqah",
    "state_id": 977,
    "state_code": "AH",
    "country_id": 117,
    "country_code": "KW",
    "latitude": "29.14583000",
    "longitude": "48.09472000",
    "wikiDataId": null
  }
]