[
  {
    "id": 3058,
    "name": "Ad Dakhiliyah",
    "country_id": 166,
    "country_code": "OM",
    "state_code": "DA",
    "type": "governorate",
    "latitude": "22.22597520",
    "longitude": "57.36927220",
    "iso3166_2": "OM-DA",
    "native": "الداخلية",
    "timezone": "Asia/Muscat"
  },
  {
    "id": 3047,
    "name": "Ad Dhahirah",
    "country_id": 166,
    "country_code": "OM",
    "state_code": "ZA",
    "type": "governorate",
    "latitude": "22.65052320",
    "longitude": "56.06162950",
    "iso3166_2": "OM-ZA",
    "native": "الظاهرة",
    "timezone": "Asia/Muscat"
  },
  {
    "id": 3048,
    "name": "Al Batinah North",
    "country_id": 166,
    "country_code": "OM",
    "state_code": "BS",
    "type": "governorate",
    "latitude": "24.23718790",
    "longitude": "56.57011980",
    "iso3166_2": "OM-BS",
    "native": "شمال الباطنة",
    "timezone": "Asia/Muscat"
  },
  {
    "id": 3050,
    "name": "Al Batinah Region",
    "country_id": 166,
    "country_code": "OM",
    "state_code": "BA",
    "type": "governorate",
    "latitude": "23.77000000",
    "longitude": "57.25000000",
    "iso3166_2": "OM-BA",
    "native": "منطقة الباطنة",
    "timezone": "Asia/Muscat"
  },
  {
    "id": 3049,
    "name": "Al Batinah South",
    "country_id": 166,
    "country_code": "OM",
    "state_code": "BJ",
    "type": "governorate",
    "latitude": "23.36739110",
    "longitude": "57.47378630",
    "iso3166_2": "OM-BJ",
    "native": "جنوب الباطنة",
    "timezone": "Asia/Muscat"
  },
  {
    "id": 3059,
    "name": "Al Buraimi",
    "country_id": 166,
    "country_code": "OM",
    "state_code": "BU",
    "type": "governorate",
    "latitude": "24.16149480",
    "longitude": "56.14641020",
    "iso3166_2": "OM-BU",
    "native": "البريمي",
    "timezone": "Asia/Muscat"
  },
  {
    "id": 3056,
    "name": "Al Wusta",
    "country_id": 166,
    "country_code": "OM",
    "state_code": "WU",
    "type": "governorate",
    "latitude": "19.72503470",
    "longitude": "56.43136710",
    "iso3166_2": "OM-WU",
    "native": "الوسطى",
    "timezone": "Asia/Muscat"
  },
  {
    "id": 3053,
    "name": "Ash Sharqiyah North",
    "country_id": 166,
    "country_code": "OM",
    "state_code": "SS",
    "type": "governorate",
    "latitude": "22.20247380",
    "longitude": "58.51590720",
    "iso3166_2": "OM-SS",
    "native": "شمال الشرقية",
    "timezone": "Asia/Muscat"
  },
  {
    "id": 3051,
    "name": "Ash Sharqiyah Region",
    "country_id": 166,
    "country_code": "OM",
    "state_code": "SH",
    "type": "governorate",
    "latitude": "21.40089120",
    "longitude": "57.69849610",
    "iso3166_2": "OM-SH",
    "native": "منطقة الشرقية",
    "timezone": "Asia/Muscat"
  },
  {
    "id": 3054,
    "name": "Ash Sharqiyah South",
    "country_id": 166,
    "country_code": "OM",
    "state_code": "SJ",
    "type": "governorate",
    "latitude": "21.90987800",
    "longitude": "59.30781170",
    "iso3166_2": "OM-SJ",
    "native": "جنوب الشرقية",
    "timezone": "Asia/Muscat"
  },
  {
    "id": 3057,
    "name": "Dhofar",
    "country_id": 166,
    "country_code": "OM",
    "state_code": "ZU",
    "type": "governorate",
    "latitude": "18.33688290",
    "longitude": "54.20929940",
    "iso3166_2": "OM-ZU",
    "native": "ظفار",
    "timezone": "Asia/Muscat"
  },
  {
    "id": 3052,
    "name": "Musandam",
    "country_id": 166,
    "country_code": "OM",
    "state_code": "MU",
    "type": "governorate",
    "latitude": "26.15232150",
    "longitude": "56.32948950",
    "iso3166_2": "OM-MU",
    "native": "مسندم",
    "timezone": "Asia/Muscat"
  },
  {
    "id": 3055,
    "name": "Muscat",
    "country_id": 166,
    "country_code": "OM",
    "state_code": "MA",
    "type": "governorate",
    "latitude": "23.61236280",
    "longitude": "58.59381340",
    "iso3166_2": "OM-MA",
    "native": "المسكات عنب طيب الشذا",
    "timezone": "Asia/Muscat"
  }
]