[
  {
    "id": 998,
    "name": "Batken",
    "country_id": 118,
    "country_code": "KG",
    "state_code": "B",
    "type": "region",
    "latitude": "40.06118520",
    "longitude": "70.82009640",
    "iso3166_2": "KG-B",
    "native": "Баткен",
    "timezone": "Asia/Bishkek"
  },
  {
    "id": 1001,
    "name": "Bishkek",
    "country_id": 118,
    "country_code": "KG",
    "state_code": "GB",
    "type": "city",
    "latitude": "42.87614240",
    "longitude": "74.60367240",
    "iso3166_2": "KG-GB",
    "native": "Бишкек",
    "timezone": "Asia/Bishkek"
  },
  {
    "id": 1004,
    "name": "Chuy",
    "country_id": 118,
    "country_code": "KG",
    "state_code": "C",
    "type": "region",
    "latitude": "42.55502360",
    "longitude": "74.62199100",
    "iso3166_2": "KG-C",
    "native": "Чүй",
    "timezone": "Asia/Bishkek"
  },
  {
    "id": 1002,
    "name": "Issyk-Kul",
    "country_id": 118,
    "country_code": "KG",
    "state_code": "Y",
    "type": "region",
    "latitude": "42.46203980",
    "longitude": "77.07898620",
    "iso3166_2": "KG-Y",
    "native": "Ыссык Көл",
    "timezone": "Asia/Bishkek"
  },
  {
    "id": 1000,
    "name": "Jalal-Abad",
    "country_id": 118,
    "country_code": "KG",
    "state_code": "J",
    "type": "region",
    "latitude": "40.92981820",
    "longitude": "73.00119000",
    "iso3166_2": "KG-J",
    "native": "Жалал Абад",
    "timezone": "Asia/Bishkek"
  },
  {
    "id": 999,
    "name": "Naryn",
    "country_id": 118,
    "country_code": "KG",
    "state_code": "N",
    "type": "region",
    "latitude": "41.36706580",
    "longitude": "75.99318380",
    "iso3166_2": "KG-N",
    "native": "Нарын",
    "timezone": "Asia/Bishkek"
  },
  {
    "id": 1003,
    "name": "Osh",
    "country_id": 118,
    "country_code": "KG",
    "state_code": "GO",
    "type": "city",
    "latitude": "40.51726780",
    "longitude": "72.80498940",
    "iso3166_2": "KG-GO",
    "native": "Ош",
    "timezone": "Asia/Bishkek"
  },
  {
    "id": 1005,
    "name": "Osh",
    "country_id": 118,
    "country_code": "KG",
    "state_code": "O",
    "type": "region",
    "latitude": "40.51726780",
    "longitude": "72.80498940",
    "iso3166_2": "KG-O",
    "native": "Ош",
    "timezone": "Asia/Bishkek"
  },
  {
    "id": 997,
    "name": "Talas",
    "country_id": 118,
    "country_code": "KG",
    "state_code": "T",
    "type": "region",
    "latitude": "42.52199500",
    "longitude": "72.24769300",
    "iso3166_2": "KG-T",
    "native": "Талас",
    "timezone": "Asia/Bishkek"
  }
]