[
  {
    "id": 2540,
    "name": "Andijan",
    "country_id": 236,
    "country_code": "UZ",
    "state_code": "AN",
    "type": "region",
    "latitude": "40.77277960",
    "longitude": "72.34196600",
    "iso3166_2": "UZ-AN",
    "native": "Andijan",
    "timezone": "Asia/Samarkand"
  },
  {
    "id": 2541,
    "name": "Bukhara",
    "country_id": 236,
    "country_code": "UZ",
    "state_code": "BU",
    "type": "region",
    "latitude": "40.22936600",
    "longitude": "63.54705840",
    "iso3166_2": "UZ-BU",
    "native": "Buxoro",
    "timezone": "Asia/Samarkand"
  },
  {
    "id": 2538,
    "name": "Fergana",
    "country_id": 236,
    "country_code": "UZ",
    "state_code": "FA",
    "type": "region",
    "latitude": "40.50000000",
    "longitude": "71.25000000",
    "iso3166_2": "UZ-FA",
    "native": "Farg'ona",
    "timezone": "Asia/Samarkand"
  },
  {
    "id": 2545,
    "name": "Jizzakh",
    "country_id": 236,
    "country_code": "UZ",
    "state_code": "JI",
    "type": "region",
    "latitude": "40.33190950",
    "longitude": "67.45511980",
    "iso3166_2": "UZ-JI",
    "native": "Jizzakh",
    "timezone": "Asia/Samarkand"
  },
  {
    "id": 2548,
    "name": "Karakalpakstan",
    "country_id": 236,
    "country_code": "UZ",
    "state_code": "QR",
    "type": "republic",
    "latitude": "43.77388410",
    "longitude": "57.62346170",
    "iso3166_2": "UZ-QR",
    "native": "Qoraqalpog'iston",
    "timezone": "Asia/Samarkand"
  },
  {
    "id": 2537,
    "name": "Namangan",
    "country_id": 236,
    "country_code": "UZ",
    "state_code": "NG",
    "type": "region",
    "latitude": "40.95550610",
    "longitude": "71.10977490",
    "iso3166_2": "UZ-NG",
    "native": "Namangan",
    "timezone": "Asia/Samarkand"
  },
  {
    "id": 2542,
    "name": "Navoiy",
    "country_id": 236,
    "country_code": "UZ",
    "state_code": "NW",
    "type": "region",
    "latitude": "42.00000000",
    "longitude": "64.00000000",
    "iso3166_2": "UZ-NW",
    "native": "Navoiy",
    "timezone": "Asia/Samarkand"
  },
  {
    "id": 2543,
    "name": "Qashqadaryo",
    "country_id": 236,
    "country_code": "UZ",
    "state_code": "QA",
    "type": "region",
    "latitude": "39.04249740",
    "longitude": "66.57752760",
    "iso3166_2": "UZ-QA",
    "native": "Qashqadaryo",
    "timezone": "Asia/Samarkand"
  },
  {
    "id": 2544,
    "name": "Samarqand",
    "country_id": 236,
    "country_code": "UZ",
    "state_code": "SA",
    "type": "region",
    "latitude": "39.65500170",
    "longitude": "66.97569540",
    "iso3166_2": "UZ-SA",
    "native": "Samarqand",
    "timezone": "Asia/Samarkand"
  },
  {
    "id": 2547,
    "name": "Sirdaryo",
    "country_id": 236,
    "country_code": "UZ",
    "state_code": "SI",
    "type": "region",
    "latitude": "40.80293260",
    "longitude": "68.82428410",
    "iso3166_2": "UZ-SI",
    "native": "Sirdaryo",
    "timezone": "Asia/Samarkand"
  },
  {
    "id": 2546,
    "name": "Surxondaryo",
    "country_id": 236,
    "country_code": "UZ",
    "state_code": "SU",
    "type": "region",
    "latitude": "37.95208430",
    "longitude": "67.12659960",
    "iso3166_2": "UZ-SU",
    "native": "Surxondaryo",
    "timezone": "Asia/Samarkand"
  },
  {
    "id": 2536,
    "name": "Tashkent",
    "country_id": 236,
    "country_code": "UZ",
    "state_code": "TK",
    "type": "city",
    "latitude": "41.31233630",
    "longitude": "69.27870790",
    "iso3166_2": "UZ-TK",
    "native": "Tashkent",
    "timezone": "Asia/Samarkand"
  },
  {
    "id": 2549,
    "name": "Tashkent",
    "country_id": 236,
    "country_code": "UZ",
    "state_code": "TO",
    "type": "region",
    "latitude": "41.31233630",
    "longitude": "69.27870790",
    "iso3166_2": "UZ-TO",
    "native": "Toshkent",
    "timezone": "Asia/Samarkand"
  },
  {
    "id": 2539,
    "name": "Xorazm",
    "country_id": 236,
    "country_code": "UZ",
    "state_code": "XO",
    "type": "region",
    "latitude": "41.29028350",
    "longitude": "60.54285370",
    "iso3166_2": "UZ-XO",
    "native": "Xorazm",
    "timezone": "Asia/Samarkand"
  }
]