[
  {
    "id": 76417,
    "name": "Bandar Labuan",
    "state_id": 1936,
    "state_code": "12",
    "country_id": 132,
    "country_code": "MY",
    "latitude": "5.28883000",
    "longitude": "115.26924000",
    "wikiDataId": null
  },
  {
    "id": 76425,
    "name": "Beaufort",
    "state_id": 1936,
    "state_code": "12",
    "country_id": 132,
    "country_code": "MY",
    "latitude": "5.34730000",
    "longitude": "115.74550000",
    "wikiDataId": null
  },
  {
    "id": 76446,
    "name": "Donggongon",
    "state_id": 1936,
    "state_code": "12",
    "country_id": 132,
    "country_code": "MY",
    "latitude": "5.90702000",
    "longitude": "116.10146000",
    "wikiDataId": null
  },
  {
    "id": 76481,
    "name": "Keningau",
    "state_id": 1936,
    "state_code": "12",
    "country_id": 132,
    "country_code": "MY",
    "latitude": "5.33780000",
    "longitude": "116.16020000",
    "wikiDataId": null
  },
  {
    "id": 76484,
    "name": "Kinarut",
    "state_id": 1936,
    "state_code": "12",
    "country_id": 132,
    "country_code": "MY",
    "latitude": "5.82310000",
    "longitude": "116.04660000",
    "wikiDataId": null
  },
  {
    "id": 76488,
    "name": "Kota Belud",
    "state_id": 1936,
    "state_code": "12",
    "country_id": 132,
    "country_code": "MY",
    "latitude": "6.35100000",
    "longitude": "116.43050000",
    "wikiDataId": null
  },
  {
    "id": 76490,
    "name": "Kota Kinabalu",
    "state_id": 1936,
    "state_code": "12",
    "country_id": 132,
    "country_code": "MY",
    "latitude": "5.97490000",
    "longitude": "116.07240000",
    "wikiDataId": null
  },
  {
    "id": 76507,
    "name": "Kudat",
    "state_id": 1936,
    "state_code": "12",
    "country_id": 132,
    "country_code": "MY",
    "latitude": "6.88732000",
    "longitude": "116.82364000",
    "wikiDataId": null
  },
  {
    "id": 76513,
    "name": "Lahad Datu",
    "state_id": 1936,
    "state_code": "12",
    "country_id": 132,
    "country_code": "MY",
    "latitude": "5.02298000",
    "longitude": "118.32897000",
    "wikiDataId": null
  },
  {
    "id": 76533,
    "name": "Papar",
    "state_id": 1936,
    "state_code": "12",
    "country_id": 132,
    "country_code": "MY",
    "latitude": "5.73333000",
    "longitude": "115.93333000",
    "wikiDataId": null
  },
  {
    "id": 76547,
    "name": "Putatan",
    "state_id": 1936,
    "state_code": "12",
    "country_id": 132,
    "country_code": "MY",
    "latitude": "5.92580000",
    "longitude": "116.06094000",
    "wikiDataId": null
  },
  {
    "id": 76550,
    "name": "Ranau",
    "state_id": 1936,
    "state_code": "12",
    "country_id": 132,
    "country_code": "MY",
    "latitude": "5.95380000",
    "longitude": "116.66410000",
    "wikiDataId": null
  },
  {
    "id": 76553,
    "name": "Sandakan",
    "state_id": 1936,
    "state_code": "12",
    "country_id": 132,
    "country_code": "MY",
    "latitude": "5.84020000",
    "longitude": "118.11790000",
    "wikiDataId": null
  },
  {
    "id": 76558,
    "name": "Semporna",
    "state_id": 1936,
    "state_code": "12",
    "country_id": 132,
    "country_code": "MY",
    "latitude": "4.48178000",
    "longitude": "118.61119000",
    "wikiDataId": null
  },
  {
    "id": 76572,
    "name": "Taman Rajawali",
    "state_id": 1936,
    "state_code": "12",
    "country_id": 132,
    "country_code": "MY",
    "latitude": "5.89477000",
    "longitude": "118.04576000",
    "wikiDataId": null
  },
  {
    "id": 76581,
    "name": "Tawau",
    "state_id": 1936,
    "state_code": "12",
    "country_id": 132,
    "country_code": "MY",
    "latitude": "4.24482000",
    "longitude": "117.89115000",
    "wikiDataId": null
  }
]