[
  {
    "id": 148541,
    "name": "Abalama",
    "state_id": 4926,
    "state_code": "RI",
    "country_id": 161,
    "country_code": "NG",
    "latitude": "4.76305556",
    "longitude": "6.84027778",
    "wikiDataId": null
  },
  {
    "id": 148542,
    "name": "Abonnema",
    "state_id": 4926,
    "state_code": "RI",
    "country_id": 161,
    "country_code": "NG",
    "latitude": "4.72311690",
    "longitude": "6.77884610",
    "wikiDataId": null
  },
  {
    "id": 148543,
    "name": "Ahoada",
    "state_id": 4926,
    "state_code": "RI",
    "country_id": 161,
    "country_code": "NG",
    "latitude": "5.08333333",
    "longitude": "6.65000000",
    "wikiDataId": null
  },
  {
    "id": 148544,
    "name": "Bori",
    "state_id": 4926,
    "state_code": "RI",
    "country_id": 161,
    "country_code": "NG",
    "latitude": "4.67277778",
    "longitude": "7.37027778",
    "wikiDataId": null
  },
  {
    "id": 148545,
    "name": "Buguma",
    "state_id": 4926,
    "state_code": "RI",
    "country_id": 161,
    "country_code": "NG",
    "latitude": "4.73333333",
    "longitude": "6.86666667",
    "wikiDataId": null
  },
  {
    "id": 148546,
    "name": "Chokocho",
    "state_id": 4926,
    "state_code": "RI",
    "country_id": 161,
    "country_code": "NG",
    "latitude": "4.99083300",
    "longitude": "7.05444400",
    "wikiDataId": null
  },
  {
    "id": 148547,
    "name": "Elele",
    "state_id": 4926,
    "state_code": "RI",
    "country_id": 161,
    "country_code": "NG",
    "latitude": "5.10184167",
    "longitude": "6.81902222",
    "wikiDataId": null
  },
  {
    "id": 148548,
    "name": "Obonoma",
    "state_id": 4926,
    "state_code": "RI",
    "country_id": 161,
    "country_code": "NG",
    "latitude": "4.71138889",
    "longitude": "6.79083333",
    "wikiDataId": null
  },
  {
    "id": 148549,
    "name": "Omoku",
    "state_id": 4926,
    "state_code": "RI",
    "country_id": 161,
    "country_code": "NG",
    "latitude": "5.34200000",
    "longitude": "6.65600000",
    "wikiDataId": null
  },
  {
    "id": 148550,
    "name": "Onne",
    "state_id": 4926,
    "state_code": "RI",
    "country_id": 161,
    "country_code": "NG",
    "latitude": "4.74444444",
    "longitude": "7.03611111",
    "wikiDataId": null
  },
  {
    "id": 148551,
    "name": "Opobo",
    "state_id": 4926,
    "state_code": "RI",
    "country_id": 161,
    "country_code": "NG",
    "latitude": "4.51138889",
    "longitude": "7.54000000",
    "wikiDataId": null
  },
  {
    "id": 148552,
    "name": "Port Harcourt",
    "state_id": 4926,
    "state_code": "RI",
    "country_id": 161,
    "country_code": "NG",
    "latitude": "4.75000000",
    "longitude": "7.00000000",
    "wikiDataId": null
  },
  {
    "id": 148553,
    "name": "Rumuokoro",
    "state_id": 4926,
    "state_code": "RI",
    "country_id": 161,
    "country_code": "NG",
    "latitude": "4.86666667",
    "longitude": "6.98333333",
    "wikiDataId": null
  }
]