[
  {
    "id": 89716,
    "name": "Abaí",
    "state_id": 2775,
    "state_code": "6",
    "country_id": 172,
    "country_code": "PY",
    "latitude": "-26.03333000",
    "longitude": "-55.93333000",
    "wikiDataId": null
  },
  {
    "id": 89728,
    "name": "Buena Vista",
    "state_id": 2775,
    "state_code": "6",
    "country_id": 172,
    "country_code": "PY",
    "latitude": "-26.18387000",
    "longitude": "-56.08171000",
    "wikiDataId": null
  },
  {
    "id": 89732,
    "name": "Caazapá",
    "state_id": 2775,
    "state_code": "6",
    "country_id": 172,
    "country_code": "PY",
    "latitude": "-26.19583000",
    "longitude": "-56.36806000",
    "wikiDataId": null
  },
  {
    "id": 89772,
    "name": "General Higinio Morínigo",
    "state_id": 2775,
    "state_code": "6",
    "country_id": 172,
    "country_code": "PY",
    "latitude": "-25.95000000",
    "longitude": "-55.91667000",
    "wikiDataId": null
  },
  {
    "id": 89826,
    "name": "San Juan Nepomuceno",
    "state_id": 2775,
    "state_code": "6",
    "country_id": 172,
    "country_code": "PY",
    "latitude": "-26.11229000",
    "longitude": "-55.93861000",
    "wikiDataId": null
  },
  {
    "id": 89850,
    "name": "Yegros",
    "state_id": 2775,
    "state_code": "6",
    "country_id": 172,
    "country_code": "PY",
    "latitude": "-26.45000000",
    "longitude": "-56.40000000",
    "wikiDataId": null
  },
  {
    "id": 89855,
    "name": "Yuty",
    "state_id": 2775,
    "state_code": "6",
    "country_id": 172,
    "country_code": "PY",
    "latitude": "-26.61471000",
    "longitude": "-56.24607000",
    "wikiDataId": null
  }
]