[
  {
    "id": 130184,
    "name": "Cao Lãnh",
    "state_id": 3769,
    "state_code": "45",
    "country_id": 240,
    "country_code": "VN",
    "latitude": "10.46017000",
    "longitude": "105.63294000",
    "wikiDataId": null
  },
  {
    "id": 130266,
    "name": "Huyện Cái Bè",
    "state_id": 3769,
    "state_code": "45",
    "country_id": 240,
    "country_code": "VN",
    "latitude": "10.38824000",
    "longitude": "105.94620000",
    "wikiDataId": null
  },
  {
    "id": 130241,
    "name": "Huyện Cai Lậy",
    "state_id": 3769,
    "state_code": "45",
    "country_id": 240,
    "country_code": "VN",
    "latitude": "10.38943000",
    "longitude": "106.06774000",
    "wikiDataId": null
  },
  {
    "id": 130252,
    "name": "Huyện Châu Thành",
    "state_id": 3769,
    "state_code": "45",
    "country_id": 240,
    "country_code": "VN",
    "latitude": "10.38600000",
    "longitude": "106.27311000",
    "wikiDataId": null
  },
  {
    "id": 130260,
    "name": "Huyện Chợ Gạo",
    "state_id": 3769,
    "state_code": "45",
    "country_id": 240,
    "country_code": "VN",
    "latitude": "10.37373000",
    "longitude": "106.44341000",
    "wikiDataId": null
  },
  {
    "id": 130293,
    "name": "Huyện Gò Công Đông",
    "state_id": 3769,
    "state_code": "45",
    "country_id": 240,
    "country_code": "VN",
    "latitude": "10.36784000",
    "longitude": "106.74592000",
    "wikiDataId": null
  },
  {
    "id": 130292,
    "name": "Huyện Gò Công Tây",
    "state_id": 3769,
    "state_code": "45",
    "country_id": 240,
    "country_code": "VN",
    "latitude": "10.34527000",
    "longitude": "106.59851000",
    "wikiDataId": null
  },
  {
    "id": 130340,
    "name": "Huyện Lai Vung",
    "state_id": 3769,
    "state_code": "45",
    "country_id": 240,
    "country_code": "VN",
    "latitude": "10.24051000",
    "longitude": "105.66327000",
    "wikiDataId": null
  },
  {
    "id": 130351,
    "name": "Huyện Lấp Vò",
    "state_id": 3769,
    "state_code": "45",
    "country_id": 240,
    "country_code": "VN",
    "latitude": "10.35918000",
    "longitude": "105.60611000",
    "wikiDataId": null
  },
  {
    "id": 130430,
    "name": "Huyện Tam Nông",
    "state_id": 3769,
    "state_code": "45",
    "country_id": 240,
    "country_code": "VN",
    "latitude": "10.72761000",
    "longitude": "105.52522000",
    "wikiDataId": null
  },
  {
    "id": 130483,
    "name": "Huyện Tân Hồng",
    "state_id": 3769,
    "state_code": "45",
    "country_id": 240,
    "country_code": "VN",
    "latitude": "10.87089000",
    "longitude": "105.49104000",
    "wikiDataId": null
  },
  {
    "id": 130486,
    "name": "Huyện Tân Phước",
    "state_id": 3769,
    "state_code": "45",
    "country_id": 240,
    "country_code": "VN",
    "latitude": "10.51489000",
    "longitude": "106.23312000",
    "wikiDataId": null
  },
  {
    "id": 130435,
    "name": "Huyện Thanh Bình",
    "state_id": 3769,
    "state_code": "45",
    "country_id": 240,
    "country_code": "VN",
    "latitude": "10.60137000",
    "longitude": "105.47811000",
    "wikiDataId": null
  },
  {
    "id": 130443,
    "name": "Huyện Tháp Mười",
    "state_id": 3769,
    "state_code": "45",
    "country_id": 240,
    "country_code": "VN",
    "latitude": "10.54398000",
    "longitude": "105.81875000",
    "wikiDataId": null
  },
  {
    "id": 130574,
    "name": "Mỹ Tho",
    "state_id": 3769,
    "state_code": "45",
    "country_id": 240,
    "country_code": "VN",
    "latitude": "10.36004000",
    "longitude": "106.35996000",
    "wikiDataId": null
  },
  {
    "id": 130589,
    "name": "Sa Dec",
    "state_id": 3769,
    "state_code": "45",
    "country_id": 240,
    "country_code": "VN",
    "latitude": "10.29085000",
    "longitude": "105.75635000",
    "wikiDataId": null
  },
  {
    "id": 130599,
    "name": "Thành Phố Mỹ Tho",
    "state_id": 3769,
    "state_code": "45",
    "country_id": 240,
    "country_code": "VN",
    "latitude": "10.36221000",
    "longitude": "106.36824000",
    "wikiDataId": null
  },
  {
    "id": 130607,
    "name": "Thị Trấn Tân Thành",
    "state_id": 3769,
    "state_code": "45",
    "country_id": 240,
    "country_code": "VN",
    "latitude": "10.25616000",
    "longitude": "105.59280000",
    "wikiDataId": null
  },
  {
    "id": 130610,
    "name": "Thị Xã Gò Công",
    "state_id": 3769,
    "state_code": "45",
    "country_id": 240,
    "country_code": "VN",
    "latitude": "10.40005000",
    "longitude": "106.65847000",
    "wikiDataId": null
  }
]