[
  {
    "id": 48353,
    "name": "Ballygowan",
    "state_id": 2311,
    "state_code": "BFS",
    "country_id": 232,
    "country_code": "GB",
    "latitude": "54.50165000",
    "longitude": "-5.79168000",
    "wikiDataId": null
  },
  {
    "id": 48458,
    "name": "Belfast",
    "state_id": 2311,
    "state_code": "BFS",
    "country_id": 232,
    "country_code": "GB",
    "latitude": "54.59682000",
    "longitude": "-5.92541000",
    "wikiDataId": null
  },
  {
    "id": 48867,
    "name": "Carnmoney",
    "state_id": 2311,
    "state_code": "BFS",
    "country_id": 232,
    "country_code": "GB",
    "latitude": "54.68333000",
    "longitude": "-5.95000000",
    "wikiDataId": null
  },
  {
    "id": 48870,
    "name": "Carrickfergus",
    "state_id": 2311,
    "state_code": "BFS",
    "country_id": 232,
    "country_code": "GB",
    "latitude": "54.71580000",
    "longitude": "-5.80580000",
    "wikiDataId": null
  },
  {
    "id": 48873,
    "name": "Carryduff",
    "state_id": 2311,
    "state_code": "BFS",
    "country_id": 232,
    "country_code": "GB",
    "latitude": "54.51799000",
    "longitude": "-5.88713000",
    "wikiDataId": null
  },
  {
    "id": 48884,
    "name": "Castlereagh",
    "state_id": 2311,
    "state_code": "BFS",
    "country_id": 232,
    "country_code": "GB",
    "latitude": "54.57350000",
    "longitude": "-5.88472000",
    "wikiDataId": null
  },
  {
    "id": 49006,
    "name": "City of Belfast",
    "state_id": 2311,
    "state_code": "BFS",
    "country_id": 232,
    "country_code": "GB",
    "latitude": "54.58333000",
    "longitude": "-5.91667000",
    "wikiDataId": null
  },
  {
    "id": 49081,
    "name": "Comber",
    "state_id": 2311,
    "state_code": "BFS",
    "country_id": 232,
    "country_code": "GB",
    "latitude": "54.54937000",
    "longitude": "-5.74379000",
    "wikiDataId": null
  },
  {
    "id": 49348,
    "name": "Dundonald",
    "state_id": 2311,
    "state_code": "BFS",
    "country_id": 232,
    "country_code": "GB",
    "latitude": "54.59196000",
    "longitude": "-5.79803000",
    "wikiDataId": null
  },
  {
    "id": 49746,
    "name": "Greenisland",
    "state_id": 2311,
    "state_code": "BFS",
    "country_id": 232,
    "country_code": "GB",
    "latitude": "54.70081000",
    "longitude": "-5.87479000",
    "wikiDataId": null
  },
  {
    "id": 49975,
    "name": "Holywood",
    "state_id": 2311,
    "state_code": "BFS",
    "country_id": 232,
    "country_code": "GB",
    "latitude": "54.63863000",
    "longitude": "-5.82473000",
    "wikiDataId": null
  },
  {
    "id": 50097,
    "name": "Jordanstown",
    "state_id": 2311,
    "state_code": "BFS",
    "country_id": 232,
    "country_code": "GB",
    "latitude": "54.68333000",
    "longitude": "-5.90000000",
    "wikiDataId": null
  },
  {
    "id": 50739,
    "name": "Newtownabbey",
    "state_id": 2311,
    "state_code": "BFS",
    "country_id": 232,
    "country_code": "GB",
    "latitude": "54.65983000",
    "longitude": "-5.90858000",
    "wikiDataId": null
  }
]