[
  {
    "id": 153938,
    "name": "Bodden Town",
    "state_id": 5251,
    "state_code": "01",
    "country_id": 41,
    "country_code": "KY",
    "latitude": "19.27966930",
    "longitude": "-81.27779990",
    "wikiDataId": null
  },
  {
    "id": 153939,
    "name": "East End",
    "state_id": 5251,
    "state_code": "01",
    "country_id": 41,
    "country_code": "KY",
    "latitude": "19.29958980",
    "longitude": "-81.11961380",
    "wikiDataId": null
  },
  {
    "id": 153940,
    "name": "George Town",
    "state_id": 5251,
    "state_code": "01",
    "country_id": 41,
    "country_code": "KY",
    "latitude": "19.29023260",
    "longitude": "-81.44333720",
    "wikiDataId": null
  },
  {
    "id": 153941,
    "name": "North Side",
    "state_id": 5251,
    "state_code": "01",
    "country_id": 41,
    "country_code": "KY",
    "latitude": "19.33620470",
    "longitude": "-81.51398130",
    "wikiDataId": null
  },
  {
    "id": 153942,
    "name": "West Bay",
    "state_id": 5251,
    "state_code": "01",
    "country_id": 41,
    "country_code": "KY",
    "latitude": "19.36651530",
    "longitude": "-81.43170260",
    "wikiDataId": null
  }
]