[
  {
    "id": 154626,
    "name": "Bura",
    "state_id": 176,
    "state_code": "39",
    "country_id": 113,
    "country_code": "KE",
    "latitude": "-3.50000000",
    "longitude": "38.30000000",
    "wikiDataId": null
  },
  {
    "id": 154631,
    "name": "Chala",
    "state_id": 176,
    "state_code": "39",
    "country_id": 113,
    "country_code": "KE",
    "latitude": "-3.38330000",
    "longitude": "37.68330000",
    "wikiDataId": null
  },
  {
    "id": 154627,
    "name": "Maktau",
    "state_id": 176,
    "state_code": "39",
    "country_id": 113,
    "country_code": "KE",
    "latitude": "-3.40000000",
    "longitude": "38.13330000",
    "wikiDataId": null
  },
  {
    "id": 154588,
    "name": "Mgange",
    "state_id": 176,
    "state_code": "39",
    "country_id": 113,
    "country_code": "KE",
    "latitude": "-3.40000000",
    "longitude": "38.31670000",
    "wikiDataId": null
  },
  {
    "id": 154589,
    "name": "Mwanda",
    "state_id": 176,
    "state_code": "39",
    "country_id": 113,
    "country_code": "KE",
    "latitude": "-3.40000000",
    "longitude": "38.28330000",
    "wikiDataId": null
  },
  {
    "id": 154583,
    "name": "Mwatate",
    "state_id": 176,
    "state_code": "39",
    "country_id": 113,
    "country_code": "KE",
    "latitude": "-3.50330000",
    "longitude": "38.38120000",
    "wikiDataId": null
  },
  {
    "id": 154582,
    "name": "Taveta",
    "state_id": 176,
    "state_code": "39",
    "country_id": 113,
    "country_code": "KE",
    "latitude": "-3.39880000",
    "longitude": "37.68340000",
    "wikiDataId": null
  },
  {
    "id": 154622,
    "name": "Voi",
    "state_id": 176,
    "state_code": "39",
    "country_id": 113,
    "country_code": "KE",
    "latitude": "-3.39610000",
    "longitude": "38.55630000",
    "wikiDataId": null
  },
  {
    "id": 154628,
    "name": "Wesu",
    "state_id": 176,
    "state_code": "39",
    "country_id": 113,
    "country_code": "KE",
    "latitude": "-3.40000000",
    "longitude": "38.35000000",
    "wikiDataId": null
  },
  {
    "id": 154625,
    "name": "Wundanyi",
    "state_id": 176,
    "state_code": "39",
    "country_id": 113,
    "country_code": "KE",
    "latitude": "-3.40850000",
    "longitude": "38.36510000",
    "wikiDataId": null
  }
]