[
  {
    "id": 31603,
    "name": "Haapsalu",
    "state_id": 3568,
    "state_code": "57",
    "country_id": 69,
    "country_code": "EE",
    "latitude": "58.94306000",
    "longitude": "23.54139000",
    "wikiDataId": null
  },
  {
    "id": 31604,
    "name": "Haapsalu linn",
    "state_id": 3568,
    "state_code": "57",
    "country_id": 69,
    "country_code": "EE",
    "latitude": "58.93580000",
    "longitude": "23.53005000",
    "wikiDataId": null
  },
  {
    "id": 31609,
    "name": "Hullo",
    "state_id": 3568,
    "state_code": "57",
    "country_id": 69,
    "country_code": "EE",
    "latitude": "58.99004000",
    "longitude": "23.24441000",
    "wikiDataId": null
  },
  {
    "id": 31656,
    "name": "Lääne-Nigula vald",
    "state_id": 3568,
    "state_code": "57",
    "country_id": 69,
    "country_code": "EE",
    "latitude": "58.96045000",
    "longitude": "23.74489000",
    "wikiDataId": null
  },
  {
    "id": 31715,
    "name": "Taebla",
    "state_id": 3568,
    "state_code": "57",
    "country_id": 69,
    "country_code": "EE",
    "latitude": "58.95389000",
    "longitude": "23.75222000",
    "wikiDataId": null
  },
  {
    "id": 31731,
    "name": "Uuemõisa",
    "state_id": 3568,
    "state_code": "57",
    "country_id": 69,
    "country_code": "EE",
    "latitude": "58.93944000",
    "longitude": "23.58944000",
    "wikiDataId": null
  },
  {
    "id": 31746,
    "name": "Vormsi vald",
    "state_id": 3568,
    "state_code": "57",
    "country_id": 69,
    "country_code": "EE",
    "latitude": "58.99986000",
    "longitude": "23.23408000",
    "wikiDataId": null
  }
]