[
  {
    "id": 2663,
    "name": "Adamawa",
    "country_id": 38,
    "country_code": "CM",
    "state_code": "AD",
    "type": "region",
    "latitude": "6.84967080",
    "longitude": "13.21632220",
    "iso3166_2": "CM-AD",
    "native": "Adamawa",
    "timezone": "Africa/Douala"
  },
  {
    "id": 2660,
    "name": "Centre",
    "country_id": 38,
    "country_code": "CM",
    "state_code": "CE",
    "type": "region",
    "latitude": "4.68626700",
    "longitude": "11.94145120",
    "iso3166_2": "CM-CE",
    "native": "Centre",
    "timezone": "Africa/Douala"
  },
  {
    "id": 2661,
    "name": "East",
    "country_id": 38,
    "country_code": "CM",
    "state_code": "ES",
    "type": "region",
    "latitude": "3.98943930",
    "longitude": "14.17837300",
    "iso3166_2": "CM-ES",
    "native": "Est",
    "timezone": "Africa/Douala"
  },
  {
    "id": 2656,
    "name": "Far North",
    "country_id": 38,
    "country_code": "CM",
    "state_code": "EN",
    "type": "region",
    "latitude": "10.63771860",
    "longitude": "14.27381560",
    "iso3166_2": "CM-EN",
    "native": "Grand Nord",
    "timezone": "Africa/Douala"
  },
  {
    "id": 2662,
    "name": "Littoral",
    "country_id": 38,
    "country_code": "CM",
    "state_code": "LT",
    "type": "region",
    "latitude": "4.20303300",
    "longitude": "10.05630570",
    "iso3166_2": "CM-LT",
    "native": "Littoral",
    "timezone": "Africa/Douala"
  },
  {
    "id": 2665,
    "name": "North",
    "country_id": 38,
    "country_code": "CM",
    "state_code": "NO",
    "type": "region",
    "latitude": "8.77127940",
    "longitude": "13.78036270",
    "iso3166_2": "CM-NO",
    "native": "North",
    "timezone": "Africa/Douala"
  },
  {
    "id": 2657,
    "name": "Northwest",
    "country_id": 38,
    "country_code": "CM",
    "state_code": "NW",
    "type": "region",
    "latitude": "6.37752550",
    "longitude": "10.38641710",
    "iso3166_2": "CM-NW",
    "native": "Nord-ouest",
    "timezone": "Africa/Douala"
  },
  {
    "id": 2659,
    "name": "South",
    "country_id": 38,
    "country_code": "CM",
    "state_code": "SU",
    "type": "region",
    "latitude": "2.73123740",
    "longitude": "11.62546220",
    "iso3166_2": "CM-SU",
    "native": "Sud",
    "timezone": "Africa/Douala"
  },
  {
    "id": 2658,
    "name": "Southwest",
    "country_id": 38,
    "country_code": "CM",
    "state_code": "SW",
    "type": "region",
    "latitude": "5.05776060",
    "longitude": "9.22894070",
    "iso3166_2": "CM-SW",
    "native": "Sud-ouest",
    "timezone": "Africa/Douala"
  },
  {
    "id": 2664,
    "name": "West",
    "country_id": 38,
    "country_code": "CM",
    "state_code": "OU",
    "type": "region",
    "latitude": "5.53563820",
    "longitude": "10.58288260",
    "iso3166_2": "CM-OU",
    "native": "Ouest",
    "timezone": "Africa/Douala"
  }
]