[
  {
    "id": 149070,
    "name": "Asunafo North",
    "state_id": 53,
    "state_code": "AF",
    "country_id": 83,
    "country_code": "GH",
    "latitude": "6.81968910",
    "longitude": "-2.80770500",
    "wikiDataId": null
  },
  {
    "id": 149071,
    "name": "Asunafo South",
    "state_id": 53,
    "state_code": "AF",
    "country_id": 83,
    "country_code": "GH",
    "latitude": "6.68210000",
    "longitude": "-2.43997530",
    "wikiDataId": null
  },
  {
    "id": 149072,
    "name": "Asutifi North",
    "state_id": 53,
    "state_code": "AF",
    "country_id": 83,
    "country_code": "GH",
    "latitude": "6.94774860",
    "longitude": "-2.76757160",
    "wikiDataId": null
  },
  {
    "id": 149073,
    "name": "Asutifi South",
    "state_id": 53,
    "state_code": "AF",
    "country_id": 83,
    "country_code": "GH",
    "latitude": "6.93215810",
    "longitude": "-2.35521890",
    "wikiDataId": null
  },
  {
    "id": 149069,
    "name": "Tano North",
    "state_id": 53,
    "state_code": "AF",
    "country_id": 83,
    "country_code": "GH",
    "latitude": "7.22603010",
    "longitude": "-2.30456560",
    "wikiDataId": null
  },
  {
    "id": 149068,
    "name": "Tano South",
    "state_id": 53,
    "state_code": "AF",
    "country_id": 83,
    "country_code": "GH",
    "latitude": "7.19537930",
    "longitude": "-2.12586610",
    "wikiDataId": null
  }
]