[
  {
    "id": 48332,
    "name": "Bacup",
    "state_id": 2327,
    "state_code": "RCH",
    "country_id": 232,
    "country_code": "GB",
    "latitude": "53.70336000",
    "longitude": "-2.20070000",
    "wikiDataId": null
  },
  {
    "id": 48604,
    "name": "Borough of Rochdale",
    "state_id": 2327,
    "state_code": "RCH",
    "country_id": 232,
    "country_code": "GB",
    "latitude": "53.58333000",
    "longitude": "-2.16667000",
    "wikiDataId": null
  },
  {
    "id": 49920,
    "name": "Heywood",
    "state_id": 2327,
    "state_code": "RCH",
    "country_id": 232,
    "country_code": "GB",
    "latitude": "53.59245000",
    "longitude": "-2.21941000",
    "wikiDataId": null
  },
  {
    "id": 50333,
    "name": "Littleborough",
    "state_id": 2327,
    "state_code": "RCH",
    "country_id": 232,
    "country_code": "GB",
    "latitude": "53.64413000",
    "longitude": "-2.09581000",
    "wikiDataId": null
  },
  {
    "id": 50591,
    "name": "Milnrow",
    "state_id": 2327,
    "state_code": "RCH",
    "country_id": 232,
    "country_code": "GB",
    "latitude": "53.61115000",
    "longitude": "-2.11266000",
    "wikiDataId": null
  },
  {
    "id": 51093,
    "name": "Rochdale",
    "state_id": 2327,
    "state_code": "RCH",
    "country_id": 232,
    "country_code": "GB",
    "latitude": "53.61766000",
    "longitude": "-2.15520000",
    "wikiDataId": null
  },
  {
    "id": 51747,
    "name": "Wardle",
    "state_id": 2327,
    "state_code": "RCH",
    "country_id": 232,
    "country_code": "GB",
    "latitude": "53.65000000",
    "longitude": "-2.13333000",
    "wikiDataId": null
  },
  {
    "id": 51886,
    "name": "Whitworth",
    "state_id": 2327,
    "state_code": "RCH",
    "country_id": 232,
    "country_code": "GB",
    "latitude": "53.65601000",
    "longitude": "-2.17710000",
    "wikiDataId": null
  }
]