[
  {
    "id": 76416,
    "name": "Bakri",
    "state_id": 1950,
    "state_code": "01",
    "country_id": 132,
    "country_code": "MY",
    "latitude": "2.04410000",
    "longitude": "102.65270000",
    "wikiDataId": null
  },
  {
    "id": 76424,
    "name": "Batu Pahat",
    "state_id": 1950,
    "state_code": "01",
    "country_id": 132,
    "country_code": "MY",
    "latitude": "1.85480000",
    "longitude": "102.93250000",
    "wikiDataId": null
  },
  {
    "id": 76433,
    "name": "Buloh Kasap",
    "state_id": 1950,
    "state_code": "01",
    "country_id": 132,
    "country_code": "MY",
    "latitude": "2.55360000",
    "longitude": "102.76400000",
    "wikiDataId": null
  },
  {
    "id": 76435,
    "name": "Chaah",
    "state_id": 1950,
    "state_code": "01",
    "country_id": 132,
    "country_code": "MY",
    "latitude": "2.24900000",
    "longitude": "103.04800000",
    "wikiDataId": null
  },
  {
    "id": 76437,
    "name": "Daerah Batu Pahat",
    "state_id": 1950,
    "state_code": "01",
    "country_id": 132,
    "country_code": "MY",
    "latitude": "1.93333000",
    "longitude": "103.00000000",
    "wikiDataId": null
  },
  {
    "id": 76438,
    "name": "Daerah Johor Baharu",
    "state_id": 1950,
    "state_code": "01",
    "country_id": 132,
    "country_code": "MY",
    "latitude": "1.65000000",
    "longitude": "103.60000000",
    "wikiDataId": null
  },
  {
    "id": 76439,
    "name": "Daerah Keluang",
    "state_id": 1950,
    "state_code": "01",
    "country_id": 132,
    "country_code": "MY",
    "latitude": "2.20000000",
    "longitude": "103.33333000",
    "wikiDataId": null
  },
  {
    "id": 76440,
    "name": "Daerah Kota Tinggi",
    "state_id": 1950,
    "state_code": "01",
    "country_id": 132,
    "country_code": "MY",
    "latitude": "1.81667000",
    "longitude": "103.96667000",
    "wikiDataId": null
  },
  {
    "id": 76441,
    "name": "Daerah Mersing",
    "state_id": 1950,
    "state_code": "01",
    "country_id": 132,
    "country_code": "MY",
    "latitude": "2.31667000",
    "longitude": "103.71667000",
    "wikiDataId": null
  },
  {
    "id": 76442,
    "name": "Daerah Muar",
    "state_id": 1950,
    "state_code": "01",
    "country_id": 132,
    "country_code": "MY",
    "latitude": "2.25000000",
    "longitude": "102.75000000",
    "wikiDataId": null
  },
  {
    "id": 76443,
    "name": "Daerah Pontian",
    "state_id": 1950,
    "state_code": "01",
    "country_id": 132,
    "country_code": "MY",
    "latitude": "1.50000000",
    "longitude": "103.50000000",
    "wikiDataId": null
  },
  {
    "id": 76444,
    "name": "Daerah Segamat",
    "state_id": 1950,
    "state_code": "01",
    "country_id": 132,
    "country_code": "MY",
    "latitude": "2.60000000",
    "longitude": "102.81667000",
    "wikiDataId": null
  },
  {
    "id": 76455,
    "name": "Johor Bahru",
    "state_id": 1950,
    "state_code": "01",
    "country_id": 132,
    "country_code": "MY",
    "latitude": "1.46550000",
    "longitude": "103.75780000",
    "wikiDataId": null
  },
  {
    "id": 76473,
    "name": "Kampung Pasir Gudang Baru",
    "state_id": 1950,
    "state_code": "01",
    "country_id": 132,
    "country_code": "MY",
    "latitude": "1.47260000",
    "longitude": "103.87800000",
    "wikiDataId": null
  },
  {
    "id": 76474,
    "name": "Kampung Simpang Renggam",
    "state_id": 1950,
    "state_code": "01",
    "country_id": 132,
    "country_code": "MY",
    "latitude": "1.82780000",
    "longitude": "103.30000000",
    "wikiDataId": null
  },
  {
    "id": 76480,
    "name": "Kelapa Sawit",
    "state_id": 1950,
    "state_code": "01",
    "country_id": 132,
    "country_code": "MY",
    "latitude": "1.66980000",
    "longitude": "103.53270000",
    "wikiDataId": null
  },
  {
    "id": 76487,
    "name": "Kluang",
    "state_id": 1950,
    "state_code": "01",
    "country_id": 132,
    "country_code": "MY",
    "latitude": "2.03046000",
    "longitude": "103.31689000",
    "wikiDataId": null
  },
  {
    "id": 76491,
    "name": "Kota Tinggi",
    "state_id": 1950,
    "state_code": "01",
    "country_id": 132,
    "country_code": "MY",
    "latitude": "1.73810000",
    "longitude": "103.89990000",
    "wikiDataId": null
  },
  {
    "id": 76508,
    "name": "Kulai",
    "state_id": 1950,
    "state_code": "01",
    "country_id": 132,
    "country_code": "MY",
    "latitude": "1.65610000",
    "longitude": "103.60320000",
    "wikiDataId": null
  },
  {
    "id": 76510,
    "name": "Labis",
    "state_id": 1950,
    "state_code": "01",
    "country_id": 132,
    "country_code": "MY",
    "latitude": "2.38500000",
    "longitude": "103.02100000",
    "wikiDataId": null
  },
  {
    "id": 76524,
    "name": "Mersing",
    "state_id": 1950,
    "state_code": "01",
    "country_id": 132,
    "country_code": "MY",
    "latitude": "2.43120000",
    "longitude": "103.84050000",
    "wikiDataId": null
  },
  {
    "id": 76526,
    "name": "Muar",
    "state_id": 1950,
    "state_code": "01",
    "country_id": 132,
    "country_code": "MY",
    "latitude": "2.04420000",
    "longitude": "102.56890000",
    "wikiDataId": null
  },
  {
    "id": 76535,
    "name": "Parit Raja",
    "state_id": 1950,
    "state_code": "01",
    "country_id": 132,
    "country_code": "MY",
    "latitude": "1.86810000",
    "longitude": "103.11240000",
    "wikiDataId": null
  },
  {
    "id": 76538,
    "name": "Pekan Nenas",
    "state_id": 1950,
    "state_code": "01",
    "country_id": 132,
    "country_code": "MY",
    "latitude": "1.51000000",
    "longitude": "103.51410000",
    "wikiDataId": null
  },
  {
    "id": 76544,
    "name": "Pontian Kechil",
    "state_id": 1950,
    "state_code": "01",
    "country_id": 132,
    "country_code": "MY",
    "latitude": "1.48660000",
    "longitude": "103.38960000",
    "wikiDataId": null
  },
  {
    "id": 76556,
    "name": "Segamat",
    "state_id": 1950,
    "state_code": "01",
    "country_id": 132,
    "country_code": "MY",
    "latitude": "2.51480000",
    "longitude": "102.81580000",
    "wikiDataId": null
  },
  {
    "id": 76565,
    "name": "Skudai",
    "state_id": 1950,
    "state_code": "01",
    "country_id": 132,
    "country_code": "MY",
    "latitude": "1.53741000",
    "longitude": "103.65779000",
    "wikiDataId": null
  },
  {
    "id": 76573,
    "name": "Taman Senai",
    "state_id": 1950,
    "state_code": "01",
    "country_id": 132,
    "country_code": "MY",
    "latitude": "1.60060000",
    "longitude": "103.64190000",
    "wikiDataId": null
  },
  {
    "id": 76576,
    "name": "Tangkak",
    "state_id": 1950,
    "state_code": "01",
    "country_id": 132,
    "country_code": "MY",
    "latitude": "2.26730000",
    "longitude": "102.54530000",
    "wikiDataId": null
  },
  {
    "id": 76586,
    "name": "Ulu Tiram",
    "state_id": 1950,
    "state_code": "01",
    "country_id": 132,
    "country_code": "MY",
    "latitude": "1.60000000",
    "longitude": "103.81667000",
    "wikiDataId": null
  },
  {
    "id": 76587,
    "name": "Yong Peng",
    "state_id": 1950,
    "state_code": "01",
    "country_id": 132,
    "country_code": "MY",
    "latitude": "2.01360000",
    "longitude": "103.06590000",
    "wikiDataId": null
  }
]