[
  {
    "id": 57610,
    "name": "Aizawl",
    "state_id": 4036,
    "state_code": "MZ",
    "country_id": 101,
    "country_code": "IN",
    "latitude": "23.80000000",
    "longitude": "92.90000000",
    "wikiDataId": null
  },
  {
    "id": 58184,
    "name": "Champhai",
    "state_id": 4036,
    "state_code": "MZ",
    "country_id": 101,
    "country_code": "IN",
    "latitude": "23.47444000",
    "longitude": "93.32556000",
    "wikiDataId": null
  },
  {
    "id": 131656,
    "name": "Darlawn",
    "state_id": 4036,
    "state_code": "MZ",
    "country_id": 101,
    "country_code": "IN",
    "latitude": "24.01336000",
    "longitude": "92.92439000",
    "wikiDataId": null
  },
  {
    "id": 132486,
    "name": "Khawhai",
    "state_id": 4036,
    "state_code": "MZ",
    "country_id": 101,
    "country_code": "IN",
    "latitude": "23.37807000",
    "longitude": "93.12797000",
    "wikiDataId": null
  },
  {
    "id": 132554,
    "name": "Kolasib",
    "state_id": 4036,
    "state_code": "MZ",
    "country_id": 101,
    "country_code": "IN",
    "latitude": "24.22388000",
    "longitude": "92.67869000",
    "wikiDataId": null
  },
  {
    "id": 132761,
    "name": "Lawngtlai",
    "state_id": 4036,
    "state_code": "MZ",
    "country_id": 101,
    "country_code": "IN",
    "latitude": "22.53000000",
    "longitude": "92.90000000",
    "wikiDataId": null
  },
  {
    "id": 132787,
    "name": "Lunglei",
    "state_id": 4036,
    "state_code": "MZ",
    "country_id": 101,
    "country_code": "IN",
    "latitude": "22.90000000",
    "longitude": "92.75000000",
    "wikiDataId": null
  },
  {
    "id": 132879,
    "name": "Mamit",
    "state_id": 4036,
    "state_code": "MZ",
    "country_id": 101,
    "country_code": "IN",
    "latitude": "23.78492000",
    "longitude": "92.46939000",
    "wikiDataId": null
  },
  {
    "id": 133242,
    "name": "North Vanlaiphai",
    "state_id": 4036,
    "state_code": "MZ",
    "country_id": 101,
    "country_code": "IN",
    "latitude": "23.13227000",
    "longitude": "93.06532000",
    "wikiDataId": null
  },
  {
    "id": 133756,
    "name": "Saiha",
    "state_id": 4036,
    "state_code": "MZ",
    "country_id": 101,
    "country_code": "IN",
    "latitude": "22.49183000",
    "longitude": "92.98143000",
    "wikiDataId": null
  },
  {
    "id": 133759,
    "name": "Sairang",
    "state_id": 4036,
    "state_code": "MZ",
    "country_id": 101,
    "country_code": "IN",
    "latitude": "23.81034000",
    "longitude": "92.65226000",
    "wikiDataId": null
  },
  {
    "id": 134063,
    "name": "Saitlaw",
    "state_id": 4036,
    "state_code": "MZ",
    "country_id": 101,
    "country_code": "IN",
    "latitude": "23.97187000",
    "longitude": "92.57454000",
    "wikiDataId": null
  },
  {
    "id": 133847,
    "name": "Serchhip",
    "state_id": 4036,
    "state_code": "MZ",
    "country_id": 101,
    "country_code": "IN",
    "latitude": "23.28172000",
    "longitude": "92.90039000",
    "wikiDataId": null
  },
  {
    "id": 134148,
    "name": "Thenzawl",
    "state_id": 4036,
    "state_code": "MZ",
    "country_id": 101,
    "country_code": "IN",
    "latitude": "23.31667000",
    "longitude": "92.75000000",
    "wikiDataId": null
  }
]