[
  {
    "id": 3728,
    "name": "Belgrade",
    "country_id": 196,
    "country_code": "RS",
    "state_code": "00",
    "type": "city",
    "latitude": "44.81781310",
    "longitude": "20.45689740",
    "iso3166_2": "RS-00",
    "native": "Београд",
    "timezone": "Europe/Belgrade"
  },
  {
    "id": 3717,
    "name": "Bor",
    "country_id": 196,
    "country_code": "RS",
    "state_code": "14",
    "type": "district",
    "latitude": "44.06989180",
    "longitude": "22.09850860",
    "iso3166_2": "RS-14",
    "native": "Бор",
    "timezone": "Europe/Belgrade"
  },
  {
    "id": 3732,
    "name": "Braničevo",
    "country_id": 196,
    "country_code": "RS",
    "state_code": "11",
    "type": "district",
    "latitude": "44.69822460",
    "longitude": "21.54467750",
    "iso3166_2": "RS-11",
    "native": "Браничево",
    "timezone": "Europe/Belgrade"
  },
  {
    "id": 3716,
    "name": "Central Banat",
    "country_id": 196,
    "country_code": "RS",
    "state_code": "02",
    "type": "district",
    "latitude": "45.43587780",
    "longitude": "20.51082930",
    "iso3166_2": "RS-02",
    "native": "Централни банат",
    "timezone": "Europe/Belgrade"
  },
  {
    "id": 3715,
    "name": "Jablanica",
    "country_id": 196,
    "country_code": "RS",
    "state_code": "23",
    "type": "district",
    "latitude": "43.45298250",
    "longitude": "21.26883870",
    "iso3166_2": "RS-23",
    "native": "Јабланица",
    "timezone": "Europe/Belgrade"
  },
  {
    "id": 3724,
    "name": "Kolubara",
    "country_id": 196,
    "country_code": "RS",
    "state_code": "09",
    "type": "district",
    "latitude": "44.35890700",
    "longitude": "20.14212970",
    "iso3166_2": "RS-09",
    "native": "Колубара",
    "timezone": "Europe/Belgrade"
  },
  {
    "id": 3719,
    "name": "Mačva",
    "country_id": 196,
    "country_code": "RS",
    "state_code": "08",
    "type": "district",
    "latitude": "44.52033740",
    "longitude": "19.50341970",
    "iso3166_2": "RS-08",
    "native": "Мач",
    "timezone": "Europe/Belgrade"
  },
  {
    "id": 3727,
    "name": "Moravica",
    "country_id": 196,
    "country_code": "RS",
    "state_code": "17",
    "type": "district",
    "latitude": "42.38726820",
    "longitude": "21.72182130",
    "iso3166_2": "RS-17",
    "native": "Моравица",
    "timezone": "Europe/Belgrade"
  },
  {
    "id": 3722,
    "name": "Nišava",
    "country_id": 196,
    "country_code": "RS",
    "state_code": "20",
    "type": "district",
    "latitude": "43.21781290",
    "longitude": "22.47957860",
    "iso3166_2": "RS-20",
    "native": "Nišava",
    "timezone": "Europe/Belgrade"
  },
  {
    "id": 3714,
    "name": "North Bačka",
    "country_id": 196,
    "country_code": "RS",
    "state_code": "01",
    "type": "district",
    "latitude": "45.90118310",
    "longitude": "19.58341920",
    "iso3166_2": "RS-01",
    "native": "Северна Бачка",
    "timezone": "Europe/Belgrade"
  },
  {
    "id": 3736,
    "name": "North Banat",
    "country_id": 196,
    "country_code": "RS",
    "state_code": "03",
    "type": "district",
    "latitude": "45.88874180",
    "longitude": "20.19023540",
    "iso3166_2": "RS-03",
    "native": "Северна Банат",
    "timezone": "Europe/Belgrade"
  },
  {
    "id": 3721,
    "name": "Pčinja",
    "country_id": 196,
    "country_code": "RS",
    "state_code": "24",
    "type": "district",
    "latitude": "42.38503890",
    "longitude": "22.01036270",
    "iso3166_2": "RS-24",
    "native": "Пас",
    "timezone": "Europe/Belgrade"
  },
  {
    "id": 3712,
    "name": "Pirot",
    "country_id": 196,
    "country_code": "RS",
    "state_code": "22",
    "type": "district",
    "latitude": "43.15473420",
    "longitude": "22.58650390",
    "iso3166_2": "RS-22",
    "native": "Пирот",
    "timezone": "Europe/Belgrade"
  },
  {
    "id": 3741,
    "name": "Podunavlje",
    "country_id": 196,
    "country_code": "RS",
    "state_code": "10",
    "type": "district",
    "latitude": "44.72810910",
    "longitude": "20.80922130",
    "iso3166_2": "RS-10",
    "native": "Podunavlje",
    "timezone": "Europe/Belgrade"
  },
  {
    "id": 3737,
    "name": "Pomoravlje",
    "country_id": 196,
    "country_code": "RS",
    "state_code": "13",
    "type": "district",
    "latitude": "44.02211070",
    "longitude": "21.44085670",
    "iso3166_2": "RS-13",
    "native": "Морски",
    "timezone": "Europe/Belgrade"
  },
  {
    "id": 3720,
    "name": "Rasina",
    "country_id": 196,
    "country_code": "RS",
    "state_code": "19",
    "type": "district",
    "latitude": "43.41092780",
    "longitude": "21.15970500",
    "iso3166_2": "RS-19",
    "native": "Смола",
    "timezone": "Europe/Belgrade"
  },
  {
    "id": 3725,
    "name": "Raška",
    "country_id": 196,
    "country_code": "RS",
    "state_code": "18",
    "type": "district",
    "latitude": "43.28695920",
    "longitude": "20.61413480",
    "iso3166_2": "RS-18",
    "native": "Распадати",
    "timezone": "Europe/Belgrade"
  },
  {
    "id": 3711,
    "name": "South Bačka",
    "country_id": 196,
    "country_code": "RS",
    "state_code": "06",
    "type": "district",
    "latitude": "45.44913960",
    "longitude": "19.76803030",
    "iso3166_2": "RS-06",
    "native": "Јужна Бачка",
    "timezone": "Europe/Belgrade"
  },
  {
    "id": 3713,
    "name": "South Banat",
    "country_id": 196,
    "country_code": "RS",
    "state_code": "04",
    "type": "district",
    "latitude": "44.99474320",
    "longitude": "20.93884890",
    "iso3166_2": "RS-04",
    "native": "Јужни Банат",
    "timezone": "Europe/Belgrade"
  },
  {
    "id": 3740,
    "name": "Srem",
    "country_id": 196,
    "country_code": "RS",
    "state_code": "07",
    "type": "district",
    "latitude": "44.91878380",
    "longitude": "19.97023080",
    "iso3166_2": "RS-07",
    "native": "Срем",
    "timezone": "Europe/Belgrade"
  },
  {
    "id": 3734,
    "name": "Šumadija",
    "country_id": 196,
    "country_code": "RS",
    "state_code": "12",
    "type": "district",
    "latitude": "44.61780280",
    "longitude": "20.27718840",
    "iso3166_2": "RS-12",
    "native": "Шумадија",
    "timezone": "Europe/Belgrade"
  },
  {
    "id": 3718,
    "name": "Toplica",
    "country_id": 196,
    "country_code": "RS",
    "state_code": "21",
    "type": "district",
    "latitude": "43.21655280",
    "longitude": "21.40436820",
    "iso3166_2": "RS-21",
    "native": "Топлице",
    "timezone": "Europe/Belgrade"
  },
  {
    "id": 3733,
    "name": "Vojvodina",
    "country_id": 196,
    "country_code": "RS",
    "state_code": "VO",
    "type": "province",
    "latitude": "45.41027760",
    "longitude": "19.97629920",
    "iso3166_2": "RS-VO",
    "native": "Vojvodina",
    "timezone": "Europe/Belgrade"
  },
  {
    "id": 3726,
    "name": "West Bačka",
    "country_id": 196,
    "country_code": "RS",
    "state_code": "05",
    "type": "district",
    "latitude": "45.73553850",
    "longitude": "19.18973640",
    "iso3166_2": "RS-05",
    "native": "Вест Бачка",
    "timezone": "Europe/Belgrade"
  },
  {
    "id": 3731,
    "name": "Zaječar",
    "country_id": 196,
    "country_code": "RS",
    "state_code": "15",
    "type": "district",
    "latitude": "43.90150480",
    "longitude": "22.27380110",
    "iso3166_2": "RS-15",
    "native": "Зајечар",
    "timezone": "Europe/Belgrade"
  },
  {
    "id": 3729,
    "name": "Zlatibor",
    "country_id": 196,
    "country_code": "RS",
    "state_code": "16",
    "type": "district",
    "latitude": "43.65318070",
    "longitude": "19.64058650",
    "iso3166_2": "RS-16",
    "native": "Златибор",
    "timezone": "Europe/Belgrade"
  }
]