[
  {
    "id": 38572,
    "name": "Ábalos",
    "state_id": 1171,
    "state_code": "LO",
    "country_id": 207,
    "country_code": "ES",
    "latitude": "42.57154000",
    "longitude": "-2.70956000",
    "wikiDataId": null
  },
  {
    "id": 31946,
    "name": "Agoncillo",
    "state_id": 1171,
    "state_code": "LO",
    "country_id": 207,
    "country_code": "ES",
    "latitude": "42.44667000",
    "longitude": "-2.28980000",
    "wikiDataId": null
  },
  {
    "id": 31965,
    "name": "Aguilar del Río Alhama",
    "state_id": 1171,
    "state_code": "LO",
    "country_id": 207,
    "country_code": "ES",
    "latitude": "41.96212000",
    "longitude": "-1.99340000",
    "wikiDataId": null
  },
  {
    "id": 31986,
    "name": "Ajamil",
    "state_id": 1171,
    "state_code": "LO",
    "country_id": 207,
    "country_code": "ES",
    "latitude": "42.16705000",
    "longitude": "-2.48752000",
    "wikiDataId": null
  },
  {
    "id": 152892,
    "name": "Ajamil de Cameros",
    "state_id": 1171,
    "state_code": "LO",
    "country_id": 207,
    "country_code": "ES",
    "latitude": "42.16745110",
    "longitude": "-2.48756920",
    "wikiDataId": null
  },
  {
    "id": 32034,
    "name": "Albelda de Iregua",
    "state_id": 1171,
    "state_code": "LO",
    "country_id": 207,
    "country_code": "ES",
    "latitude": "42.35837000",
    "longitude": "-2.47278000",
    "wikiDataId": null
  },
  {
    "id": 32038,
    "name": "Alberite",
    "state_id": 1171,
    "state_code": "LO",
    "country_id": 207,
    "country_code": "ES",
    "latitude": "42.40704000",
    "longitude": "-2.43894000",
    "wikiDataId": null
  },
  {
    "id": 32082,
    "name": "Alcanadre",
    "state_id": 1171,
    "state_code": "LO",
    "country_id": 207,
    "country_code": "ES",
    "latitude": "42.40492000",
    "longitude": "-2.12073000",
    "wikiDataId": null
  },
  {
    "id": 32158,
    "name": "Aldeanueva de Ebro",
    "state_id": 1171,
    "state_code": "LO",
    "country_id": 207,
    "country_code": "ES",
    "latitude": "42.22911000",
    "longitude": "-1.88735000",
    "wikiDataId": null
  },
  {
    "id": 32186,
    "name": "Alesanco",
    "state_id": 1171,
    "state_code": "LO",
    "country_id": 207,
    "country_code": "ES",
    "latitude": "42.41409000",
    "longitude": "-2.81666000",
    "wikiDataId": null
  },
  {
    "id": 32187,
    "name": "Alesón",
    "state_id": 1171,
    "state_code": "LO",
    "country_id": 207,
    "country_code": "ES",
    "latitude": "42.40554000",
    "longitude": "-2.68938000",
    "wikiDataId": null
  },
  {
    "id": 32198,
    "name": "Alfaro",
    "state_id": 1171,
    "state_code": "LO",
    "country_id": 207,
    "country_code": "ES",
    "latitude": "42.18032000",
    "longitude": "-1.75016000",
    "wikiDataId": null
  },
  {
    "id": 32272,
    "name": "Almarza de Cameros",
    "state_id": 1171,
    "state_code": "LO",
    "country_id": 207,
    "country_code": "ES",
    "latitude": "42.21650000",
    "longitude": "-2.59873000",
    "wikiDataId": null
  },
  {
    "id": 32380,
    "name": "Anguciana",
    "state_id": 1171,
    "state_code": "LO",
    "country_id": 207,
    "country_code": "ES",
    "latitude": "42.57421000",
    "longitude": "-2.90124000",
    "wikiDataId": null
  },
  {
    "id": 32381,
    "name": "Anguiano",
    "state_id": 1171,
    "state_code": "LO",
    "country_id": 207,
    "country_code": "ES",
    "latitude": "42.26381000",
    "longitude": "-2.76463000",
    "wikiDataId": null
  },
  {
    "id": 32453,
    "name": "Arenzana de Abajo",
    "state_id": 1171,
    "state_code": "LO",
    "country_id": 207,
    "country_code": "ES",
    "latitude": "42.38599000",
    "longitude": "-2.71940000",
    "wikiDataId": null
  },
  {
    "id": 32454,
    "name": "Arenzana de Arriba",
    "state_id": 1171,
    "state_code": "LO",
    "country_id": 207,
    "country_code": "ES",
    "latitude": "42.38745000",
    "longitude": "-2.69494000",
    "wikiDataId": null
  },
  {
    "id": 32493,
    "name": "Arnedillo",
    "state_id": 1171,
    "state_code": "LO",
    "country_id": 207,
    "country_code": "ES",
    "latitude": "42.21221000",
    "longitude": "-2.23602000",
    "wikiDataId": null
  },
  {
    "id": 32494,
    "name": "Arnedo",
    "state_id": 1171,
    "state_code": "LO",
    "country_id": 207,
    "country_code": "ES",
    "latitude": "42.22800000",
    "longitude": "-2.10083000",
    "wikiDataId": null
  },
  {
    "id": 32518,
    "name": "Arrúbal",
    "state_id": 1171,
    "state_code": "LO",
    "country_id": 207,
    "country_code": "ES",
    "latitude": "42.43485000",
    "longitude": "-2.25143000",
    "wikiDataId": null
  },
  {
    "id": 32558,
    "name": "Ausejo",
    "state_id": 1171,
    "state_code": "LO",
    "country_id": 207,
    "country_code": "ES",
    "latitude": "42.34210000",
    "longitude": "-2.16710000",
    "wikiDataId": null
  },
  {
    "id": 32562,
    "name": "Autol",
    "state_id": 1171,
    "state_code": "LO",
    "country_id": 207,
    "country_code": "ES",
    "latitude": "42.21661000",
    "longitude": "-2.00525000",
    "wikiDataId": null
  },
  {
    "id": 32586,
    "name": "Azofra",
    "state_id": 1171,
    "state_code": "LO",
    "country_id": 207,
    "country_code": "ES",
    "latitude": "42.42400000",
    "longitude": "-2.80086000",
    "wikiDataId": null
  },
  {
    "id": 32603,
    "name": "Badarán",
    "state_id": 1171,
    "state_code": "LO",
    "country_id": 207,
    "country_code": "ES",
    "latitude": "42.36794000",
    "longitude": "-2.81079000",
    "wikiDataId": null
  },
  {
    "id": 32701,
    "name": "Bañares",
    "state_id": 1171,
    "state_code": "LO",
    "country_id": 207,
    "country_code": "ES",
    "latitude": "42.46838000",
    "longitude": "-2.91010000",
    "wikiDataId": null
  },
  {
    "id": 32706,
    "name": "Baños de Río Tobía",
    "state_id": 1171,
    "state_code": "LO",
    "country_id": 207,
    "country_code": "ES",
    "latitude": "42.33533000",
    "longitude": "-2.76099000",
    "wikiDataId": null
  },
  {
    "id": 32705,
    "name": "Baños de Rioja",
    "state_id": 1171,
    "state_code": "LO",
    "country_id": 207,
    "country_code": "ES",
    "latitude": "42.51230000",
    "longitude": "-2.94635000",
    "wikiDataId": null
  },
  {
    "id": 32837,
    "name": "Berceo",
    "state_id": 1171,
    "state_code": "LO",
    "country_id": 207,
    "country_code": "ES",
    "latitude": "42.33906000",
    "longitude": "-2.85239000",
    "wikiDataId": null
  },
  {
    "id": 32848,
    "name": "Bergasa",
    "state_id": 1171,
    "state_code": "LO",
    "country_id": 207,
    "country_code": "ES",
    "latitude": "42.25285000",
    "longitude": "-2.13221000",
    "wikiDataId": null
  },
  {
    "id": 32849,
    "name": "Bergasillas Bajera",
    "state_id": 1171,
    "state_code": "LO",
    "country_id": 207,
    "country_code": "ES",
    "latitude": "42.24462000",
    "longitude": "-2.15830000",
    "wikiDataId": null
  },
  {
    "id": 152893,
    "name": "Bezares",
    "state_id": 1171,
    "state_code": "LO",
    "country_id": 207,
    "country_code": "ES",
    "latitude": "42.37083010",
    "longitude": "-2.67043640",
    "wikiDataId": null
  },
  {
    "id": 32919,
    "name": "Bobadilla",
    "state_id": 1171,
    "state_code": "LO",
    "country_id": 207,
    "country_code": "ES",
    "latitude": "42.31873000",
    "longitude": "-2.75992000",
    "wikiDataId": null
  },
  {
    "id": 32983,
    "name": "Brieva de Cameros",
    "state_id": 1171,
    "state_code": "LO",
    "country_id": 207,
    "country_code": "ES",
    "latitude": "42.16462000",
    "longitude": "-2.79450000",
    "wikiDataId": null
  },
  {
    "id": 32990,
    "name": "Briñas",
    "state_id": 1171,
    "state_code": "LO",
    "country_id": 207,
    "country_code": "ES",
    "latitude": "42.60106000",
    "longitude": "-2.83192000",
    "wikiDataId": null
  },
  {
    "id": 32988,
    "name": "Briones",
    "state_id": 1171,
    "state_code": "LO",
    "country_id": 207,
    "country_code": "ES",
    "latitude": "42.54397000",
    "longitude": "-2.78572000",
    "wikiDataId": null
  },
  {
    "id": 33091,
    "name": "Cabezón de Cameros",
    "state_id": 1171,
    "state_code": "LO",
    "country_id": 207,
    "country_code": "ES",
    "latitude": "42.19716000",
    "longitude": "-2.51989000",
    "wikiDataId": null
  },
  {
    "id": 33126,
    "name": "Calahorra",
    "state_id": 1171,
    "state_code": "LO",
    "country_id": 207,
    "country_code": "ES",
    "latitude": "42.30506000",
    "longitude": "-1.96521000",
    "wikiDataId": null
  },
  {
    "id": 152894,
    "name": "Camprovín",
    "state_id": 1171,
    "state_code": "LO",
    "country_id": 207,
    "country_code": "ES",
    "latitude": "42.35296730",
    "longitude": "-2.72448890",
    "wikiDataId": null
  },
  {
    "id": 33223,
    "name": "Canales de la Sierra",
    "state_id": 1171,
    "state_code": "LO",
    "country_id": 207,
    "country_code": "ES",
    "latitude": "42.14233000",
    "longitude": "-3.02458000",
    "wikiDataId": null
  },
  {
    "id": 33534,
    "name": "Cañas",
    "state_id": 1171,
    "state_code": "LO",
    "country_id": 207,
    "country_code": "ES",
    "latitude": "42.39240000",
    "longitude": "-2.84649000",
    "wikiDataId": null
  },
  {
    "id": 33244,
    "name": "Canillas de Río Tuerto",
    "state_id": 1171,
    "state_code": "LO",
    "country_id": 207,
    "country_code": "ES",
    "latitude": "42.39950000",
    "longitude": "-2.84091000",
    "wikiDataId": null
  },
  {
    "id": 33896,
    "name": "Cárdenas",
    "state_id": 1171,
    "state_code": "LO",
    "country_id": 207,
    "country_code": "ES",
    "latitude": "42.37464000",
    "longitude": "-2.76726000",
    "wikiDataId": null
  },
  {
    "id": 33345,
    "name": "Casalarreina",
    "state_id": 1171,
    "state_code": "LO",
    "country_id": 207,
    "country_code": "ES",
    "latitude": "42.54911000",
    "longitude": "-2.90994000",
    "wikiDataId": null
  },
  {
    "id": 33398,
    "name": "Castañares de Rioja",
    "state_id": 1171,
    "state_code": "LO",
    "country_id": 207,
    "country_code": "ES",
    "latitude": "42.51248000",
    "longitude": "-2.93148000",
    "wikiDataId": null
  },
  {
    "id": 152895,
    "name": "Castroviejo",
    "state_id": 1171,
    "state_code": "LO",
    "country_id": 207,
    "country_code": "ES",
    "latitude": "42.32955620",
    "longitude": "-2.66081290",
    "wikiDataId": null
  },
  {
    "id": 33565,
    "name": "Cellorigo",
    "state_id": 1171,
    "state_code": "LO",
    "country_id": 207,
    "country_code": "ES",
    "latitude": "42.62703000",
    "longitude": "-3.00016000",
    "wikiDataId": null
  },
  {
    "id": 33569,
    "name": "Cenicero",
    "state_id": 1171,
    "state_code": "LO",
    "country_id": 207,
    "country_code": "ES",
    "latitude": "42.48130000",
    "longitude": "-2.64412000",
    "wikiDataId": null
  },
  {
    "id": 33602,
    "name": "Cervera del Río Alhama",
    "state_id": 1171,
    "state_code": "LO",
    "country_id": 207,
    "country_code": "ES",
    "latitude": "42.00517000",
    "longitude": "-1.95531000",
    "wikiDataId": null
  },
  {
    "id": 33656,
    "name": "Cidamón",
    "state_id": 1171,
    "state_code": "LO",
    "country_id": 207,
    "country_code": "ES",
    "latitude": "42.49518000",
    "longitude": "-2.87834000",
    "wikiDataId": null
  },
  {
    "id": 33665,
    "name": "Cihuri",
    "state_id": 1171,
    "state_code": "LO",
    "country_id": 207,
    "country_code": "ES",
    "latitude": "42.56499000",
    "longitude": "-2.92287000",
    "wikiDataId": null
  },
  {
    "id": 33688,
    "name": "Cirueña",
    "state_id": 1171,
    "state_code": "LO",
    "country_id": 207,
    "country_code": "ES",
    "latitude": "42.41214000",
    "longitude": "-2.89593000",
    "wikiDataId": null
  },
  {
    "id": 33705,
    "name": "Clavijo",
    "state_id": 1171,
    "state_code": "LO",
    "country_id": 207,
    "country_code": "ES",
    "latitude": "42.34897000",
    "longitude": "-2.42666000",
    "wikiDataId": null
  },
  {
    "id": 33783,
    "name": "Cordovín",
    "state_id": 1171,
    "state_code": "LO",
    "country_id": 207,
    "country_code": "ES",
    "latitude": "42.38557000",
    "longitude": "-2.81500000",
    "wikiDataId": null
  },
  {
    "id": 33786,
    "name": "Corera",
    "state_id": 1171,
    "state_code": "LO",
    "country_id": 207,
    "country_code": "ES",
    "latitude": "42.34344000",
    "longitude": "-2.22023000",
    "wikiDataId": null
  },
  {
    "id": 33793,
    "name": "Cornago",
    "state_id": 1171,
    "state_code": "LO",
    "country_id": 207,
    "country_code": "ES",
    "latitude": "42.06444000",
    "longitude": "-2.09486000",
    "wikiDataId": null
  },
  {
    "id": 33797,
    "name": "Corporales",
    "state_id": 1171,
    "state_code": "LO",
    "country_id": 207,
    "country_code": "ES",
    "latitude": "42.43208000",
    "longitude": "-2.99535000",
    "wikiDataId": null
  },
  {
    "id": 152896,
    "name": "Cuzcurrita de Río Tirón",
    "state_id": 1171,
    "state_code": "LO",
    "country_id": 207,
    "country_code": "ES",
    "latitude": "42.54264830",
    "longitude": "-2.96310190",
    "wikiDataId": null
  },
  {
    "id": 152897,
    "name": "Daroca de Rioja",
    "state_id": 1171,
    "state_code": "LO",
    "country_id": 207,
    "country_code": "ES",
    "latitude": "42.37095310",
    "longitude": "-2.58191450",
    "wikiDataId": null
  },
  {
    "id": 152902,
    "name": "El Rasillo de Cameros",
    "state_id": 1171,
    "state_code": "LO",
    "country_id": 207,
    "country_code": "ES",
    "latitude": "42.19600870",
    "longitude": "-2.69714420",
    "wikiDataId": null
  },
  {
    "id": 152903,
    "name": "El Redal",
    "state_id": 1171,
    "state_code": "LO",
    "country_id": 207,
    "country_code": "ES",
    "latitude": "42.34822820",
    "longitude": "-2.19907630",
    "wikiDataId": null
  },
  {
    "id": 152908,
    "name": "El Villar de Arnedo",
    "state_id": 1171,
    "state_code": "LO",
    "country_id": 207,
    "country_code": "ES",
    "latitude": "42.32183680",
    "longitude": "-2.09716930",
    "wikiDataId": null
  },
  {
    "id": 34055,
    "name": "Enciso",
    "state_id": 1171,
    "state_code": "LO",
    "country_id": 207,
    "country_code": "ES",
    "latitude": "42.14946000",
    "longitude": "-2.26953000",
    "wikiDataId": null
  },
  {
    "id": 34062,
    "name": "Entrena",
    "state_id": 1171,
    "state_code": "LO",
    "country_id": 207,
    "country_code": "ES",
    "latitude": "42.38782000",
    "longitude": "-2.53066000",
    "wikiDataId": null
  },
  {
    "id": 34146,
    "name": "Estollo",
    "state_id": 1171,
    "state_code": "LO",
    "country_id": 207,
    "country_code": "ES",
    "latitude": "42.32953000",
    "longitude": "-2.85092000",
    "wikiDataId": null
  },
  {
    "id": 34153,
    "name": "Ezcaray",
    "state_id": 1171,
    "state_code": "LO",
    "country_id": 207,
    "country_code": "ES",
    "latitude": "42.32536000",
    "longitude": "-3.01309000",
    "wikiDataId": null
  },
  {
    "id": 34204,
    "name": "Foncea",
    "state_id": 1171,
    "state_code": "LO",
    "country_id": 207,
    "country_code": "ES",
    "latitude": "42.61529000",
    "longitude": "-3.03897000",
    "wikiDataId": null
  },
  {
    "id": 34219,
    "name": "Fonzaleche",
    "state_id": 1171,
    "state_code": "LO",
    "country_id": 207,
    "country_code": "ES",
    "latitude": "42.58114000",
    "longitude": "-3.01218000",
    "wikiDataId": null
  },
  {
    "id": 34286,
    "name": "Fuenmayor",
    "state_id": 1171,
    "state_code": "LO",
    "country_id": 207,
    "country_code": "ES",
    "latitude": "42.46729000",
    "longitude": "-2.56153000",
    "wikiDataId": null
  },
  {
    "id": 34377,
    "name": "Galbárruli",
    "state_id": 1171,
    "state_code": "LO",
    "country_id": 207,
    "country_code": "ES",
    "latitude": "42.62181000",
    "longitude": "-2.96087000",
    "wikiDataId": null
  },
  {
    "id": 34381,
    "name": "Galilea",
    "state_id": 1171,
    "state_code": "LO",
    "country_id": 207,
    "country_code": "ES",
    "latitude": "42.34703000",
    "longitude": "-2.23605000",
    "wikiDataId": null
  },
  {
    "id": 34393,
    "name": "Gallinero de Cameros",
    "state_id": 1171,
    "state_code": "LO",
    "country_id": 207,
    "country_code": "ES",
    "latitude": "42.17229000",
    "longitude": "-2.61793000",
    "wikiDataId": null
  },
  {
    "id": 34466,
    "name": "Gimileo",
    "state_id": 1171,
    "state_code": "LO",
    "country_id": 207,
    "country_code": "ES",
    "latitude": "42.54992000",
    "longitude": "-2.82237000",
    "wikiDataId": null
  },
  {
    "id": 34509,
    "name": "Grañón",
    "state_id": 1171,
    "state_code": "LO",
    "country_id": 207,
    "country_code": "ES",
    "latitude": "42.44992000",
    "longitude": "-3.02767000",
    "wikiDataId": null
  },
  {
    "id": 34518,
    "name": "Grávalos",
    "state_id": 1171,
    "state_code": "LO",
    "country_id": 207,
    "country_code": "ES",
    "latitude": "42.10836000",
    "longitude": "-1.99874000",
    "wikiDataId": null
  },
  {
    "id": 34572,
    "name": "Haro",
    "state_id": 1171,
    "state_code": "LO",
    "country_id": 207,
    "country_code": "ES",
    "latitude": "42.57634000",
    "longitude": "-2.84760000",
    "wikiDataId": null
  },
  {
    "id": 34580,
    "name": "Herce",
    "state_id": 1171,
    "state_code": "LO",
    "country_id": 207,
    "country_code": "ES",
    "latitude": "42.21423000",
    "longitude": "-2.16488000",
    "wikiDataId": null
  },
  {
    "id": 34592,
    "name": "Herramélluri",
    "state_id": 1171,
    "state_code": "LO",
    "country_id": 207,
    "country_code": "ES",
    "latitude": "42.50295000",
    "longitude": "-3.01954000",
    "wikiDataId": null
  },
  {
    "id": 34605,
    "name": "Hervías",
    "state_id": 1171,
    "state_code": "LO",
    "country_id": 207,
    "country_code": "ES",
    "latitude": "42.44781000",
    "longitude": "-2.88714000",
    "wikiDataId": null
  },
  {
    "id": 34657,
    "name": "Hormilla",
    "state_id": 1171,
    "state_code": "LO",
    "country_id": 207,
    "country_code": "ES",
    "latitude": "42.43828000",
    "longitude": "-2.77447000",
    "wikiDataId": null
  },
  {
    "id": 34658,
    "name": "Hormilleja",
    "state_id": 1171,
    "state_code": "LO",
    "country_id": 207,
    "country_code": "ES",
    "latitude": "42.45628000",
    "longitude": "-2.73155000",
    "wikiDataId": null
  },
  {
    "id": 34661,
    "name": "Hornillos de Cameros",
    "state_id": 1171,
    "state_code": "LO",
    "country_id": 207,
    "country_code": "ES",
    "latitude": "42.21001000",
    "longitude": "-2.41960000",
    "wikiDataId": null
  },
  {
    "id": 34664,
    "name": "Hornos de Moncalvillo",
    "state_id": 1171,
    "state_code": "LO",
    "country_id": 207,
    "country_code": "ES",
    "latitude": "42.39198000",
    "longitude": "-2.58550000",
    "wikiDataId": null
  },
  {
    "id": 34713,
    "name": "Huércanos",
    "state_id": 1171,
    "state_code": "LO",
    "country_id": 207,
    "country_code": "ES",
    "latitude": "42.42800000",
    "longitude": "-2.69589000",
    "wikiDataId": null
  },
  {
    "id": 34735,
    "name": "Igea",
    "state_id": 1171,
    "state_code": "LO",
    "country_id": 207,
    "country_code": "ES",
    "latitude": "42.06777000",
    "longitude": "-2.01094000",
    "wikiDataId": null
  },
  {
    "id": 34793,
    "name": "Jalón de Cameros",
    "state_id": 1171,
    "state_code": "LO",
    "country_id": 207,
    "country_code": "ES",
    "latitude": "42.21804000",
    "longitude": "-2.49004000",
    "wikiDataId": null
  },
  {
    "id": 34946,
    "name": "Laguna de Cameros",
    "state_id": 1171,
    "state_code": "LO",
    "country_id": 207,
    "country_code": "ES",
    "latitude": "42.17455000",
    "longitude": "-2.54282000",
    "wikiDataId": null
  },
  {
    "id": 34953,
    "name": "Lagunilla del Jubera",
    "state_id": 1171,
    "state_code": "LO",
    "country_id": 207,
    "country_code": "ES",
    "latitude": "42.33414000",
    "longitude": "-2.32117000",
    "wikiDataId": null
  },
  {
    "id": 34975,
    "name": "Lardero",
    "state_id": 1171,
    "state_code": "LO",
    "country_id": 207,
    "country_code": "ES",
    "latitude": "42.42686000",
    "longitude": "-2.46153000",
    "wikiDataId": null
  },
  {
    "id": 35017,
    "name": "Ledesma de la Cogolla",
    "state_id": 1171,
    "state_code": "LO",
    "country_id": 207,
    "country_code": "ES",
    "latitude": "42.32032000",
    "longitude": "-2.71900000",
    "wikiDataId": null
  },
  {
    "id": 35027,
    "name": "Leiva",
    "state_id": 1171,
    "state_code": "LO",
    "country_id": 207,
    "country_code": "ES",
    "latitude": "42.50281000",
    "longitude": "-3.04701000",
    "wikiDataId": null
  },
  {
    "id": 35040,
    "name": "Leza de Río Leza",
    "state_id": 1171,
    "state_code": "LO",
    "country_id": 207,
    "country_code": "ES",
    "latitude": "42.32952000",
    "longitude": "-2.40606000",
    "wikiDataId": null
  },
  {
    "id": 35101,
    "name": "Logroño",
    "state_id": 1171,
    "state_code": "LO",
    "country_id": 207,
    "country_code": "ES",
    "latitude": "42.46667000",
    "longitude": "-2.45000000",
    "wikiDataId": null
  },
  {
    "id": 35164,
    "name": "Lumbreras",
    "state_id": 1171,
    "state_code": "LO",
    "country_id": 207,
    "country_code": "ES",
    "latitude": "42.10477000",
    "longitude": "-2.62189000",
    "wikiDataId": null
  },
  {
    "id": 35253,
    "name": "Manjarrés",
    "state_id": 1171,
    "state_code": "LO",
    "country_id": 207,
    "country_code": "ES",
    "latitude": "42.39152000",
    "longitude": "-2.67512000",
    "wikiDataId": null
  },
  {
    "id": 152898,
    "name": "Mansilla de la Sierra",
    "state_id": 1171,
    "state_code": "LO",
    "country_id": 207,
    "country_code": "ES",
    "latitude": "42.15000000",
    "longitude": "-2.95000000",
    "wikiDataId": null
  },
  {
    "id": 35266,
    "name": "Manzanares de Rioja",
    "state_id": 1171,
    "state_code": "LO",
    "country_id": 207,
    "country_code": "ES",
    "latitude": "42.39610000",
    "longitude": "-2.89590000",
    "wikiDataId": null
  },
  {
    "id": 35347,
    "name": "Matute",
    "state_id": 1171,
    "state_code": "LO",
    "country_id": 207,
    "country_code": "ES",
    "latitude": "42.29888000",
    "longitude": "-2.79564000",
    "wikiDataId": null
  },
  {
    "id": 35378,
    "name": "Medrano",
    "state_id": 1171,
    "state_code": "LO",
    "country_id": 207,
    "country_code": "ES",
    "latitude": "42.38361000",
    "longitude": "-2.55394000",
    "wikiDataId": null
  },
  {
    "id": 35666,
    "name": "Munilla",
    "state_id": 1171,
    "state_code": "LO",
    "country_id": 207,
    "country_code": "ES",
    "latitude": "42.18900000",
    "longitude": "-2.29506000",
    "wikiDataId": null
  },
  {
    "id": 35678,
    "name": "Murillo de Río Leza",
    "state_id": 1171,
    "state_code": "LO",
    "country_id": 207,
    "country_code": "ES",
    "latitude": "42.40099000",
    "longitude": "-2.32464000",
    "wikiDataId": null
  },
  {
    "id": 35682,
    "name": "Muro de Aguas",
    "state_id": 1171,
    "state_code": "LO",
    "country_id": 207,
    "country_code": "ES",
    "latitude": "42.13364000",
    "longitude": "-2.11175000",
    "wikiDataId": null
  },
  {
    "id": 35684,
    "name": "Muro en Cameros",
    "state_id": 1171,
    "state_code": "LO",
    "country_id": 207,
    "country_code": "ES",
    "latitude": "42.22509000",
    "longitude": "-2.53038000",
    "wikiDataId": null
  },
  {
    "id": 35842,
    "name": "Nájera",
    "state_id": 1171,
    "state_code": "LO",
    "country_id": 207,
    "country_code": "ES",
    "latitude": "42.41822000",
    "longitude": "-2.72865000",
    "wikiDataId": null
  },
  {
    "id": 35710,
    "name": "Nalda",
    "state_id": 1171,
    "state_code": "LO",
    "country_id": 207,
    "country_code": "ES",
    "latitude": "42.33467000",
    "longitude": "-2.48710000",
    "wikiDataId": null
  },
  {
    "id": 35739,
    "name": "Navajún",
    "state_id": 1171,
    "state_code": "LO",
    "country_id": 207,
    "country_code": "ES",
    "latitude": "41.96667000",
    "longitude": "-2.10000000",
    "wikiDataId": null
  },
  {
    "id": 152899,
    "name": "Navarrete",
    "state_id": 1171,
    "state_code": "LO",
    "country_id": 207,
    "country_code": "ES",
    "latitude": "42.42981100",
    "longitude": "-2.56196070",
    "wikiDataId": null
  },
  {
    "id": 152900,
    "name": "Nestares",
    "state_id": 1171,
    "state_code": "LO",
    "country_id": 207,
    "country_code": "ES",
    "latitude": "42.26988980",
    "longitude": "-2.61954750",
    "wikiDataId": null
  },
  {
    "id": 35807,
    "name": "Nieva de Cameros",
    "state_id": 1171,
    "state_code": "LO",
    "country_id": 207,
    "country_code": "ES",
    "latitude": "42.21835000",
    "longitude": "-2.66700000",
    "wikiDataId": null
  },
  {
    "id": 35857,
    "name": "Ochánduri",
    "state_id": 1171,
    "state_code": "LO",
    "country_id": 207,
    "country_code": "ES",
    "latitude": "42.52525000",
    "longitude": "-3.00415000",
    "wikiDataId": null
  },
  {
    "id": 35859,
    "name": "Ocón",
    "state_id": 1171,
    "state_code": "LO",
    "country_id": 207,
    "country_code": "ES",
    "latitude": "42.29898000",
    "longitude": "-2.24019000",
    "wikiDataId": null
  },
  {
    "id": 35867,
    "name": "Ojacastro",
    "state_id": 1171,
    "state_code": "LO",
    "country_id": 207,
    "country_code": "ES",
    "latitude": "42.34720000",
    "longitude": "-3.00490000",
    "wikiDataId": null
  },
  {
    "id": 35894,
    "name": "Ollauri",
    "state_id": 1171,
    "state_code": "LO",
    "country_id": 207,
    "country_code": "ES",
    "latitude": "42.54256000",
    "longitude": "-2.83448000",
    "wikiDataId": null
  },
  {
    "id": 152901,
    "name": "Ortigosa de Cameros",
    "state_id": 1171,
    "state_code": "LO",
    "country_id": 207,
    "country_code": "ES",
    "latitude": "42.17670250",
    "longitude": "-2.70522170",
    "wikiDataId": null
  },
  {
    "id": 36087,
    "name": "Pazuengos",
    "state_id": 1171,
    "state_code": "LO",
    "country_id": 207,
    "country_code": "ES",
    "latitude": "42.31776000",
    "longitude": "-2.92539000",
    "wikiDataId": null
  },
  {
    "id": 36112,
    "name": "Pedroso",
    "state_id": 1171,
    "state_code": "LO",
    "country_id": 207,
    "country_code": "ES",
    "latitude": "42.29959000",
    "longitude": "-2.71889000",
    "wikiDataId": null
  },
  {
    "id": 36208,
    "name": "Pinillos",
    "state_id": 1171,
    "state_code": "LO",
    "country_id": 207,
    "country_code": "ES",
    "latitude": "42.19951000",
    "longitude": "-2.59709000",
    "wikiDataId": null
  },
  {
    "id": 36341,
    "name": "Pradejón",
    "state_id": 1171,
    "state_code": "LO",
    "country_id": 207,
    "country_code": "ES",
    "latitude": "42.33446000",
    "longitude": "-2.06851000",
    "wikiDataId": null
  },
  {
    "id": 36343,
    "name": "Pradillo",
    "state_id": 1171,
    "state_code": "LO",
    "country_id": 207,
    "country_code": "ES",
    "latitude": "42.17660000",
    "longitude": "-2.64185000",
    "wikiDataId": null
  },
  {
    "id": 36407,
    "name": "Préjano",
    "state_id": 1171,
    "state_code": "LO",
    "country_id": 207,
    "country_code": "ES",
    "latitude": "42.18648000",
    "longitude": "-2.17998000",
    "wikiDataId": null
  },
  {
    "id": 36375,
    "name": "Provincia de La Rioja",
    "state_id": 1171,
    "state_code": "LO",
    "country_id": 207,
    "country_code": "ES",
    "latitude": "42.46311000",
    "longitude": "-2.42455000",
    "wikiDataId": null
  },
  {
    "id": 36492,
    "name": "Quel",
    "state_id": 1171,
    "state_code": "LO",
    "country_id": 207,
    "country_code": "ES",
    "latitude": "42.22979000",
    "longitude": "-2.05196000",
    "wikiDataId": null
  },
  {
    "id": 36534,
    "name": "Rabanera",
    "state_id": 1171,
    "state_code": "LO",
    "country_id": 207,
    "country_code": "ES",
    "latitude": "42.18955000",
    "longitude": "-2.48654000",
    "wikiDataId": null
  },
  {
    "id": 152904,
    "name": "Ribafrecha",
    "state_id": 1171,
    "state_code": "LO",
    "country_id": 207,
    "country_code": "ES",
    "latitude": "42.35697600",
    "longitude": "-2.38847780",
    "wikiDataId": null
  },
  {
    "id": 36626,
    "name": "Rincón de Soto",
    "state_id": 1171,
    "state_code": "LO",
    "country_id": 207,
    "country_code": "ES",
    "latitude": "42.23475000",
    "longitude": "-1.85214000",
    "wikiDataId": null
  },
  {
    "id": 36659,
    "name": "Robres del Castillo",
    "state_id": 1171,
    "state_code": "LO",
    "country_id": 207,
    "country_code": "ES",
    "latitude": "42.27593000",
    "longitude": "-2.29245000",
    "wikiDataId": null
  },
  {
    "id": 36664,
    "name": "Rodezno",
    "state_id": 1171,
    "state_code": "LO",
    "country_id": 207,
    "country_code": "ES",
    "latitude": "42.52576000",
    "longitude": "-2.84597000",
    "wikiDataId": null
  },
  {
    "id": 36743,
    "name": "Sajazarra",
    "state_id": 1171,
    "state_code": "LO",
    "country_id": 207,
    "country_code": "ES",
    "latitude": "42.58884000",
    "longitude": "-2.96124000",
    "wikiDataId": null
  },
  {
    "id": 36805,
    "name": "San Asensio",
    "state_id": 1171,
    "state_code": "LO",
    "country_id": 207,
    "country_code": "ES",
    "latitude": "42.49677000",
    "longitude": "-2.75057000",
    "wikiDataId": null
  },
  {
    "id": 36891,
    "name": "San Millán de la Cogolla",
    "state_id": 1171,
    "state_code": "LO",
    "country_id": 207,
    "country_code": "ES",
    "latitude": "42.32974000",
    "longitude": "-2.86185000",
    "wikiDataId": null
  },
  {
    "id": 36890,
    "name": "San Millán de Yécora",
    "state_id": 1171,
    "state_code": "LO",
    "country_id": 207,
    "country_code": "ES",
    "latitude": "42.54705000",
    "longitude": "-3.09681000",
    "wikiDataId": null
  },
  {
    "id": 36916,
    "name": "San Román de Cameros",
    "state_id": 1171,
    "state_code": "LO",
    "country_id": 207,
    "country_code": "ES",
    "latitude": "42.23255000",
    "longitude": "-2.47436000",
    "wikiDataId": null
  },
  {
    "id": 36924,
    "name": "San Torcuato",
    "state_id": 1171,
    "state_code": "LO",
    "country_id": 207,
    "country_code": "ES",
    "latitude": "42.48219000",
    "longitude": "-2.88923000",
    "wikiDataId": null
  },
  {
    "id": 36930,
    "name": "San Vicente de la Sonsierra",
    "state_id": 1171,
    "state_code": "LO",
    "country_id": 207,
    "country_code": "ES",
    "latitude": "42.56321000",
    "longitude": "-2.76071000",
    "wikiDataId": null
  },
  {
    "id": 37014,
    "name": "Santa Coloma",
    "state_id": 1171,
    "state_code": "LO",
    "country_id": 207,
    "country_code": "ES",
    "latitude": "42.36717000",
    "longitude": "-2.65598000",
    "wikiDataId": null
  },
  {
    "id": 152905,
    "name": "Santa Engracia del Jubera",
    "state_id": 1171,
    "state_code": "LO",
    "country_id": 207,
    "country_code": "ES",
    "latitude": "42.30131660",
    "longitude": "-2.33202350",
    "wikiDataId": null
  },
  {
    "id": 37055,
    "name": "Santa Eulalia Bajera",
    "state_id": 1171,
    "state_code": "LO",
    "country_id": 207,
    "country_code": "ES",
    "latitude": "42.20960000",
    "longitude": "-2.19174000",
    "wikiDataId": null
  },
  {
    "id": 37141,
    "name": "Santo Domingo de la Calzada",
    "state_id": 1171,
    "state_code": "LO",
    "country_id": 207,
    "country_code": "ES",
    "latitude": "42.44015000",
    "longitude": "-2.95365000",
    "wikiDataId": null
  },
  {
    "id": 152906,
    "name": "Santurde de Rioja",
    "state_id": 1171,
    "state_code": "LO",
    "country_id": 207,
    "country_code": "ES",
    "latitude": "42.39012090",
    "longitude": "-2.97982800",
    "wikiDataId": null
  },
  {
    "id": 37154,
    "name": "Santurdejo",
    "state_id": 1171,
    "state_code": "LO",
    "country_id": 207,
    "country_code": "ES",
    "latitude": "42.37696000",
    "longitude": "-2.95437000",
    "wikiDataId": null
  },
  {
    "id": 37278,
    "name": "Sojuela",
    "state_id": 1171,
    "state_code": "LO",
    "country_id": 207,
    "country_code": "ES",
    "latitude": "42.36988000",
    "longitude": "-2.54525000",
    "wikiDataId": null
  },
  {
    "id": 37306,
    "name": "Sorzano",
    "state_id": 1171,
    "state_code": "LO",
    "country_id": 207,
    "country_code": "ES",
    "latitude": "42.34307000",
    "longitude": "-2.52872000",
    "wikiDataId": null
  },
  {
    "id": 152907,
    "name": "Sotés",
    "state_id": 1171,
    "state_code": "LO",
    "country_id": 207,
    "country_code": "ES",
    "latitude": "42.39939910",
    "longitude": "-2.60342360",
    "wikiDataId": null
  },
  {
    "id": 37319,
    "name": "Soto en Cameros",
    "state_id": 1171,
    "state_code": "LO",
    "country_id": 207,
    "country_code": "ES",
    "latitude": "42.28591000",
    "longitude": "-2.42597000",
    "wikiDataId": null
  },
  {
    "id": 37414,
    "name": "Terroba",
    "state_id": 1171,
    "state_code": "LO",
    "country_id": 207,
    "country_code": "ES",
    "latitude": "42.25809000",
    "longitude": "-2.44375000",
    "wikiDataId": null
  },
  {
    "id": 37429,
    "name": "Tirgo",
    "state_id": 1171,
    "state_code": "LO",
    "country_id": 207,
    "country_code": "ES",
    "latitude": "42.54587000",
    "longitude": "-2.94940000",
    "wikiDataId": null
  },
  {
    "id": 37438,
    "name": "Tobía",
    "state_id": 1171,
    "state_code": "LO",
    "country_id": 207,
    "country_code": "ES",
    "latitude": "42.29846000",
    "longitude": "-2.81399000",
    "wikiDataId": null
  },
  {
    "id": 37468,
    "name": "Tormantos",
    "state_id": 1171,
    "state_code": "LO",
    "country_id": 207,
    "country_code": "ES",
    "latitude": "42.49431000",
    "longitude": "-3.07446000",
    "wikiDataId": null
  },
  {
    "id": 37504,
    "name": "Torre en Cameros",
    "state_id": 1171,
    "state_code": "LO",
    "country_id": 207,
    "country_code": "ES",
    "latitude": "42.24133000",
    "longitude": "-2.51805000",
    "wikiDataId": null
  },
  {
    "id": 37524,
    "name": "Torrecilla en Cameros",
    "state_id": 1171,
    "state_code": "LO",
    "country_id": 207,
    "country_code": "ES",
    "latitude": "42.25532000",
    "longitude": "-2.63109000",
    "wikiDataId": null
  },
  {
    "id": 37525,
    "name": "Torrecilla sobre Alesanco",
    "state_id": 1171,
    "state_code": "LO",
    "country_id": 207,
    "country_code": "ES",
    "latitude": "42.40825000",
    "longitude": "-2.83379000",
    "wikiDataId": null
  },
  {
    "id": 37562,
    "name": "Torremontalbo",
    "state_id": 1171,
    "state_code": "LO",
    "country_id": 207,
    "country_code": "ES",
    "latitude": "42.50000000",
    "longitude": "-2.68333000",
    "wikiDataId": null
  },
  {
    "id": 37633,
    "name": "Treviana",
    "state_id": 1171,
    "state_code": "LO",
    "country_id": 207,
    "country_code": "ES",
    "latitude": "42.55901000",
    "longitude": "-3.05032000",
    "wikiDataId": null
  },
  {
    "id": 37636,
    "name": "Tricio",
    "state_id": 1171,
    "state_code": "LO",
    "country_id": 207,
    "country_code": "ES",
    "latitude": "42.40223000",
    "longitude": "-2.71912000",
    "wikiDataId": null
  },
  {
    "id": 37650,
    "name": "Tudelilla",
    "state_id": 1171,
    "state_code": "LO",
    "country_id": 207,
    "country_code": "ES",
    "latitude": "42.30023000",
    "longitude": "-2.11749000",
    "wikiDataId": null
  },
  {
    "id": 37700,
    "name": "Uruñuela",
    "state_id": 1171,
    "state_code": "LO",
    "country_id": 207,
    "country_code": "ES",
    "latitude": "42.44310000",
    "longitude": "-2.70749000",
    "wikiDataId": null
  },
  {
    "id": 37763,
    "name": "Valdemadera",
    "state_id": 1171,
    "state_code": "LO",
    "country_id": 207,
    "country_code": "ES",
    "latitude": "41.98408000",
    "longitude": "-2.07403000",
    "wikiDataId": null
  },
  {
    "id": 37829,
    "name": "Valgañón",
    "state_id": 1171,
    "state_code": "LO",
    "country_id": 207,
    "country_code": "ES",
    "latitude": "42.31782000",
    "longitude": "-3.06725000",
    "wikiDataId": null
  },
  {
    "id": 37942,
    "name": "Ventosa",
    "state_id": 1171,
    "state_code": "LO",
    "country_id": 207,
    "country_code": "ES",
    "latitude": "42.40495000",
    "longitude": "-2.62651000",
    "wikiDataId": null
  },
  {
    "id": 37945,
    "name": "Ventrosa",
    "state_id": 1171,
    "state_code": "LO",
    "country_id": 207,
    "country_code": "ES",
    "latitude": "42.15705000",
    "longitude": "-2.85044000",
    "wikiDataId": null
  },
  {
    "id": 37971,
    "name": "Viguera",
    "state_id": 1171,
    "state_code": "LO",
    "country_id": 207,
    "country_code": "ES",
    "latitude": "42.30934000",
    "longitude": "-2.53334000",
    "wikiDataId": null
  },
  {
    "id": 38095,
    "name": "Villalba de Rioja",
    "state_id": 1171,
    "state_code": "LO",
    "country_id": 207,
    "country_code": "ES",
    "latitude": "42.60967000",
    "longitude": "-2.88687000",
    "wikiDataId": null
  },
  {
    "id": 38115,
    "name": "Villalobar de Rioja",
    "state_id": 1171,
    "state_code": "LO",
    "country_id": 207,
    "country_code": "ES",
    "latitude": "42.49123000",
    "longitude": "-2.96404000",
    "wikiDataId": null
  },
  {
    "id": 38149,
    "name": "Villamediana de Iregua",
    "state_id": 1171,
    "state_code": "LO",
    "country_id": 207,
    "country_code": "ES",
    "latitude": "42.42658000",
    "longitude": "-2.41943000",
    "wikiDataId": null
  },
  {
    "id": 38176,
    "name": "Villanueva de Cameros",
    "state_id": 1171,
    "state_code": "LO",
    "country_id": 207,
    "country_code": "ES",
    "latitude": "42.16719000",
    "longitude": "-2.65040000",
    "wikiDataId": null
  },
  {
    "id": 38246,
    "name": "Villar de Torre",
    "state_id": 1171,
    "state_code": "LO",
    "country_id": 207,
    "country_code": "ES",
    "latitude": "42.37133000",
    "longitude": "-2.86411000",
    "wikiDataId": null
  },
  {
    "id": 38270,
    "name": "Villarejo",
    "state_id": 1171,
    "state_code": "LO",
    "country_id": 207,
    "country_code": "ES",
    "latitude": "42.37417000",
    "longitude": "-2.88712000",
    "wikiDataId": null
  },
  {
    "id": 38297,
    "name": "Villarroya",
    "state_id": 1171,
    "state_code": "LO",
    "country_id": 207,
    "country_code": "ES",
    "latitude": "42.13053000",
    "longitude": "-2.06896000",
    "wikiDataId": null
  },
  {
    "id": 38309,
    "name": "Villarta-Quintana",
    "state_id": 1171,
    "state_code": "LO",
    "country_id": 207,
    "country_code": "ES",
    "latitude": "42.42998000",
    "longitude": "-3.04840000",
    "wikiDataId": null
  },
  {
    "id": 38340,
    "name": "Villavelayo",
    "state_id": 1171,
    "state_code": "LO",
    "country_id": 207,
    "country_code": "ES",
    "latitude": "42.13084000",
    "longitude": "-2.98565000",
    "wikiDataId": null
  },
  {
    "id": 38348,
    "name": "Villaverde de Rioja",
    "state_id": 1171,
    "state_code": "LO",
    "country_id": 207,
    "country_code": "ES",
    "latitude": "42.32051000",
    "longitude": "-2.81370000",
    "wikiDataId": null
  },
  {
    "id": 38377,
    "name": "Villoslada de Cameros",
    "state_id": 1171,
    "state_code": "LO",
    "country_id": 207,
    "country_code": "ES",
    "latitude": "42.11383000",
    "longitude": "-2.67413000",
    "wikiDataId": null
  },
  {
    "id": 38394,
    "name": "Viniegra de Abajo",
    "state_id": 1171,
    "state_code": "LO",
    "country_id": 207,
    "country_code": "ES",
    "latitude": "42.15055000",
    "longitude": "-2.88930000",
    "wikiDataId": null
  },
  {
    "id": 38395,
    "name": "Viniegra de Arriba",
    "state_id": 1171,
    "state_code": "LO",
    "country_id": 207,
    "country_code": "ES",
    "latitude": "42.09513000",
    "longitude": "-2.83304000",
    "wikiDataId": null
  },
  {
    "id": 38476,
    "name": "Zarratón",
    "state_id": 1171,
    "state_code": "LO",
    "country_id": 207,
    "country_code": "ES",
    "latitude": "42.51649000",
    "longitude": "-2.88094000",
    "wikiDataId": null
  },
  {
    "id": 38483,
    "name": "Zarzosa",
    "state_id": 1171,
    "state_code": "LO",
    "country_id": 207,
    "country_code": "ES",
    "latitude": "42.18294000",
    "longitude": "-2.34297000",
    "wikiDataId": null
  },
  {
    "id": 38499,
    "name": "Zorraquín",
    "state_id": 1171,
    "state_code": "LO",
    "country_id": 207,
    "country_code": "ES",
    "latitude": "42.32565000",
    "longitude": "-3.03925000",
    "wikiDataId": null
  }
]