[
  {
    "id": 97729,
    "name": "Aykino",
    "state_id": 1899,
    "state_code": "KO",
    "country_id": 182,
    "country_code": "RU",
    "latitude": "62.22481000",
    "longitude": "49.99222000",
    "wikiDataId": null
  },
  {
    "id": 97952,
    "name": "Blagoyevo",
    "state_id": 1899,
    "state_code": "KO",
    "country_id": 182,
    "country_code": "RU",
    "latitude": "63.42310000",
    "longitude": "47.96460000",
    "wikiDataId": null
  },
  {
    "id": 98037,
    "name": "Borovoy",
    "state_id": 1899,
    "state_code": "KO",
    "country_id": 182,
    "country_code": "RU",
    "latitude": "63.23005000",
    "longitude": "52.89031000",
    "wikiDataId": null
  },
  {
    "id": 98410,
    "name": "Ezhva",
    "state_id": 1899,
    "state_code": "KO",
    "country_id": 182,
    "country_code": "RU",
    "latitude": "61.81281000",
    "longitude": "50.72834000",
    "wikiDataId": null
  },
  {
    "id": 98678,
    "name": "Inta",
    "state_id": 1899,
    "state_code": "KO",
    "country_id": 182,
    "country_code": "RU",
    "latitude": "66.03169000",
    "longitude": "60.16594000",
    "wikiDataId": null
  },
  {
    "id": 98748,
    "name": "Izhma",
    "state_id": 1899,
    "state_code": "KO",
    "country_id": 182,
    "country_code": "RU",
    "latitude": "65.00833000",
    "longitude": "53.91128000",
    "wikiDataId": null
  },
  {
    "id": 99116,
    "name": "Knyazhpogostskiy Rayon",
    "state_id": 1899,
    "state_code": "KO",
    "country_id": 182,
    "country_code": "RU",
    "latitude": "62.58333000",
    "longitude": "50.91667000",
    "wikiDataId": null
  },
  {
    "id": 99220,
    "name": "Kortkeros",
    "state_id": 1899,
    "state_code": "KO",
    "country_id": 182,
    "country_code": "RU",
    "latitude": "61.81056000",
    "longitude": "51.58056000",
    "wikiDataId": null
  },
  {
    "id": 99234,
    "name": "Koslan",
    "state_id": 1899,
    "state_code": "KO",
    "country_id": 182,
    "country_code": "RU",
    "latitude": "63.45641000",
    "longitude": "48.89891000",
    "wikiDataId": null
  },
  {
    "id": 99258,
    "name": "Koygorodok",
    "state_id": 1899,
    "state_code": "KO",
    "country_id": 182,
    "country_code": "RU",
    "latitude": "60.44498000",
    "longitude": "50.99680000",
    "wikiDataId": null
  },
  {
    "id": 99259,
    "name": "Koygorodskiy Rayon",
    "state_id": 1899,
    "state_code": "KO",
    "country_id": 182,
    "country_code": "RU",
    "latitude": "60.41667000",
    "longitude": "51.00000000",
    "wikiDataId": null
  },
  {
    "id": 99265,
    "name": "Kozhva",
    "state_id": 1899,
    "state_code": "KO",
    "country_id": 182,
    "country_code": "RU",
    "latitude": "65.10727000",
    "longitude": "57.04590000",
    "wikiDataId": null
  },
  {
    "id": 99606,
    "name": "Letka",
    "state_id": 1899,
    "state_code": "KO",
    "country_id": 182,
    "country_code": "RU",
    "latitude": "59.60111000",
    "longitude": "49.42321000",
    "wikiDataId": null
  },
  {
    "id": 99878,
    "name": "Mezhdurechensk",
    "state_id": 1899,
    "state_code": "KO",
    "country_id": 182,
    "country_code": "RU",
    "latitude": "63.24556000",
    "longitude": "48.55333000",
    "wikiDataId": null
  },
  {
    "id": 99909,
    "name": "Mikun’",
    "state_id": 1899,
    "state_code": "KO",
    "country_id": 182,
    "country_code": "RU",
    "latitude": "62.35472000",
    "longitude": "50.07714000",
    "wikiDataId": null
  },
  {
    "id": 99960,
    "name": "Mordino",
    "state_id": 1899,
    "state_code": "KO",
    "country_id": 182,
    "country_code": "RU",
    "latitude": "61.35327000",
    "longitude": "51.89574000",
    "wikiDataId": null
  },
  {
    "id": 100174,
    "name": "Nizhniy Odes",
    "state_id": 1899,
    "state_code": "KO",
    "country_id": 182,
    "country_code": "RU",
    "latitude": "63.64451000",
    "longitude": "54.85598000",
    "wikiDataId": null
  },
  {
    "id": 100552,
    "name": "Parma",
    "state_id": 1899,
    "state_code": "KO",
    "country_id": 182,
    "country_code": "RU",
    "latitude": "66.00000000",
    "longitude": "57.70000000",
    "wikiDataId": null
  },
  {
    "id": 100587,
    "name": "Pechora",
    "state_id": 1899,
    "state_code": "KO",
    "country_id": 182,
    "country_code": "RU",
    "latitude": "65.14717000",
    "longitude": "57.22439000",
    "wikiDataId": null
  },
  {
    "id": 100827,
    "name": "Priluzskiy Rayon",
    "state_id": 1899,
    "state_code": "KO",
    "country_id": 182,
    "country_code": "RU",
    "latitude": "60.33333000",
    "longitude": "49.33333000",
    "wikiDataId": null
  },
  {
    "id": 100868,
    "name": "Promyshlennyy",
    "state_id": 1899,
    "state_code": "KO",
    "country_id": 182,
    "country_code": "RU",
    "latitude": "67.58333000",
    "longitude": "63.91667000",
    "wikiDataId": null
  },
  {
    "id": 100904,
    "name": "Puteyets",
    "state_id": 1899,
    "state_code": "KO",
    "country_id": 182,
    "country_code": "RU",
    "latitude": "65.17157000",
    "longitude": "57.09101000",
    "wikiDataId": null
  },
  {
    "id": 101148,
    "name": "Sedkyrkeshch",
    "state_id": 1899,
    "state_code": "KO",
    "country_id": 182,
    "country_code": "RU",
    "latitude": "61.75000000",
    "longitude": "50.91667000",
    "wikiDataId": null
  },
  {
    "id": 101343,
    "name": "Shudayag",
    "state_id": 1899,
    "state_code": "KO",
    "country_id": 182,
    "country_code": "RU",
    "latitude": "63.52665000",
    "longitude": "53.60582000",
    "wikiDataId": null
  },
  {
    "id": 101371,
    "name": "Sindor",
    "state_id": 1899,
    "state_code": "KO",
    "country_id": 182,
    "country_code": "RU",
    "latitude": "62.86286000",
    "longitude": "51.89051000",
    "wikiDataId": null
  },
  {
    "id": 101484,
    "name": "Sosnogorsk",
    "state_id": 1899,
    "state_code": "KO",
    "country_id": 182,
    "country_code": "RU",
    "latitude": "63.60229000",
    "longitude": "53.88175000",
    "wikiDataId": null
  },
  {
    "id": 101512,
    "name": "Sovetskiy",
    "state_id": 1899,
    "state_code": "KO",
    "country_id": 182,
    "country_code": "RU",
    "latitude": "67.48333000",
    "longitude": "64.41667000",
    "wikiDataId": null
  },
  {
    "id": 101724,
    "name": "Syktyvkar",
    "state_id": 1899,
    "state_code": "KO",
    "country_id": 182,
    "country_code": "RU",
    "latitude": "61.66400000",
    "longitude": "50.81500000",
    "wikiDataId": null
  },
  {
    "id": 101728,
    "name": "Synya",
    "state_id": 1899,
    "state_code": "KO",
    "country_id": 182,
    "country_code": "RU",
    "latitude": "65.37185000",
    "longitude": "58.03874000",
    "wikiDataId": null
  },
  {
    "id": 101919,
    "name": "Troitsko-Pechorsk",
    "state_id": 1899,
    "state_code": "KO",
    "country_id": 182,
    "country_code": "RU",
    "latitude": "62.70836000",
    "longitude": "56.19643000",
    "wikiDataId": null
  },
  {
    "id": 101920,
    "name": "Troitsko-Pechorskiy Rayon",
    "state_id": 1899,
    "state_code": "KO",
    "country_id": 182,
    "country_code": "RU",
    "latitude": "62.66667000",
    "longitude": "56.25000000",
    "wikiDataId": null
  },
  {
    "id": 101941,
    "name": "Tsementnozavodskiy",
    "state_id": 1899,
    "state_code": "KO",
    "country_id": 182,
    "country_code": "RU",
    "latitude": "67.62834000",
    "longitude": "64.08965000",
    "wikiDataId": null
  },
  {
    "id": 102043,
    "name": "Ukhta",
    "state_id": 1899,
    "state_code": "KO",
    "country_id": 182,
    "country_code": "RU",
    "latitude": "63.56705000",
    "longitude": "53.68348000",
    "wikiDataId": null
  },
  {
    "id": 102096,
    "name": "Usinsk",
    "state_id": 1899,
    "state_code": "KO",
    "country_id": 182,
    "country_code": "RU",
    "latitude": "65.99389000",
    "longitude": "57.52806000",
    "wikiDataId": null
  },
  {
    "id": 102100,
    "name": "Usogorsk",
    "state_id": 1899,
    "state_code": "KO",
    "country_id": 182,
    "country_code": "RU",
    "latitude": "63.41064000",
    "longitude": "48.68722000",
    "wikiDataId": null
  },
  {
    "id": 102110,
    "name": "Ust-Tsilma",
    "state_id": 1899,
    "state_code": "KO",
    "country_id": 182,
    "country_code": "RU",
    "latitude": "65.44104000",
    "longitude": "52.14978000",
    "wikiDataId": null
  },
  {
    "id": 102134,
    "name": "Ust’-Kulom",
    "state_id": 1899,
    "state_code": "KO",
    "country_id": 182,
    "country_code": "RU",
    "latitude": "61.68636000",
    "longitude": "53.69020000",
    "wikiDataId": null
  },
  {
    "id": 102140,
    "name": "Ust’-Tsilemskiy Rayon",
    "state_id": 1899,
    "state_code": "KO",
    "country_id": 182,
    "country_code": "RU",
    "latitude": "65.41667000",
    "longitude": "52.16667000",
    "wikiDataId": null
  },
  {
    "id": 102266,
    "name": "Verkhnyaya Inta",
    "state_id": 1899,
    "state_code": "KO",
    "country_id": 182,
    "country_code": "RU",
    "latitude": "65.98115000",
    "longitude": "60.30945000",
    "wikiDataId": null
  },
  {
    "id": 102268,
    "name": "Verkhnyaya Maksakovka",
    "state_id": 1899,
    "state_code": "KO",
    "country_id": 182,
    "country_code": "RU",
    "latitude": "61.63504000",
    "longitude": "50.96740000",
    "wikiDataId": null
  },
  {
    "id": 102323,
    "name": "Vizinga",
    "state_id": 1899,
    "state_code": "KO",
    "country_id": 182,
    "country_code": "RU",
    "latitude": "61.07493000",
    "longitude": "50.10311000",
    "wikiDataId": null
  },
  {
    "id": 102334,
    "name": "Vodnyy",
    "state_id": 1899,
    "state_code": "KO",
    "country_id": 182,
    "country_code": "RU",
    "latitude": "63.50464000",
    "longitude": "53.40947000",
    "wikiDataId": null
  },
  {
    "id": 102376,
    "name": "Vorgashor",
    "state_id": 1899,
    "state_code": "KO",
    "country_id": 182,
    "country_code": "RU",
    "latitude": "67.58355000",
    "longitude": "63.79399000",
    "wikiDataId": null
  },
  {
    "id": 102377,
    "name": "Vorkuta",
    "state_id": 1899,
    "state_code": "KO",
    "country_id": 182,
    "country_code": "RU",
    "latitude": "67.49884000",
    "longitude": "64.05253000",
    "wikiDataId": null
  },
  {
    "id": 102405,
    "name": "Voyvozh",
    "state_id": 1899,
    "state_code": "KO",
    "country_id": 182,
    "country_code": "RU",
    "latitude": "62.89198000",
    "longitude": "54.96346000",
    "wikiDataId": null
  },
  {
    "id": 102415,
    "name": "Vuktyl",
    "state_id": 1899,
    "state_code": "KO",
    "country_id": 182,
    "country_code": "RU",
    "latitude": "63.85667000",
    "longitude": "57.30944000",
    "wikiDataId": null
  },
  {
    "id": 102493,
    "name": "Yarega",
    "state_id": 1899,
    "state_code": "KO",
    "country_id": 182,
    "country_code": "RU",
    "latitude": "63.43543000",
    "longitude": "53.57650000",
    "wikiDataId": null
  },
  {
    "id": 102559,
    "name": "Yemva",
    "state_id": 1899,
    "state_code": "KO",
    "country_id": 182,
    "country_code": "RU",
    "latitude": "62.58999000",
    "longitude": "50.85939000",
    "wikiDataId": null
  },
  {
    "id": 102648,
    "name": "Zapolyarnyy",
    "state_id": 1899,
    "state_code": "KO",
    "country_id": 182,
    "country_code": "RU",
    "latitude": "67.49552000",
    "longitude": "63.73275000",
    "wikiDataId": null
  },
  {
    "id": 102690,
    "name": "Zelenets",
    "state_id": 1899,
    "state_code": "KO",
    "country_id": 182,
    "country_code": "RU",
    "latitude": "61.88485000",
    "longitude": "50.74892000",
    "wikiDataId": null
  },
  {
    "id": 102726,
    "name": "Zheshart",
    "state_id": 1899,
    "state_code": "KO",
    "country_id": 182,
    "country_code": "RU",
    "latitude": "62.07314000",
    "longitude": "49.57335000",
    "wikiDataId": null
  }
]