[
  {
    "id": 129777,
    "name": "Artigas",
    "state_id": 3205,
    "state_code": "AR",
    "country_id": 235,
    "country_code": "UY",
    "latitude": "-30.40000000",
    "longitude": "-56.46667000",
    "wikiDataId": null
  },
  {
    "id": 129779,
    "name": "Baltasar Brum",
    "state_id": 3205,
    "state_code": "AR",
    "country_id": 235,
    "country_code": "UY",
    "latitude": "-30.71905000",
    "longitude": "-57.32596000",
    "wikiDataId": null
  },
  {
    "id": 129782,
    "name": "Bella Unión",
    "state_id": 3205,
    "state_code": "AR",
    "country_id": 235,
    "country_code": "UY",
    "latitude": "-30.25966000",
    "longitude": "-57.59919000",
    "wikiDataId": null
  },
  {
    "id": 129820,
    "name": "Las Piedras",
    "state_id": 3205,
    "state_code": "AR",
    "country_id": 235,
    "country_code": "UY",
    "latitude": "-30.26204000",
    "longitude": "-57.58174000",
    "wikiDataId": null
  },
  {
    "id": 129881,
    "name": "Tomás Gomensoro",
    "state_id": 3205,
    "state_code": "AR",
    "country_id": 235,
    "country_code": "UY",
    "latitude": "-30.42870000",
    "longitude": "-57.43609000",
    "wikiDataId": null
  }
]