[
  {
    "id": 10191,
    "name": "Alvarães",
    "state_id": 2004,
    "state_code": "AM",
    "country_id": 31,
    "country_code": "BR",
    "latitude": "-3.22083000",
    "longitude": "-64.80417000",
    "wikiDataId": null
  },
  {
    "id": 10212,
    "name": "Amaturá",
    "state_id": 2004,
    "state_code": "AM",
    "country_id": 31,
    "country_code": "BR",
    "latitude": "-3.38926000",
    "longitude": "-68.22698000",
    "wikiDataId": null
  },
  {
    "id": 10233,
    "name": "Anamã",
    "state_id": 2004,
    "state_code": "AM",
    "country_id": 31,
    "country_code": "BR",
    "latitude": "-3.47990000",
    "longitude": "-61.71689000",
    "wikiDataId": null
  },
  {
    "id": 10266,
    "name": "Anori",
    "state_id": 2004,
    "state_code": "AM",
    "country_id": 31,
    "country_code": "BR",
    "latitude": "-3.77278000",
    "longitude": "-61.64417000",
    "wikiDataId": null
  },
  {
    "id": 10303,
    "name": "Apuí",
    "state_id": 2004,
    "state_code": "AM",
    "country_id": 31,
    "country_code": "BR",
    "latitude": "-7.78922000",
    "longitude": "-59.34104000",
    "wikiDataId": null
  },
  {
    "id": 10436,
    "name": "Atalaia do Norte",
    "state_id": 2004,
    "state_code": "AM",
    "country_id": 31,
    "country_code": "BR",
    "latitude": "-5.66448000",
    "longitude": "-71.82776000",
    "wikiDataId": null
  },
  {
    "id": 10454,
    "name": "Autazes",
    "state_id": 2004,
    "state_code": "AM",
    "country_id": 31,
    "country_code": "BR",
    "latitude": "-3.57972000",
    "longitude": "-59.13056000",
    "wikiDataId": null
  },
  {
    "id": 10513,
    "name": "Barcelos",
    "state_id": 2004,
    "state_code": "AM",
    "country_id": 31,
    "country_code": "BR",
    "latitude": "-0.97357000",
    "longitude": "-62.92690000",
    "wikiDataId": null
  },
  {
    "id": 10553,
    "name": "Barreirinha",
    "state_id": 2004,
    "state_code": "AM",
    "country_id": 31,
    "country_code": "BR",
    "latitude": "-2.79333000",
    "longitude": "-57.07000000",
    "wikiDataId": null
  },
  {
    "id": 10626,
    "name": "Benjamin Constant",
    "state_id": 2004,
    "state_code": "AM",
    "country_id": 31,
    "country_code": "BR",
    "latitude": "-4.37555000",
    "longitude": "-70.03179000",
    "wikiDataId": null
  },
  {
    "id": 10641,
    "name": "Beruri",
    "state_id": 2004,
    "state_code": "AM",
    "country_id": 31,
    "country_code": "BR",
    "latitude": "-4.34371000",
    "longitude": "-61.75126000",
    "wikiDataId": null
  },
  {
    "id": 10674,
    "name": "Boa Vista do Ramos",
    "state_id": 2004,
    "state_code": "AM",
    "country_id": 31,
    "country_code": "BR",
    "latitude": "-3.15779000",
    "longitude": "-57.90517000",
    "wikiDataId": null
  },
  {
    "id": 10678,
    "name": "Boca do Acre",
    "state_id": 2004,
    "state_code": "AM",
    "country_id": 31,
    "country_code": "BR",
    "latitude": "-8.75222000",
    "longitude": "-67.39778000",
    "wikiDataId": null
  },
  {
    "id": 10749,
    "name": "Borba",
    "state_id": 2004,
    "state_code": "AM",
    "country_id": 31,
    "country_code": "BR",
    "latitude": "-4.39143000",
    "longitude": "-59.58864000",
    "wikiDataId": null
  },
  {
    "id": 10841,
    "name": "Caapiranga",
    "state_id": 2004,
    "state_code": "AM",
    "country_id": 31,
    "country_code": "BR",
    "latitude": "-3.12981000",
    "longitude": "-61.74406000",
    "wikiDataId": null
  },
  {
    "id": 11059,
    "name": "Canutama",
    "state_id": 2004,
    "state_code": "AM",
    "country_id": 31,
    "country_code": "BR",
    "latitude": "-6.53389000",
    "longitude": "-64.38306000",
    "wikiDataId": null
  },
  {
    "id": 11111,
    "name": "Carauari",
    "state_id": 2004,
    "state_code": "AM",
    "country_id": 31,
    "country_code": "BR",
    "latitude": "-4.88278000",
    "longitude": "-66.89583000",
    "wikiDataId": null
  },
  {
    "id": 11125,
    "name": "Careiro",
    "state_id": 2004,
    "state_code": "AM",
    "country_id": 31,
    "country_code": "BR",
    "latitude": "-3.78706000",
    "longitude": "-60.34790000",
    "wikiDataId": null
  },
  {
    "id": 11126,
    "name": "Careiro da Várzea",
    "state_id": 2004,
    "state_code": "AM",
    "country_id": 31,
    "country_code": "BR",
    "latitude": "-3.19695000",
    "longitude": "-59.82674000",
    "wikiDataId": null
  },
  {
    "id": 11304,
    "name": "Coari",
    "state_id": 2004,
    "state_code": "AM",
    "country_id": 31,
    "country_code": "BR",
    "latitude": "-4.08500000",
    "longitude": "-63.14139000",
    "wikiDataId": null
  },
  {
    "id": 11313,
    "name": "Codajás",
    "state_id": 2004,
    "state_code": "AM",
    "country_id": 31,
    "country_code": "BR",
    "latitude": "-3.83667000",
    "longitude": "-62.05694000",
    "wikiDataId": null
  },
  {
    "id": 11676,
    "name": "Eirunepé",
    "state_id": 2004,
    "state_code": "AM",
    "country_id": 31,
    "country_code": "BR",
    "latitude": "-6.66028000",
    "longitude": "-69.87361000",
    "wikiDataId": null
  },
  {
    "id": 11711,
    "name": "Envira",
    "state_id": 2004,
    "state_code": "AM",
    "country_id": 31,
    "country_code": "BR",
    "latitude": "-7.30000000",
    "longitude": "-70.21667000",
    "wikiDataId": null
  },
  {
    "id": 11848,
    "name": "Fonte Boa",
    "state_id": 2004,
    "state_code": "AM",
    "country_id": 31,
    "country_code": "BR",
    "latitude": "-2.51389000",
    "longitude": "-66.09167000",
    "wikiDataId": null
  },
  {
    "id": 12018,
    "name": "Guajará",
    "state_id": 2004,
    "state_code": "AM",
    "country_id": 31,
    "country_code": "BR",
    "latitude": "-2.96667000",
    "longitude": "-57.66667000",
    "wikiDataId": null
  },
  {
    "id": 12110,
    "name": "Humaitá",
    "state_id": 2004,
    "state_code": "AM",
    "country_id": 31,
    "country_code": "BR",
    "latitude": "-7.51651000",
    "longitude": "-63.03105000",
    "wikiDataId": null
  },
  {
    "id": 12281,
    "name": "Ipixuna",
    "state_id": 2004,
    "state_code": "AM",
    "country_id": 31,
    "country_code": "BR",
    "latitude": "-7.11910000",
    "longitude": "-71.37590000",
    "wikiDataId": null
  },
  {
    "id": 12306,
    "name": "Iranduba",
    "state_id": 2004,
    "state_code": "AM",
    "country_id": 31,
    "country_code": "BR",
    "latitude": "-3.28472000",
    "longitude": "-60.18611000",
    "wikiDataId": null
  },
  {
    "id": 12342,
    "name": "Itacoatiara",
    "state_id": 2004,
    "state_code": "AM",
    "country_id": 31,
    "country_code": "BR",
    "latitude": "-3.13435000",
    "longitude": "-58.43353000",
    "wikiDataId": null
  },
  {
    "id": 12378,
    "name": "Itamarati",
    "state_id": 2004,
    "state_code": "AM",
    "country_id": 31,
    "country_code": "BR",
    "latitude": "-6.76472000",
    "longitude": "-68.03926000",
    "wikiDataId": null
  },
  {
    "id": 12421,
    "name": "Itapiranga",
    "state_id": 2004,
    "state_code": "AM",
    "country_id": 31,
    "country_code": "BR",
    "latitude": "-2.51600000",
    "longitude": "-58.55730000",
    "wikiDataId": null
  },
  {
    "id": 12575,
    "name": "Japurá",
    "state_id": 2004,
    "state_code": "AM",
    "country_id": 31,
    "country_code": "BR",
    "latitude": "-1.55349000",
    "longitude": "-68.24526000",
    "wikiDataId": null
  },
  {
    "id": 12703,
    "name": "Juruá",
    "state_id": 2004,
    "state_code": "AM",
    "country_id": 31,
    "country_code": "BR",
    "latitude": "-3.27526000",
    "longitude": "-66.24211000",
    "wikiDataId": null
  },
  {
    "id": 12710,
    "name": "Jutaí",
    "state_id": 2004,
    "state_code": "AM",
    "country_id": 31,
    "country_code": "BR",
    "latitude": "-5.18333000",
    "longitude": "-68.90000000",
    "wikiDataId": null
  },
  {
    "id": 12883,
    "name": "Lábrea",
    "state_id": 2004,
    "state_code": "AM",
    "country_id": 31,
    "country_code": "BR",
    "latitude": "-8.18437000",
    "longitude": "-66.07500000",
    "wikiDataId": null
  },
  {
    "id": 12936,
    "name": "Manacapuru",
    "state_id": 2004,
    "state_code": "AM",
    "country_id": 31,
    "country_code": "BR",
    "latitude": "-3.29972000",
    "longitude": "-60.62056000",
    "wikiDataId": null
  },
  {
    "id": 12937,
    "name": "Manaquiri",
    "state_id": 2004,
    "state_code": "AM",
    "country_id": 31,
    "country_code": "BR",
    "latitude": "-3.31667000",
    "longitude": "-60.35000000",
    "wikiDataId": null
  },
  {
    "id": 12939,
    "name": "Manaus",
    "state_id": 2004,
    "state_code": "AM",
    "country_id": 31,
    "country_code": "BR",
    "latitude": "-3.04361000",
    "longitude": "-60.01282000",
    "wikiDataId": null
  },
  {
    "id": 12951,
    "name": "Manicoré",
    "state_id": 2004,
    "state_code": "AM",
    "country_id": 31,
    "country_code": "BR",
    "latitude": "-5.80917000",
    "longitude": "-61.30028000",
    "wikiDataId": null
  },
  {
    "id": 12988,
    "name": "Maraã",
    "state_id": 2004,
    "state_code": "AM",
    "country_id": 31,
    "country_code": "BR",
    "latitude": "-1.82403000",
    "longitude": "-65.35883000",
    "wikiDataId": null
  },
  {
    "id": 13085,
    "name": "Maués",
    "state_id": 2004,
    "state_code": "AM",
    "country_id": 31,
    "country_code": "BR",
    "latitude": "-3.38361000",
    "longitude": "-57.71861000",
    "wikiDataId": null
  },
  {
    "id": 13321,
    "name": "Nhamundá",
    "state_id": 2004,
    "state_code": "AM",
    "country_id": 31,
    "country_code": "BR",
    "latitude": "-2.18611000",
    "longitude": "-56.71306000",
    "wikiDataId": null
  },
  {
    "id": 13413,
    "name": "Nova Olinda do Norte",
    "state_id": 2004,
    "state_code": "AM",
    "country_id": 31,
    "country_code": "BR",
    "latitude": "-3.89174000",
    "longitude": "-59.09542000",
    "wikiDataId": null
  },
  {
    "id": 13451,
    "name": "Novo Airão",
    "state_id": 2004,
    "state_code": "AM",
    "country_id": 31,
    "country_code": "BR",
    "latitude": "-1.98386000",
    "longitude": "-61.78513000",
    "wikiDataId": null
  },
  {
    "id": 13453,
    "name": "Novo Aripuanã",
    "state_id": 2004,
    "state_code": "AM",
    "country_id": 31,
    "country_code": "BR",
    "latitude": "-5.12056000",
    "longitude": "-60.37972000",
    "wikiDataId": null
  },
  {
    "id": 13672,
    "name": "Parintins",
    "state_id": 2004,
    "state_code": "AM",
    "country_id": 31,
    "country_code": "BR",
    "latitude": "-2.62833000",
    "longitude": "-56.73583000",
    "wikiDataId": null
  },
  {
    "id": 13720,
    "name": "Pauini",
    "state_id": 2004,
    "state_code": "AM",
    "country_id": 31,
    "country_code": "BR",
    "latitude": "-7.71361000",
    "longitude": "-66.97639000",
    "wikiDataId": null
  },
  {
    "id": 14082,
    "name": "Presidente Figueiredo",
    "state_id": 2004,
    "state_code": "AM",
    "country_id": 31,
    "country_code": "BR",
    "latitude": "-1.28344000",
    "longitude": "-59.98317000",
    "wikiDataId": null
  },
  {
    "id": 14293,
    "name": "Rio Preto da Eva",
    "state_id": 2004,
    "state_code": "AM",
    "country_id": 31,
    "country_code": "BR",
    "latitude": "-2.69795000",
    "longitude": "-59.70172000",
    "wikiDataId": null
  },
  {
    "id": 14483,
    "name": "Santa Isabel do Rio Negro",
    "state_id": 2004,
    "state_code": "AM",
    "country_id": 31,
    "country_code": "BR",
    "latitude": "-0.41389000",
    "longitude": "-65.01917000",
    "wikiDataId": null
  },
  {
    "id": 14628,
    "name": "Santo Antônio do Içá",
    "state_id": 2004,
    "state_code": "AM",
    "country_id": 31,
    "country_code": "BR",
    "latitude": "-3.10222000",
    "longitude": "-67.93972000",
    "wikiDataId": null
  },
  {
    "id": 14909,
    "name": "São Gabriel da Cachoeira",
    "state_id": 2004,
    "state_code": "AM",
    "country_id": 31,
    "country_code": "BR",
    "latitude": "-0.11810000",
    "longitude": "-67.08527000",
    "wikiDataId": null
  },
  {
    "id": 15103,
    "name": "São Paulo de Olivença",
    "state_id": 2004,
    "state_code": "AM",
    "country_id": 31,
    "country_code": "BR",
    "latitude": "-3.37833000",
    "longitude": "-68.87250000",
    "wikiDataId": null
  },
  {
    "id": 15153,
    "name": "São Sebastião do Uatumã",
    "state_id": 2004,
    "state_code": "AM",
    "country_id": 31,
    "country_code": "BR",
    "latitude": "-1.93197000",
    "longitude": "-58.74216000",
    "wikiDataId": null
  },
  {
    "id": 14780,
    "name": "Silves",
    "state_id": 2004,
    "state_code": "AM",
    "country_id": 31,
    "country_code": "BR",
    "latitude": "-2.76846000",
    "longitude": "-58.62751000",
    "wikiDataId": null
  },
  {
    "id": 15184,
    "name": "Tabatinga",
    "state_id": 2004,
    "state_code": "AM",
    "country_id": 31,
    "country_code": "BR",
    "latitude": "-3.96298000",
    "longitude": "-69.60265000",
    "wikiDataId": null
  },
  {
    "id": 15225,
    "name": "Tapauá",
    "state_id": 2004,
    "state_code": "AM",
    "country_id": 31,
    "country_code": "BR",
    "latitude": "-6.21423000",
    "longitude": "-65.69985000",
    "wikiDataId": null
  },
  {
    "id": 15264,
    "name": "Tefé",
    "state_id": 2004,
    "state_code": "AM",
    "country_id": 31,
    "country_code": "BR",
    "latitude": "-3.36841000",
    "longitude": "-64.72054000",
    "wikiDataId": null
  },
  {
    "id": 15336,
    "name": "Tonantins",
    "state_id": 2004,
    "state_code": "AM",
    "country_id": 31,
    "country_code": "BR",
    "latitude": "-2.87306000",
    "longitude": "-67.80222000",
    "wikiDataId": null
  },
  {
    "id": 15423,
    "name": "Uarini",
    "state_id": 2004,
    "state_code": "AM",
    "country_id": 31,
    "country_code": "BR",
    "latitude": "-3.14736000",
    "longitude": "-65.42036000",
    "wikiDataId": null
  },
  {
    "id": 15475,
    "name": "Urucará",
    "state_id": 2004,
    "state_code": "AM",
    "country_id": 31,
    "country_code": "BR",
    "latitude": "-2.53639000",
    "longitude": "-57.76000000",
    "wikiDataId": null
  },
  {
    "id": 15477,
    "name": "Urucurituba",
    "state_id": 2004,
    "state_code": "AM",
    "country_id": 31,
    "country_code": "BR",
    "latitude": "-3.12845000",
    "longitude": "-58.15856000",
    "wikiDataId": null
  }
]