[
  {
    "id": 154858,
    "name": "Aurora",
    "state_id": 1357,
    "state_code": "ZAS",
    "country_id": 174,
    "country_code": "PH",
    "latitude": "7.93139380",
    "longitude": "123.48785830",
    "wikiDataId": null
  },
  {
    "id": 81666,
    "name": "Bayog",
    "state_id": 1357,
    "state_code": "ZAS",
    "country_id": 174,
    "country_code": "PH",
    "latitude": "7.91051020",
    "longitude": "122.88438120",
    "wikiDataId": null
  },
  {
    "id": 82430,
    "name": "Dimataling",
    "state_id": 1357,
    "state_code": "ZAS",
    "country_id": 174,
    "country_code": "PH",
    "latitude": "7.52214930",
    "longitude": "123.24710860",
    "wikiDataId": null
  },
  {
    "id": 154859,
    "name": "Dinas",
    "state_id": 1357,
    "state_code": "ZAS",
    "country_id": 174,
    "country_code": "PH",
    "latitude": "7.63391800",
    "longitude": "123.26375160",
    "wikiDataId": null
  },
  {
    "id": 82485,
    "name": "Dumalinao",
    "state_id": 1357,
    "state_code": "ZAS",
    "country_id": 174,
    "country_code": "PH",
    "latitude": "7.77851560",
    "longitude": "123.31373780",
    "wikiDataId": null
  },
  {
    "id": 82492,
    "name": "Dumingag",
    "state_id": 1357,
    "state_code": "ZAS",
    "country_id": 174,
    "country_code": "PH",
    "latitude": "8.16432410",
    "longitude": "123.20590980",
    "wikiDataId": null
  },
  {
    "id": 82644,
    "name": "Guipos",
    "state_id": 1357,
    "state_code": "ZAS",
    "country_id": 174,
    "country_code": "PH",
    "latitude": "7.74679210",
    "longitude": "123.24535410",
    "wikiDataId": null
  },
  {
    "id": 82813,
    "name": "Josefina",
    "state_id": 1357,
    "state_code": "ZAS",
    "country_id": 174,
    "country_code": "PH",
    "latitude": "8.18999110",
    "longitude": "123.49285820",
    "wikiDataId": null
  },
  {
    "id": 82933,
    "name": "Kumalarang",
    "state_id": 1357,
    "state_code": "ZAS",
    "country_id": 174,
    "country_code": "PH",
    "latitude": "7.77038360",
    "longitude": "123.05467750",
    "wikiDataId": null
  },
  {
    "id": 82956,
    "name": "Labangan",
    "state_id": 1357,
    "state_code": "ZAS",
    "country_id": 174,
    "country_code": "PH",
    "latitude": "7.89453340",
    "longitude": "123.24559960",
    "wikiDataId": null
  },
  {
    "id": 154860,
    "name": "Lakewood",
    "state_id": 1357,
    "state_code": "ZAS",
    "country_id": 174,
    "country_code": "PH",
    "latitude": "7.89447840",
    "longitude": "123.09442120",
    "wikiDataId": null
  },
  {
    "id": 83039,
    "name": "Lapuyan",
    "state_id": 1357,
    "state_code": "ZAS",
    "country_id": 174,
    "country_code": "PH",
    "latitude": "7.69787490",
    "longitude": "123.10763910",
    "wikiDataId": null
  },
  {
    "id": 83360,
    "name": "Mahayag",
    "state_id": 1357,
    "state_code": "ZAS",
    "country_id": 174,
    "country_code": "PH",
    "latitude": "8.13186250",
    "longitude": "123.35281440",
    "wikiDataId": null
  },
  {
    "id": 83573,
    "name": "Margosatubig",
    "state_id": 1357,
    "state_code": "ZAS",
    "country_id": 174,
    "country_code": "PH",
    "latitude": "7.57444980",
    "longitude": "123.09197500",
    "wikiDataId": null
  },
  {
    "id": 83669,
    "name": "Midsalip",
    "state_id": 1357,
    "state_code": "ZAS",
    "country_id": 174,
    "country_code": "PH",
    "latitude": "8.04491720",
    "longitude": "123.10608190",
    "wikiDataId": null
  },
  {
    "id": 83695,
    "name": "Molave",
    "state_id": 1357,
    "state_code": "ZAS",
    "country_id": 174,
    "country_code": "PH",
    "latitude": "8.13381700",
    "longitude": "123.39980940",
    "wikiDataId": null
  },
  {
    "id": 83887,
    "name": "Pagadian",
    "state_id": 1357,
    "state_code": "ZAS",
    "country_id": 174,
    "country_code": "PH",
    "latitude": "7.87270550",
    "longitude": "123.16479060",
    "wikiDataId": null
  },
  {
    "id": 154861,
    "name": "Pitogo",
    "state_id": 1357,
    "state_code": "ZAS",
    "country_id": 174,
    "country_code": "PH",
    "latitude": "7.44322590",
    "longitude": "123.25372290",
    "wikiDataId": null
  },
  {
    "id": 84324,
    "name": "Ramon Magsaysay",
    "state_id": 1357,
    "state_code": "ZAS",
    "country_id": 174,
    "country_code": "PH",
    "latitude": "8.01817460",
    "longitude": "123.38409440",
    "wikiDataId": null
  },
  {
    "id": 154862,
    "name": "San Miguel",
    "state_id": 1357,
    "state_code": "ZAS",
    "country_id": 174,
    "country_code": "PH",
    "latitude": "7.68605810",
    "longitude": "123.18831590",
    "wikiDataId": null
  },
  {
    "id": 154863,
    "name": "San Pablo",
    "state_id": 1357,
    "state_code": "ZAS",
    "country_id": 174,
    "country_code": "PH",
    "latitude": "7.66698870",
    "longitude": "123.33989420",
    "wikiDataId": null
  },
  {
    "id": 154864,
    "name": "Sominot",
    "state_id": 1357,
    "state_code": "ZAS",
    "country_id": 174,
    "country_code": "PH",
    "latitude": "8.03542250",
    "longitude": "123.28616160",
    "wikiDataId": null
  },
  {
    "id": 84896,
    "name": "Tabina",
    "state_id": 1357,
    "state_code": "ZAS",
    "country_id": 174,
    "country_code": "PH",
    "latitude": "7.41651070",
    "longitude": "123.37889670",
    "wikiDataId": null
  },
  {
    "id": 85014,
    "name": "Tambulig",
    "state_id": 1357,
    "state_code": "ZAS",
    "country_id": 174,
    "country_code": "PH",
    "latitude": "8.07715230",
    "longitude": "123.49696700",
    "wikiDataId": null
  },
  {
    "id": 85103,
    "name": "Tigbao",
    "state_id": 1357,
    "state_code": "ZAS",
    "country_id": 174,
    "country_code": "PH",
    "latitude": "7.84589690",
    "longitude": "123.17655840",
    "wikiDataId": null
  },
  {
    "id": 154865,
    "name": "Tukuran",
    "state_id": 1357,
    "state_code": "ZAS",
    "country_id": 174,
    "country_code": "PH",
    "latitude": "7.90946430",
    "longitude": "123.35628100",
    "wikiDataId": null
  },
  {
    "id": 154866,
    "name": "Vincenzo A. Sagun",
    "state_id": 1357,
    "state_code": "ZAS",
    "country_id": 174,
    "country_code": "PH",
    "latitude": "7.51429110",
    "longitude": "123.10175830",
    "wikiDataId": null
  },
  {
    "id": 85324,
    "name": "Zamboanga",
    "state_id": 1357,
    "state_code": "ZAS",
    "country_id": 174,
    "country_code": "PH",
    "latitude": "7.16124910",
    "longitude": "121.83842940",
    "wikiDataId": null
  }
]