[
  {
    "id": 53843,
    "name": "Aguas del Padre",
    "state_id": 4042,
    "state_code": "CM",
    "country_id": 97,
    "country_code": "HN",
    "latitude": "14.56667000",
    "longitude": "-87.88333000",
    "wikiDataId": null
  },
  {
    "id": 53845,
    "name": "Ajuterique",
    "state_id": 4042,
    "state_code": "CM",
    "country_id": 97,
    "country_code": "HN",
    "latitude": "14.38333000",
    "longitude": "-87.70000000",
    "wikiDataId": null
  },
  {
    "id": 53894,
    "name": "Cerro Blanco",
    "state_id": 4042,
    "state_code": "CM",
    "country_id": 97,
    "country_code": "HN",
    "latitude": "14.66667000",
    "longitude": "-87.78333000",
    "wikiDataId": null
  },
  {
    "id": 53908,
    "name": "Comayagua",
    "state_id": 4042,
    "state_code": "CM",
    "country_id": 97,
    "country_code": "HN",
    "latitude": "14.48412000",
    "longitude": "-87.60060000",
    "wikiDataId": null
  },
  {
    "id": 53912,
    "name": "Concepción de Guasistagua",
    "state_id": 4042,
    "state_code": "CM",
    "country_id": 97,
    "country_code": "HN",
    "latitude": "14.60000000",
    "longitude": "-87.65000000",
    "wikiDataId": null
  },
  {
    "id": 53941,
    "name": "El Agua Dulcita",
    "state_id": 4042,
    "state_code": "CM",
    "country_id": 97,
    "country_code": "HN",
    "latitude": "14.70000000",
    "longitude": "-87.75000000",
    "wikiDataId": null
  },
  {
    "id": 53978,
    "name": "El Porvenir",
    "state_id": 4042,
    "state_code": "CM",
    "country_id": 97,
    "country_code": "HN",
    "latitude": "14.58333000",
    "longitude": "-87.88333000",
    "wikiDataId": null
  },
  {
    "id": 53983,
    "name": "El Rancho",
    "state_id": 4042,
    "state_code": "CM",
    "country_id": 97,
    "country_code": "HN",
    "latitude": "14.68333000",
    "longitude": "-87.50000000",
    "wikiDataId": null
  },
  {
    "id": 53984,
    "name": "El Rincón",
    "state_id": 4042,
    "state_code": "CM",
    "country_id": 97,
    "country_code": "HN",
    "latitude": "14.58333000",
    "longitude": "-87.93333000",
    "wikiDataId": null
  },
  {
    "id": 53985,
    "name": "El Rosario",
    "state_id": 4042,
    "state_code": "CM",
    "country_id": 97,
    "country_code": "HN",
    "latitude": "14.57500000",
    "longitude": "-87.74306000",
    "wikiDataId": null
  },
  {
    "id": 53988,
    "name": "El Sauce",
    "state_id": 4042,
    "state_code": "CM",
    "country_id": 97,
    "country_code": "HN",
    "latitude": "14.52850000",
    "longitude": "-87.66571000",
    "wikiDataId": null
  },
  {
    "id": 53989,
    "name": "El Socorro",
    "state_id": 4042,
    "state_code": "CM",
    "country_id": 97,
    "country_code": "HN",
    "latitude": "14.63333000",
    "longitude": "-87.91667000",
    "wikiDataId": null
  },
  {
    "id": 54003,
    "name": "Esquías",
    "state_id": 4042,
    "state_code": "CM",
    "country_id": 97,
    "country_code": "HN",
    "latitude": "14.73333000",
    "longitude": "-87.36667000",
    "wikiDataId": null
  },
  {
    "id": 54004,
    "name": "Flores",
    "state_id": 4042,
    "state_code": "CM",
    "country_id": 97,
    "country_code": "HN",
    "latitude": "14.28333000",
    "longitude": "-87.56667000",
    "wikiDataId": null
  },
  {
    "id": 54025,
    "name": "Humuya",
    "state_id": 4042,
    "state_code": "CM",
    "country_id": 97,
    "country_code": "HN",
    "latitude": "14.25000000",
    "longitude": "-87.66667000",
    "wikiDataId": null
  },
  {
    "id": 54031,
    "name": "Jamalteca",
    "state_id": 4042,
    "state_code": "CM",
    "country_id": 97,
    "country_code": "HN",
    "latitude": "14.70000000",
    "longitude": "-87.58333000",
    "wikiDataId": null
  },
  {
    "id": 54068,
    "name": "La Libertad",
    "state_id": 4042,
    "state_code": "CM",
    "country_id": 97,
    "country_code": "HN",
    "latitude": "14.88000000",
    "longitude": "-87.55000000",
    "wikiDataId": null
  },
  {
    "id": 54079,
    "name": "La Trinidad",
    "state_id": 4042,
    "state_code": "CM",
    "country_id": 97,
    "country_code": "HN",
    "latitude": "14.70000000",
    "longitude": "-87.66286000",
    "wikiDataId": null
  },
  {
    "id": 54089,
    "name": "Lamaní",
    "state_id": 4042,
    "state_code": "CM",
    "country_id": 97,
    "country_code": "HN",
    "latitude": "14.20000000",
    "longitude": "-87.61667000",
    "wikiDataId": null
  },
  {
    "id": 54092,
    "name": "Las Lajas",
    "state_id": 4042,
    "state_code": "CM",
    "country_id": 97,
    "country_code": "HN",
    "latitude": "14.90000000",
    "longitude": "-87.58333000",
    "wikiDataId": null
  },
  {
    "id": 54100,
    "name": "Lejamaní",
    "state_id": 4042,
    "state_code": "CM",
    "country_id": 97,
    "country_code": "HN",
    "latitude": "14.36667000",
    "longitude": "-87.70000000",
    "wikiDataId": null
  },
  {
    "id": 54128,
    "name": "Meámbar",
    "state_id": 4042,
    "state_code": "CM",
    "country_id": 97,
    "country_code": "HN",
    "latitude": "14.82047000",
    "longitude": "-87.78424000",
    "wikiDataId": null
  },
  {
    "id": 54129,
    "name": "Minas de Oro",
    "state_id": 4042,
    "state_code": "CM",
    "country_id": 97,
    "country_code": "HN",
    "latitude": "14.80000000",
    "longitude": "-87.35000000",
    "wikiDataId": null
  },
  {
    "id": 54157,
    "name": "Ojos de Agua",
    "state_id": 4042,
    "state_code": "CM",
    "country_id": 97,
    "country_code": "HN",
    "latitude": "14.79498000",
    "longitude": "-87.65010000",
    "wikiDataId": null
  },
  {
    "id": 54175,
    "name": "Potrerillos",
    "state_id": 4042,
    "state_code": "CM",
    "country_id": 97,
    "country_code": "HN",
    "latitude": "14.55000000",
    "longitude": "-87.86667000",
    "wikiDataId": null
  },
  {
    "id": 54200,
    "name": "Río Bonito",
    "state_id": 4042,
    "state_code": "CM",
    "country_id": 97,
    "country_code": "HN",
    "latitude": "14.76667000",
    "longitude": "-87.88333000",
    "wikiDataId": null
  },
  {
    "id": 54219,
    "name": "San Antonio de la Cuesta",
    "state_id": 4042,
    "state_code": "CM",
    "country_id": 97,
    "country_code": "HN",
    "latitude": "14.63333000",
    "longitude": "-87.60000000",
    "wikiDataId": null
  },
  {
    "id": 54240,
    "name": "San Jerónimo",
    "state_id": 4042,
    "state_code": "CM",
    "country_id": 97,
    "country_code": "HN",
    "latitude": "14.64043000",
    "longitude": "-87.56768000",
    "wikiDataId": null
  },
  {
    "id": 54249,
    "name": "San José de Comayagua",
    "state_id": 4042,
    "state_code": "CM",
    "country_id": 97,
    "country_code": "HN",
    "latitude": "14.73333000",
    "longitude": "-88.03333000",
    "wikiDataId": null
  },
  {
    "id": 54255,
    "name": "San José del Potrero",
    "state_id": 4042,
    "state_code": "CM",
    "country_id": 97,
    "country_code": "HN",
    "latitude": "14.86203000",
    "longitude": "-87.29049000",
    "wikiDataId": null
  },
  {
    "id": 54266,
    "name": "San Luis",
    "state_id": 4042,
    "state_code": "CM",
    "country_id": 97,
    "country_code": "HN",
    "latitude": "14.75000000",
    "longitude": "-87.41667000",
    "wikiDataId": null
  },
  {
    "id": 54286,
    "name": "San Sebastián",
    "state_id": 4042,
    "state_code": "CM",
    "country_id": 97,
    "country_code": "HN",
    "latitude": "14.23687000",
    "longitude": "-87.63215000",
    "wikiDataId": null
  },
  {
    "id": 54317,
    "name": "Siguatepeque",
    "state_id": 4042,
    "state_code": "CM",
    "country_id": 97,
    "country_code": "HN",
    "latitude": "14.60000000",
    "longitude": "-87.83333000",
    "wikiDataId": null
  },
  {
    "id": 54331,
    "name": "Taulabé",
    "state_id": 4042,
    "state_code": "CM",
    "country_id": 97,
    "country_code": "HN",
    "latitude": "14.67145000",
    "longitude": "-87.98693000",
    "wikiDataId": null
  },
  {
    "id": 54355,
    "name": "Valle de Ángeles",
    "state_id": 4042,
    "state_code": "CM",
    "country_id": 97,
    "country_code": "HN",
    "latitude": "14.50000000",
    "longitude": "-87.63333000",
    "wikiDataId": null
  },
  {
    "id": 54360,
    "name": "Villa de San Antonio",
    "state_id": 4042,
    "state_code": "CM",
    "country_id": 97,
    "country_code": "HN",
    "latitude": "14.31667000",
    "longitude": "-87.61667000",
    "wikiDataId": null
  }
]