[
  {
    "id": 63254,
    "name": "Arashiyama",
    "state_id": 834,
    "state_code": "26",
    "country_id": 109,
    "country_code": "JP",
    "latitude": "35.01481000",
    "longitude": "135.67755000",
    "wikiDataId": null
  },
  {
    "id": 63277,
    "name": "Ayabe",
    "state_id": 834,
    "state_code": "26",
    "country_id": 109,
    "country_code": "JP",
    "latitude": "35.30000000",
    "longitude": "135.25000000",
    "wikiDataId": null
  },
  {
    "id": 63278,
    "name": "Ayabe-shi",
    "state_id": 834,
    "state_code": "26",
    "country_id": 109,
    "country_code": "JP",
    "latitude": "35.35263000",
    "longitude": "135.34465000",
    "wikiDataId": null
  },
  {
    "id": 63361,
    "name": "Fukuchiyama-shi",
    "state_id": 834,
    "state_code": "26",
    "country_id": 109,
    "country_code": "JP",
    "latitude": "35.32404000",
    "longitude": "135.11332000",
    "wikiDataId": null
  },
  {
    "id": 63654,
    "name": "Jōyō Shi",
    "state_id": 834,
    "state_code": "26",
    "country_id": 109,
    "country_code": "JP",
    "latitude": "34.84566000",
    "longitude": "135.79760000",
    "wikiDataId": null
  },
  {
    "id": 63683,
    "name": "Kameoka",
    "state_id": 834,
    "state_code": "26",
    "country_id": 109,
    "country_code": "JP",
    "latitude": "35.00000000",
    "longitude": "135.58333000",
    "wikiDataId": null
  },
  {
    "id": 63684,
    "name": "Kameoka-shi",
    "state_id": 834,
    "state_code": "26",
    "country_id": 109,
    "country_code": "JP",
    "latitude": "35.01021000",
    "longitude": "135.53900000",
    "wikiDataId": null
  },
  {
    "id": 63689,
    "name": "Kamigyō-ku",
    "state_id": 834,
    "state_code": "26",
    "country_id": 109,
    "country_code": "JP",
    "latitude": "35.02954000",
    "longitude": "135.75666000",
    "wikiDataId": null
  },
  {
    "id": 63817,
    "name": "Kizugawa-shi",
    "state_id": 834,
    "state_code": "26",
    "country_id": 109,
    "country_code": "JP",
    "latitude": "34.73781000",
    "longitude": "135.82128000",
    "wikiDataId": null
  },
  {
    "id": 63891,
    "name": "Kyōtanabe Shi",
    "state_id": 834,
    "state_code": "26",
    "country_id": 109,
    "country_code": "JP",
    "latitude": "34.80779000",
    "longitude": "135.76300000",
    "wikiDataId": null
  },
  {
    "id": 63892,
    "name": "Kyōtango-shi",
    "state_id": 834,
    "state_code": "26",
    "country_id": 109,
    "country_code": "JP",
    "latitude": "35.63089000",
    "longitude": "135.04785000",
    "wikiDataId": null
  },
  {
    "id": 63890,
    "name": "Kyoto",
    "state_id": 834,
    "state_code": "26",
    "country_id": 109,
    "country_code": "JP",
    "latitude": "35.02107000",
    "longitude": "135.75385000",
    "wikiDataId": null
  },
  {
    "id": 63912,
    "name": "Maizuru",
    "state_id": 834,
    "state_code": "26",
    "country_id": 109,
    "country_code": "JP",
    "latitude": "35.45000000",
    "longitude": "135.33333000",
    "wikiDataId": null
  },
  {
    "id": 63913,
    "name": "Maizuru-shi",
    "state_id": 834,
    "state_code": "26",
    "country_id": 109,
    "country_code": "JP",
    "latitude": "35.47009000",
    "longitude": "135.34003000",
    "wikiDataId": null
  },
  {
    "id": 64011,
    "name": "Miyazu",
    "state_id": 834,
    "state_code": "26",
    "country_id": 109,
    "country_code": "JP",
    "latitude": "35.53333000",
    "longitude": "135.18333000",
    "wikiDataId": null
  },
  {
    "id": 64012,
    "name": "Miyazu-shi",
    "state_id": 834,
    "state_code": "26",
    "country_id": 109,
    "country_code": "JP",
    "latitude": "35.55596000",
    "longitude": "135.17662000",
    "wikiDataId": null
  },
  {
    "id": 64043,
    "name": "Mukō Shi",
    "state_id": 834,
    "state_code": "26",
    "country_id": 109,
    "country_code": "JP",
    "latitude": "34.94975000",
    "longitude": "135.70269000",
    "wikiDataId": null
  },
  {
    "id": 64068,
    "name": "Nagaokakyō Shi",
    "state_id": 834,
    "state_code": "26",
    "country_id": 109,
    "country_code": "JP",
    "latitude": "34.92840000",
    "longitude": "135.67881000",
    "wikiDataId": null
  },
  {
    "id": 64102,
    "name": "Nantan-shi",
    "state_id": 834,
    "state_code": "26",
    "country_id": 109,
    "country_code": "JP",
    "latitude": "35.22740000",
    "longitude": "135.55939000",
    "wikiDataId": null
  },
  {
    "id": 64463,
    "name": "Tanabe",
    "state_id": 834,
    "state_code": "26",
    "country_id": 109,
    "country_code": "JP",
    "latitude": "34.82242000",
    "longitude": "135.76604000",
    "wikiDataId": null
  },
  {
    "id": 64584,
    "name": "Uji",
    "state_id": 834,
    "state_code": "26",
    "country_id": 109,
    "country_code": "JP",
    "latitude": "34.89044000",
    "longitude": "135.80325000",
    "wikiDataId": null
  },
  {
    "id": 64585,
    "name": "Uji Shi",
    "state_id": 834,
    "state_code": "26",
    "country_id": 109,
    "country_code": "JP",
    "latitude": "34.90296000",
    "longitude": "135.82039000",
    "wikiDataId": null
  },
  {
    "id": 64665,
    "name": "Yawata",
    "state_id": 834,
    "state_code": "26",
    "country_id": 109,
    "country_code": "JP",
    "latitude": "34.87009000",
    "longitude": "135.70270000",
    "wikiDataId": null
  },
  {
    "id": 64666,
    "name": "Yawata Shi",
    "state_id": 834,
    "state_code": "26",
    "country_id": 109,
    "country_code": "JP",
    "latitude": "34.86662000",
    "longitude": "135.71470000",
    "wikiDataId": null
  }
]