[
  {
    "id": 53428,
    "name": "Almolonga",
    "state_id": 3668,
    "state_code": "09",
    "country_id": 90,
    "country_code": "GT",
    "latitude": "14.81591000",
    "longitude": "-91.49464000",
    "wikiDataId": null
  },
  {
    "id": 53436,
    "name": "Cabricán",
    "state_id": 3668,
    "state_code": "09",
    "country_id": 90,
    "country_code": "GT",
    "latitude": "15.07485000",
    "longitude": "-91.64800000",
    "wikiDataId": null
  },
  {
    "id": 53438,
    "name": "Cajolá",
    "state_id": 3668,
    "state_code": "09",
    "country_id": 90,
    "country_code": "GT",
    "latitude": "14.92205000",
    "longitude": "-91.61478000",
    "wikiDataId": null
  },
  {
    "id": 53441,
    "name": "Cantel",
    "state_id": 3668,
    "state_code": "09",
    "country_id": 90,
    "country_code": "GT",
    "latitude": "14.81154000",
    "longitude": "-91.45536000",
    "wikiDataId": null
  },
  {
    "id": 53461,
    "name": "Coatepeque",
    "state_id": 3668,
    "state_code": "09",
    "country_id": 90,
    "country_code": "GT",
    "latitude": "14.70413000",
    "longitude": "-91.86426000",
    "wikiDataId": null
  },
  {
    "id": 53463,
    "name": "Colomba",
    "state_id": 3668,
    "state_code": "09",
    "country_id": 90,
    "country_code": "GT",
    "latitude": "14.70730000",
    "longitude": "-91.73167000",
    "wikiDataId": null
  },
  {
    "id": 53469,
    "name": "Concepción Chiquirichapa",
    "state_id": 3668,
    "state_code": "09",
    "country_id": 90,
    "country_code": "GT",
    "latitude": "14.85510000",
    "longitude": "-91.62360000",
    "wikiDataId": null
  },
  {
    "id": 53485,
    "name": "El Palmar",
    "state_id": 3668,
    "state_code": "09",
    "country_id": 90,
    "country_code": "GT",
    "latitude": "14.65083000",
    "longitude": "-91.57800000",
    "wikiDataId": null
  },
  {
    "id": 53495,
    "name": "Flores Costa Cuca",
    "state_id": 3668,
    "state_code": "09",
    "country_id": 90,
    "country_code": "GT",
    "latitude": "14.65606050",
    "longitude": "-91.82562770",
    "wikiDataId": null
  },
  {
    "id": 53502,
    "name": "Génova",
    "state_id": 3668,
    "state_code": "09",
    "country_id": 90,
    "country_code": "GT",
    "latitude": "14.61667000",
    "longitude": "-91.83333000",
    "wikiDataId": null
  },
  {
    "id": 53504,
    "name": "Huitán",
    "state_id": 3668,
    "state_code": "09",
    "country_id": 90,
    "country_code": "GT",
    "latitude": "15.04920000",
    "longitude": "-91.63944000",
    "wikiDataId": null
  },
  {
    "id": 53518,
    "name": "La Esperanza",
    "state_id": 3668,
    "state_code": "09",
    "country_id": 90,
    "country_code": "GT",
    "latitude": "14.87169000",
    "longitude": "-91.56140000",
    "wikiDataId": null
  },
  {
    "id": 53540,
    "name": "Municipio de Almolonga",
    "state_id": 3668,
    "state_code": "09",
    "country_id": 90,
    "country_code": "GT",
    "latitude": "14.81118000",
    "longitude": "-91.48354000",
    "wikiDataId": null
  },
  {
    "id": 53544,
    "name": "Municipio de Cabricán",
    "state_id": 3668,
    "state_code": "09",
    "country_id": 90,
    "country_code": "GT",
    "latitude": "15.10305000",
    "longitude": "-91.64918000",
    "wikiDataId": null
  },
  {
    "id": 53546,
    "name": "Municipio de Cantel",
    "state_id": 3668,
    "state_code": "09",
    "country_id": 90,
    "country_code": "GT",
    "latitude": "14.81659000",
    "longitude": "-91.43781000",
    "wikiDataId": null
  },
  {
    "id": 53555,
    "name": "Municipio de Coatepeque",
    "state_id": 3668,
    "state_code": "09",
    "country_id": 90,
    "country_code": "GT",
    "latitude": "14.64309000",
    "longitude": "-91.97926000",
    "wikiDataId": null
  },
  {
    "id": 53556,
    "name": "Municipio de Colomba",
    "state_id": 3668,
    "state_code": "09",
    "country_id": 90,
    "country_code": "GT",
    "latitude": "14.71002000",
    "longitude": "-91.74691000",
    "wikiDataId": null
  },
  {
    "id": 53557,
    "name": "Municipio de Concepción Chiquirichapa",
    "state_id": 3668,
    "state_code": "09",
    "country_id": 90,
    "country_code": "GT",
    "latitude": "14.84624000",
    "longitude": "-91.61854000",
    "wikiDataId": null
  },
  {
    "id": 53561,
    "name": "Municipio de Flores Costa Cuca",
    "state_id": 3668,
    "state_code": "09",
    "country_id": 90,
    "country_code": "GT",
    "latitude": "14.63238000",
    "longitude": "-91.86341000",
    "wikiDataId": null
  },
  {
    "id": 53586,
    "name": "Municipio de San Juan Ostuncalco",
    "state_id": 3668,
    "state_code": "09",
    "country_id": 90,
    "country_code": "GT",
    "latitude": "14.87477000",
    "longitude": "-91.68842000",
    "wikiDataId": null
  },
  {
    "id": 53610,
    "name": "Olintepeque",
    "state_id": 3668,
    "state_code": "09",
    "country_id": 90,
    "country_code": "GT",
    "latitude": "14.88605000",
    "longitude": "-91.51472000",
    "wikiDataId": null
  },
  {
    "id": 53613,
    "name": "Ostuncalco",
    "state_id": 3668,
    "state_code": "09",
    "country_id": 90,
    "country_code": "GT",
    "latitude": "14.86899000",
    "longitude": "-91.62137000",
    "wikiDataId": null
  },
  {
    "id": 53617,
    "name": "Palestina de los Altos",
    "state_id": 3668,
    "state_code": "09",
    "country_id": 90,
    "country_code": "GT",
    "latitude": "14.93338000",
    "longitude": "-91.69403000",
    "wikiDataId": null
  },
  {
    "id": 53638,
    "name": "Quetzaltenango",
    "state_id": 3668,
    "state_code": "09",
    "country_id": 90,
    "country_code": "GT",
    "latitude": "14.83472000",
    "longitude": "-91.51806000",
    "wikiDataId": null
  },
  {
    "id": 53646,
    "name": "Salcajá",
    "state_id": 3668,
    "state_code": "09",
    "country_id": 90,
    "country_code": "GT",
    "latitude": "14.87964000",
    "longitude": "-91.45699000",
    "wikiDataId": null
  },
  {
    "id": 53647,
    "name": "Samayac",
    "state_id": 3668,
    "state_code": "09",
    "country_id": 90,
    "country_code": "GT",
    "latitude": "14.58084000",
    "longitude": "-91.46135000",
    "wikiDataId": null
  },
  {
    "id": 53667,
    "name": "San Carlos Sija",
    "state_id": 3668,
    "state_code": "09",
    "country_id": 90,
    "country_code": "GT",
    "latitude": "14.98436000",
    "longitude": "-91.54912000",
    "wikiDataId": null
  },
  {
    "id": 53676,
    "name": "San Francisco la Unión",
    "state_id": 3668,
    "state_code": "09",
    "country_id": 90,
    "country_code": "GT",
    "latitude": "14.92350000",
    "longitude": "-91.54157000",
    "wikiDataId": null
  },
  {
    "id": 53711,
    "name": "San Martín Sacatepéquez",
    "state_id": 3668,
    "state_code": "09",
    "country_id": 90,
    "country_code": "GT",
    "latitude": "14.82443000",
    "longitude": "-91.64192000",
    "wikiDataId": null
  },
  {
    "id": 53713,
    "name": "San Mateo",
    "state_id": 3668,
    "state_code": "09",
    "country_id": 90,
    "country_code": "GT",
    "latitude": "14.85800000",
    "longitude": "-91.59004000",
    "wikiDataId": null
  },
  {
    "id": 53720,
    "name": "San Miguel Sigüilá",
    "state_id": 3668,
    "state_code": "09",
    "country_id": 90,
    "country_code": "GT",
    "latitude": "14.89547000",
    "longitude": "-91.61457000",
    "wikiDataId": null
  },
  {
    "id": 53778,
    "name": "Sibilia",
    "state_id": 3668,
    "state_code": "09",
    "country_id": 90,
    "country_code": "GT",
    "latitude": "14.99391000",
    "longitude": "-91.62371000",
    "wikiDataId": null
  },
  {
    "id": 53805,
    "name": "Zunil",
    "state_id": 3668,
    "state_code": "09",
    "country_id": 90,
    "country_code": "GT",
    "latitude": "14.78463000",
    "longitude": "-91.48345000",
    "wikiDataId": null
  }
]