[
  {
    "id": 3404,
    "name": "Changhua",
    "country_id": 216,
    "country_code": "TW",
    "state_code": "CHA",
    "type": "county",
    "latitude": "24.07556670",
    "longitude": "120.54446670",
    "iso3166_2": "TW-CHA",
    "native": "Changhua",
    "timezone": "Asia/Taipei"
  },
  {
    "id": 3408,
    "name": "Chiayi",
    "country_id": 216,
    "country_code": "TW",
    "state_code": "CYI",
    "type": "city",
    "latitude": "23.45916640",
    "longitude": "120.29300040",
    "iso3166_2": "TW-CYI",
    "native": "Chiayi",
    "timezone": "Asia/Taipei"
  },
  {
    "id": 3417,
    "name": "Hsinchu",
    "country_id": 216,
    "country_code": "TW",
    "state_code": "HSZ",
    "type": "city",
    "latitude": "24.81382870",
    "longitude": "120.96747980",
    "iso3166_2": "TW-HSZ",
    "native": "Hsinchu",
    "timezone": "Asia/Taipei"
  },
  {
    "id": 3411,
    "name": "Hualien",
    "country_id": 216,
    "country_code": "TW",
    "state_code": "HUA",
    "type": "county",
    "latitude": "23.98715890",
    "longitude": "121.60157140",
    "iso3166_2": "TW-HUA",
    "native": "Hualien",
    "timezone": "Asia/Taipei"
  },
  {
    "id": 3412,
    "name": "Kaohsiung",
    "country_id": 216,
    "country_code": "TW",
    "state_code": "KHH",
    "type": "special municipality",
    "latitude": "22.62033480",
    "longitude": "120.31203750",
    "iso3166_2": "TW-KHH",
    "native": "Kaohsiung",
    "timezone": "Asia/Taipei"
  },
  {
    "id": 4965,
    "name": "Keelung",
    "country_id": 216,
    "country_code": "TW",
    "state_code": "KEE",
    "type": "city",
    "latitude": "25.13172320",
    "longitude": "121.74465200",
    "iso3166_2": "TW-KEE",
    "native": "Keelung",
    "timezone": "Asia/Taipei"
  },
  {
    "id": 3415,
    "name": "Kinmen",
    "country_id": 216,
    "country_code": "TW",
    "state_code": "KIN",
    "type": "county",
    "latitude": "24.43676380",
    "longitude": "118.31864350",
    "iso3166_2": "TW-KIN",
    "native": "Kinmen",
    "timezone": "Asia/Taipei"
  },
  {
    "id": 3420,
    "name": "Lienchiang",
    "country_id": 216,
    "country_code": "TW",
    "state_code": "LIE",
    "type": "county",
    "latitude": "26.15779510",
    "longitude": "119.95197560",
    "iso3166_2": "TW-LIE",
    "native": "Lienchiang",
    "timezone": "Asia/Taipei"
  },
  {
    "id": 3413,
    "name": "Miaoli",
    "country_id": 216,
    "country_code": "TW",
    "state_code": "MIA",
    "type": "county",
    "latitude": "24.56015900",
    "longitude": "120.82142650",
    "iso3166_2": "TW-MIA",
    "native": "Miaoli",
    "timezone": "Asia/Taipei"
  },
  {
    "id": 3407,
    "name": "Nantou",
    "country_id": 216,
    "country_code": "TW",
    "state_code": "NAN",
    "type": "county",
    "latitude": "23.90235000",
    "longitude": "120.69091670",
    "iso3166_2": "TW-NAN",
    "native": "Nantou",
    "timezone": "Asia/Taipei"
  },
  {
    "id": 4966,
    "name": "New Taipei",
    "country_id": 216,
    "country_code": "TW",
    "state_code": "NWT",
    "type": "special municipality",
    "latitude": "25.01199700",
    "longitude": "121.46566190",
    "iso3166_2": "TW-NWT",
    "native": "New Taipei",
    "timezone": "Asia/Taipei"
  },
  {
    "id": 3403,
    "name": "Penghu",
    "country_id": 216,
    "country_code": "TW",
    "state_code": "PEN",
    "type": "county",
    "latitude": "23.56969400",
    "longitude": "119.56645430",
    "iso3166_2": "TW-PEN",
    "native": "Penghu",
    "timezone": "Asia/Taipei"
  },
  {
    "id": 3405,
    "name": "Pingtung",
    "country_id": 216,
    "country_code": "TW",
    "state_code": "PIF",
    "type": "county",
    "latitude": "22.66284680",
    "longitude": "120.49156770",
    "iso3166_2": "TW-PIF",
    "native": "Pingtung",
    "timezone": "Asia/Taipei"
  },
  {
    "id": 3406,
    "name": "Taichung",
    "country_id": 216,
    "country_code": "TW",
    "state_code": "TXG",
    "type": "special municipality",
    "latitude": "24.16316200",
    "longitude": "120.64782820",
    "iso3166_2": "TW-TXG",
    "native": "Taichung",
    "timezone": "Asia/Taipei"
  },
  {
    "id": 3421,
    "name": "Tainan",
    "country_id": 216,
    "country_code": "TW",
    "state_code": "TNN",
    "type": "special municipality",
    "latitude": "22.99123480",
    "longitude": "120.18498200",
    "iso3166_2": "TW-TNN",
    "native": "Tainan",
    "timezone": "Asia/Taipei"
  },
  {
    "id": 3422,
    "name": "Taipei",
    "country_id": 216,
    "country_code": "TW",
    "state_code": "TPE",
    "type": "special municipality",
    "latitude": "25.03296940",
    "longitude": "121.56541770",
    "iso3166_2": "TW-TPE",
    "native": "Taipei",
    "timezone": "Asia/Taipei"
  },
  {
    "id": 3410,
    "name": "Taitung",
    "country_id": 216,
    "country_code": "TW",
    "state_code": "TTT",
    "type": "county",
    "latitude": "22.75604470",
    "longitude": "121.14565380",
    "iso3166_2": "TW-TTT",
    "native": "Taitung",
    "timezone": "Asia/Taipei"
  },
  {
    "id": 3419,
    "name": "Taoyuan",
    "country_id": 216,
    "country_code": "TW",
    "state_code": "TAO",
    "type": "special municipality",
    "latitude": "24.99362810",
    "longitude": "121.30097980",
    "iso3166_2": "TW-TAO",
    "native": "Taoyuan",
    "timezone": "Asia/Taipei"
  },
  {
    "id": 3402,
    "name": "Yilan",
    "country_id": 216,
    "country_code": "TW",
    "state_code": "ILA",
    "type": "county",
    "latitude": "24.73027910",
    "longitude": "121.76311490",
    "iso3166_2": "TW-ILA",
    "native": "Yilan",
    "timezone": "Asia/Taipei"
  },
  {
    "id": 3416,
    "name": "Yunlin",
    "country_id": 216,
    "country_code": "TW",
    "state_code": "YUN",
    "type": "county",
    "latitude": "23.69907750",
    "longitude": "120.52455110",
    "iso3166_2": "TW-YUN",
    "native": "Yunlin",
    "timezone": "Asia/Taipei"
  }
]