[
  {
    "id": 3444,
    "name": "Annobón",
    "country_id": 67,
    "country_code": "GQ",
    "state_code": "AN",
    "type": "province",
    "latitude": "-1.42687820",
    "longitude": "5.63528010",
    "iso3166_2": "GQ-AN",
    "native": "Annobón",
    "timezone": "Africa/Malabo"
  },
  {
    "id": 3446,
    "name": "Bioko Norte",
    "country_id": 67,
    "country_code": "GQ",
    "state_code": "BN",
    "type": "province",
    "latitude": "3.64845940",
    "longitude": "8.78511550",
    "iso3166_2": "GQ-BN",
    "native": "Bioko norte",
    "timezone": "Africa/Malabo"
  },
  {
    "id": 3443,
    "name": "Bioko Sur",
    "country_id": 67,
    "country_code": "GQ",
    "state_code": "BS",
    "type": "province",
    "latitude": "3.42452540",
    "longitude": "8.66460920",
    "iso3166_2": "GQ-BS",
    "native": "Bioko sur",
    "timezone": "Africa/Malabo"
  },
  {
    "id": 3445,
    "name": "Centro Sur",
    "country_id": 67,
    "country_code": "GQ",
    "state_code": "CS",
    "type": "province",
    "latitude": "1.39699660",
    "longitude": "10.45385280",
    "iso3166_2": "GQ-CS",
    "native": "Centro Sur",
    "timezone": "Africa/Malabo"
  },
  {
    "id": 3442,
    "name": "Insular",
    "country_id": 67,
    "country_code": "GQ",
    "state_code": "I",
    "type": "region",
    "latitude": "3.49865230",
    "longitude": "8.71360620",
    "iso3166_2": "GQ-I",
    "native": "Insular",
    "timezone": "Africa/Malabo"
  },
  {
    "id": 3439,
    "name": "Kié-Ntem",
    "country_id": 67,
    "country_code": "GQ",
    "state_code": "KN",
    "type": "province",
    "latitude": "2.05792660",
    "longitude": "10.98559160",
    "iso3166_2": "GQ-KN",
    "native": "A quien hice",
    "timezone": "Africa/Malabo"
  },
  {
    "id": 3441,
    "name": "Litoral",
    "country_id": 67,
    "country_code": "GQ",
    "state_code": "LI",
    "type": "province",
    "latitude": "1.60263740",
    "longitude": "9.84156900",
    "iso3166_2": "GQ-LI",
    "native": "Costero",
    "timezone": "Africa/Malabo"
  },
  {
    "id": 3438,
    "name": "Río Muni",
    "country_id": 67,
    "country_code": "GQ",
    "state_code": "C",
    "type": "region",
    "latitude": "1.05709510",
    "longitude": "9.65329170",
    "iso3166_2": "GQ-C",
    "native": "Río Muni",
    "timezone": "Africa/Malabo"
  },
  {
    "id": 3440,
    "name": "Wele-Nzas",
    "country_id": 67,
    "country_code": "GQ",
    "state_code": "WN",
    "type": "province",
    "latitude": "1.46487190",
    "longitude": "11.13167600",
    "iso3166_2": "GQ-WN",
    "native": "Wele-nza",
    "timezone": "Africa/Malabo"
  }
]