[
  {
    "id": 63209,
    "name": "‘Ayy",
    "state_id": 956,
    "state_code": "KA",
    "country_id": 111,
    "country_code": "JO",
    "latitude": "31.13371000",
    "longitude": "35.64375000",
    "wikiDataId": null
  },
  {
    "id": 63210,
    "name": "‘Izrā",
    "state_id": 956,
    "state_code": "KA",
    "country_id": 111,
    "country_code": "JO",
    "latitude": "31.15889000",
    "longitude": "35.69278000",
    "wikiDataId": null
  },
  {
    "id": 63129,
    "name": "Adir",
    "state_id": 956,
    "state_code": "KA",
    "country_id": 111,
    "country_code": "JO",
    "latitude": "31.20217000",
    "longitude": "35.76155000",
    "wikiDataId": null
  },
  {
    "id": 63135,
    "name": "Al Khinzīrah",
    "state_id": 956,
    "state_code": "KA",
    "country_id": 111,
    "country_code": "JO",
    "latitude": "31.05056000",
    "longitude": "35.60606000",
    "wikiDataId": null
  },
  {
    "id": 63137,
    "name": "Al Mazār al Janūbī",
    "state_id": 956,
    "state_code": "KA",
    "country_id": 111,
    "country_code": "JO",
    "latitude": "31.06722000",
    "longitude": "35.69486000",
    "wikiDataId": null
  },
  {
    "id": 63138,
    "name": "Al Qaşr",
    "state_id": 956,
    "state_code": "KA",
    "country_id": 111,
    "country_code": "JO",
    "latitude": "31.31407000",
    "longitude": "35.74393000",
    "wikiDataId": null
  },
  {
    "id": 63143,
    "name": "Ar Rabbah",
    "state_id": 956,
    "state_code": "KA",
    "country_id": 111,
    "country_code": "JO",
    "latitude": "31.26923000",
    "longitude": "35.73829000",
    "wikiDataId": null
  },
  {
    "id": 63166,
    "name": "Karak City",
    "state_id": 956,
    "state_code": "KA",
    "country_id": 111,
    "country_code": "JO",
    "latitude": "31.16368000",
    "longitude": "35.76204000",
    "wikiDataId": null
  },
  {
    "id": 63182,
    "name": "Safi",
    "state_id": 956,
    "state_code": "KA",
    "country_id": 111,
    "country_code": "JO",
    "latitude": "31.03608000",
    "longitude": "35.46544000",
    "wikiDataId": null
  }
]