[
  {
    "id": 145340,
    "name": "Acli",
    "state_id": 1326,
    "state_code": "AGS",
    "country_id": 174,
    "country_code": "PH",
    "latitude": "15.12277778",
    "longitude": "120.64472222",
    "wikiDataId": null
  },
  {
    "id": 145341,
    "name": "Agbannawag",
    "state_id": 1326,
    "state_code": "AGS",
    "country_id": 174,
    "country_code": "PH",
    "latitude": "15.67916667",
    "longitude": "121.08333333",
    "wikiDataId": null
  },
  {
    "id": 145342,
    "name": "Akle",
    "state_id": 1326,
    "state_code": "AGS",
    "country_id": 174,
    "country_code": "PH",
    "latitude": "15.04833333",
    "longitude": "121.07333333",
    "wikiDataId": null
  },
  {
    "id": 145344,
    "name": "Alua",
    "state_id": 1326,
    "state_code": "AGS",
    "country_id": 174,
    "country_code": "PH",
    "latitude": "15.31166667",
    "longitude": "120.89444444",
    "wikiDataId": null
  },
  {
    "id": 145345,
    "name": "Amacalan",
    "state_id": 1326,
    "state_code": "AGS",
    "country_id": 174,
    "country_code": "PH",
    "latitude": "15.58138889",
    "longitude": "120.61111111",
    "wikiDataId": null
  },
  {
    "id": 145346,
    "name": "Amucao",
    "state_id": 1326,
    "state_code": "AGS",
    "country_id": 174,
    "country_code": "PH",
    "latitude": "15.46416667",
    "longitude": "120.68638889",
    "wikiDataId": null
  },
  {
    "id": 145347,
    "name": "Amuñgan",
    "state_id": 1326,
    "state_code": "AGS",
    "country_id": 174,
    "country_code": "PH",
    "latitude": "15.36527778",
    "longitude": "119.95833333",
    "wikiDataId": null
  },
  {
    "id": 145350,
    "name": "Angat",
    "state_id": 1326,
    "state_code": "AGS",
    "country_id": 174,
    "country_code": "PH",
    "latitude": "14.92814722",
    "longitude": "121.02931944",
    "wikiDataId": null
  },
  {
    "id": 145351,
    "name": "Angeles",
    "state_id": 1326,
    "state_code": "AGS",
    "country_id": 174,
    "country_code": "PH",
    "latitude": "15.14718056",
    "longitude": "120.58473333",
    "wikiDataId": null
  },
  {
    "id": 145355,
    "name": "Arenas",
    "state_id": 1326,
    "state_code": "AGS",
    "country_id": 174,
    "country_code": "PH",
    "latitude": "15.17055556",
    "longitude": "120.68583333",
    "wikiDataId": null
  },
  {
    "id": 145356,
    "name": "Arminia",
    "state_id": 1326,
    "state_code": "AGS",
    "country_id": 174,
    "country_code": "PH",
    "latitude": "15.43555556",
    "longitude": "120.56388889",
    "wikiDataId": null
  },
  {
    "id": 145357,
    "name": "Bacabac",
    "state_id": 1326,
    "state_code": "AGS",
    "country_id": 174,
    "country_code": "PH",
    "latitude": "15.72472222",
    "longitude": "120.42805556",
    "wikiDataId": null
  },
  {
    "id": 145359,
    "name": "Bacsay",
    "state_id": 1326,
    "state_code": "AGS",
    "country_id": 174,
    "country_code": "PH",
    "latitude": "15.62055556",
    "longitude": "120.34333333",
    "wikiDataId": null
  },
  {
    "id": 145360,
    "name": "Bagac",
    "state_id": 1326,
    "state_code": "AGS",
    "country_id": 174,
    "country_code": "PH",
    "latitude": "14.58333000",
    "longitude": "120.41667000",
    "wikiDataId": null
  },
  {
    "id": 145361,
    "name": "Bagong Barrio",
    "state_id": 1326,
    "state_code": "AGS",
    "country_id": 174,
    "country_code": "PH",
    "latitude": "14.89000000",
    "longitude": "120.94083333",
    "wikiDataId": null
  },
  {
    "id": 145362,
    "name": "Bagong-Sikat",
    "state_id": 1326,
    "state_code": "AGS",
    "country_id": 174,
    "country_code": "PH",
    "latitude": "15.48000000",
    "longitude": "121.30722222",
    "wikiDataId": null
  },
  {
    "id": 145363,
    "name": "Bahay Pare",
    "state_id": 1326,
    "state_code": "AGS",
    "country_id": 174,
    "country_code": "PH",
    "latitude": "15.03250000",
    "longitude": "120.88083333",
    "wikiDataId": null
  },
  {
    "id": 145364,
    "name": "Bakulong",
    "state_id": 1326,
    "state_code": "AGS",
    "country_id": 174,
    "country_code": "PH",
    "latitude": "15.53777778",
    "longitude": "120.63861111",
    "wikiDataId": null
  },
  {
    "id": 145365,
    "name": "Balagtas",
    "state_id": 1326,
    "state_code": "AGS",
    "country_id": 174,
    "country_code": "PH",
    "latitude": "14.81446700",
    "longitude": "120.90846700",
    "wikiDataId": null
  },
  {
    "id": 145366,
    "name": "Balanga",
    "state_id": 1326,
    "state_code": "AGS",
    "country_id": 174,
    "country_code": "PH",
    "latitude": "14.68333333",
    "longitude": "120.53333333",
    "wikiDataId": null
  },
  {
    "id": 145367,
    "name": "Balaoang",
    "state_id": 1326,
    "state_code": "AGS",
    "country_id": 174,
    "country_code": "PH",
    "latitude": "15.66333333",
    "longitude": "120.51472222",
    "wikiDataId": null
  },
  {
    "id": 145368,
    "name": "Balas",
    "state_id": 1326,
    "state_code": "AGS",
    "country_id": 174,
    "country_code": "PH",
    "latitude": "15.05000000",
    "longitude": "120.58611111",
    "wikiDataId": null
  },
  {
    "id": 145369,
    "name": "Balasing",
    "state_id": 1326,
    "state_code": "AGS",
    "country_id": 174,
    "country_code": "PH",
    "latitude": "14.85444444",
    "longitude": "121.01277778",
    "wikiDataId": null
  },
  {
    "id": 145370,
    "name": "Balayang",
    "state_id": 1326,
    "state_code": "AGS",
    "country_id": 174,
    "country_code": "PH",
    "latitude": "15.54944444",
    "longitude": "120.69416667",
    "wikiDataId": null
  },
  {
    "id": 145372,
    "name": "Balingcanaway",
    "state_id": 1326,
    "state_code": "AGS",
    "country_id": 174,
    "country_code": "PH",
    "latitude": "15.48222222",
    "longitude": "120.68555556",
    "wikiDataId": null
  },
  {
    "id": 145373,
    "name": "Balite",
    "state_id": 1326,
    "state_code": "AGS",
    "country_id": 174,
    "country_code": "PH",
    "latitude": "15.64444444",
    "longitude": "120.64194444",
    "wikiDataId": null
  },
  {
    "id": 145375,
    "name": "Baliuag",
    "state_id": 1326,
    "state_code": "AGS",
    "country_id": 174,
    "country_code": "PH",
    "latitude": "14.95000000",
    "longitude": "120.90000000",
    "wikiDataId": null
  },
  {
    "id": 145376,
    "name": "Baloc",
    "state_id": 1326,
    "state_code": "AGS",
    "country_id": 174,
    "country_code": "PH",
    "latitude": "15.64361111",
    "longitude": "120.88527778",
    "wikiDataId": null
  },
  {
    "id": 145377,
    "name": "Baloy",
    "state_id": 1326,
    "state_code": "AGS",
    "country_id": 174,
    "country_code": "PH",
    "latitude": "15.80527778",
    "longitude": "120.77416667",
    "wikiDataId": null
  },
  {
    "id": 145378,
    "name": "Balsic",
    "state_id": 1326,
    "state_code": "AGS",
    "country_id": 174,
    "country_code": "PH",
    "latitude": "14.85916667",
    "longitude": "120.48250000",
    "wikiDataId": null
  },
  {
    "id": 145379,
    "name": "Balucuc",
    "state_id": 1326,
    "state_code": "AGS",
    "country_id": 174,
    "country_code": "PH",
    "latitude": "14.95277778",
    "longitude": "120.81444444",
    "wikiDataId": null
  },
  {
    "id": 145380,
    "name": "Balut",
    "state_id": 1326,
    "state_code": "AGS",
    "country_id": 174,
    "country_code": "PH",
    "latitude": "14.68333333",
    "longitude": "120.55000000",
    "wikiDataId": null
  },
  {
    "id": 145381,
    "name": "Balutu",
    "state_id": 1326,
    "state_code": "AGS",
    "country_id": 174,
    "country_code": "PH",
    "latitude": "15.29861111",
    "longitude": "120.69222222",
    "wikiDataId": null
  },
  {
    "id": 145384,
    "name": "Banawang",
    "state_id": 1326,
    "state_code": "AGS",
    "country_id": 174,
    "country_code": "PH",
    "latitude": "14.61222222",
    "longitude": "120.39000000",
    "wikiDataId": null
  },
  {
    "id": 145386,
    "name": "Baquero Norte",
    "state_id": 1326,
    "state_code": "AGS",
    "country_id": 174,
    "country_code": "PH",
    "latitude": "15.71611111",
    "longitude": "120.55416667",
    "wikiDataId": null
  },
  {
    "id": 145387,
    "name": "Batasan Bata",
    "state_id": 1326,
    "state_code": "AGS",
    "country_id": 174,
    "country_code": "PH",
    "latitude": "15.14444444",
    "longitude": "120.94083333",
    "wikiDataId": null
  },
  {
    "id": 145388,
    "name": "Batitang",
    "state_id": 1326,
    "state_code": "AGS",
    "country_id": 174,
    "country_code": "PH",
    "latitude": "15.40027778",
    "longitude": "120.80277778",
    "wikiDataId": null
  },
  {
    "id": 145389,
    "name": "Bayanan",
    "state_id": 1326,
    "state_code": "AGS",
    "country_id": 174,
    "country_code": "PH",
    "latitude": "13.35916667",
    "longitude": "121.17000000",
    "wikiDataId": null
  },
  {
    "id": 145390,
    "name": "Beddeng",
    "state_id": 1326,
    "state_code": "AGS",
    "country_id": 174,
    "country_code": "PH",
    "latitude": "14.97722222",
    "longitude": "120.08500000",
    "wikiDataId": null
  },
  {
    "id": 145391,
    "name": "Biay",
    "state_id": 1326,
    "state_code": "AGS",
    "country_id": 174,
    "country_code": "PH",
    "latitude": "15.74027778",
    "longitude": "119.90666667",
    "wikiDataId": null
  },
  {
    "id": 145392,
    "name": "Bibiclat",
    "state_id": 1326,
    "state_code": "AGS",
    "country_id": 174,
    "country_code": "PH",
    "latitude": "15.52194444",
    "longitude": "120.86222222",
    "wikiDataId": null
  },
  {
    "id": 145393,
    "name": "Bicos",
    "state_id": 1326,
    "state_code": "AGS",
    "country_id": 174,
    "country_code": "PH",
    "latitude": "15.66027778",
    "longitude": "121.04138889",
    "wikiDataId": null
  },
  {
    "id": 145394,
    "name": "Biga",
    "state_id": 1326,
    "state_code": "AGS",
    "country_id": 174,
    "country_code": "PH",
    "latitude": "13.31055556",
    "longitude": "121.16111111",
    "wikiDataId": null
  },
  {
    "id": 145395,
    "name": "Bilad",
    "state_id": 1326,
    "state_code": "AGS",
    "country_id": 174,
    "country_code": "PH",
    "latitude": "15.73666667",
    "longitude": "120.43333333",
    "wikiDataId": null
  },
  {
    "id": 145396,
    "name": "Bobon Second",
    "state_id": 1326,
    "state_code": "AGS",
    "country_id": 174,
    "country_code": "PH",
    "latitude": "15.65666667",
    "longitude": "120.38111111",
    "wikiDataId": null
  },
  {
    "id": 145398,
    "name": "Bodega",
    "state_id": 1326,
    "state_code": "AGS",
    "country_id": 174,
    "country_code": "PH",
    "latitude": "14.92277778",
    "longitude": "120.47972222",
    "wikiDataId": null
  },
  {
    "id": 145399,
    "name": "Bolitoc",
    "state_id": 1326,
    "state_code": "AGS",
    "country_id": 174,
    "country_code": "PH",
    "latitude": "15.73944444",
    "longitude": "119.87694444",
    "wikiDataId": null
  },
  {
    "id": 145402,
    "name": "Buenlag",
    "state_id": 1326,
    "state_code": "AGS",
    "country_id": 174,
    "country_code": "PH",
    "latitude": "15.62750000",
    "longitude": "120.58194444",
    "wikiDataId": null
  },
  {
    "id": 145403,
    "name": "Buensuseso",
    "state_id": 1326,
    "state_code": "AGS",
    "country_id": 174,
    "country_code": "PH",
    "latitude": "15.19333333",
    "longitude": "120.67305556",
    "wikiDataId": null
  },
  {
    "id": 145405,
    "name": "Bulaon",
    "state_id": 1326,
    "state_code": "AGS",
    "country_id": 174,
    "country_code": "PH",
    "latitude": "15.08250000",
    "longitude": "120.66277778",
    "wikiDataId": null
  },
  {
    "id": 145406,
    "name": "Bularit",
    "state_id": 1326,
    "state_code": "AGS",
    "country_id": 174,
    "country_code": "PH",
    "latitude": "15.56833333",
    "longitude": "120.62166667",
    "wikiDataId": null
  },
  {
    "id": 145407,
    "name": "Bulawin",
    "state_id": 1326,
    "state_code": "AGS",
    "country_id": 174,
    "country_code": "PH",
    "latitude": "15.41722222",
    "longitude": "119.95638889",
    "wikiDataId": null
  },
  {
    "id": 145408,
    "name": "Bulihan",
    "state_id": 1326,
    "state_code": "AGS",
    "country_id": 174,
    "country_code": "PH",
    "latitude": "14.87583333",
    "longitude": "120.89555556",
    "wikiDataId": null
  },
  {
    "id": 145409,
    "name": "Buliran",
    "state_id": 1326,
    "state_code": "AGS",
    "country_id": 174,
    "country_code": "PH",
    "latitude": "15.54611111",
    "longitude": "120.95972222",
    "wikiDataId": null
  },
  {
    "id": 145410,
    "name": "Buliran Segundo",
    "state_id": 1326,
    "state_code": "AGS",
    "country_id": 174,
    "country_code": "PH",
    "latitude": "15.26666667",
    "longitude": "120.86666667",
    "wikiDataId": null
  },
  {
    "id": 145411,
    "name": "Bulualto",
    "state_id": 1326,
    "state_code": "AGS",
    "country_id": 174,
    "country_code": "PH",
    "latitude": "15.22138889",
    "longitude": "120.95333333",
    "wikiDataId": null
  },
  {
    "id": 145412,
    "name": "Bundoc",
    "state_id": 1326,
    "state_code": "AGS",
    "country_id": 174,
    "country_code": "PH",
    "latitude": "15.48583333",
    "longitude": "120.71750000",
    "wikiDataId": null
  },
  {
    "id": 145413,
    "name": "Bunol",
    "state_id": 1326,
    "state_code": "AGS",
    "country_id": 174,
    "country_code": "PH",
    "latitude": "15.66722222",
    "longitude": "120.83444444",
    "wikiDataId": null
  },
  {
    "id": 145420,
    "name": "Cabayaoasan",
    "state_id": 1326,
    "state_code": "AGS",
    "country_id": 174,
    "country_code": "PH",
    "latitude": "15.66333333",
    "longitude": "120.55138889",
    "wikiDataId": null
  },
  {
    "id": 145421,
    "name": "Cabcaben",
    "state_id": 1326,
    "state_code": "AGS",
    "country_id": 174,
    "country_code": "PH",
    "latitude": "14.45388889",
    "longitude": "120.59138889",
    "wikiDataId": null
  },
  {
    "id": 145423,
    "name": "Cabog",
    "state_id": 1326,
    "state_code": "AGS",
    "country_id": 174,
    "country_code": "PH",
    "latitude": "15.31527778",
    "longitude": "121.37027778",
    "wikiDataId": null
  },
  {
    "id": 145424,
    "name": "Cafe",
    "state_id": 1326,
    "state_code": "AGS",
    "country_id": 174,
    "country_code": "PH",
    "latitude": "15.33694444",
    "longitude": "120.70611111",
    "wikiDataId": null
  },
  {
    "id": 145425,
    "name": "Calaba",
    "state_id": 1326,
    "state_code": "AGS",
    "country_id": 174,
    "country_code": "PH",
    "latitude": "15.30055556",
    "longitude": "120.87416667",
    "wikiDataId": null
  },
  {
    "id": 145426,
    "name": "Calancuasan Norte",
    "state_id": 1326,
    "state_code": "AGS",
    "country_id": 174,
    "country_code": "PH",
    "latitude": "15.80138889",
    "longitude": "120.64111111",
    "wikiDataId": null
  },
  {
    "id": 145427,
    "name": "Calangain",
    "state_id": 1326,
    "state_code": "AGS",
    "country_id": 174,
    "country_code": "PH",
    "latitude": "14.89805556",
    "longitude": "120.55888889",
    "wikiDataId": null
  },
  {
    "id": 145428,
    "name": "Calantas",
    "state_id": 1326,
    "state_code": "AGS",
    "country_id": 174,
    "country_code": "PH",
    "latitude": "15.01944444",
    "longitude": "120.51805556",
    "wikiDataId": null
  },
  {
    "id": 145429,
    "name": "Calayaan",
    "state_id": 1326,
    "state_code": "AGS",
    "country_id": 174,
    "country_code": "PH",
    "latitude": "15.56750000",
    "longitude": "120.51444444",
    "wikiDataId": null
  },
  {
    "id": 145430,
    "name": "Calibungan",
    "state_id": 1326,
    "state_code": "AGS",
    "country_id": 174,
    "country_code": "PH",
    "latitude": "15.59833333",
    "longitude": "120.72388889",
    "wikiDataId": null
  },
  {
    "id": 145431,
    "name": "Calibutbut",
    "state_id": 1326,
    "state_code": "AGS",
    "country_id": 174,
    "country_code": "PH",
    "latitude": "15.11500000",
    "longitude": "120.59805556",
    "wikiDataId": null
  },
  {
    "id": 145432,
    "name": "Calingcuan",
    "state_id": 1326,
    "state_code": "AGS",
    "country_id": 174,
    "country_code": "PH",
    "latitude": "15.33333333",
    "longitude": "120.58333333",
    "wikiDataId": null
  },
  {
    "id": 145433,
    "name": "Calumpang",
    "state_id": 1326,
    "state_code": "AGS",
    "country_id": 174,
    "country_code": "PH",
    "latitude": "15.17388889",
    "longitude": "121.02500000",
    "wikiDataId": null
  },
  {
    "id": 145434,
    "name": "Calumpit",
    "state_id": 1326,
    "state_code": "AGS",
    "country_id": 174,
    "country_code": "PH",
    "latitude": "14.91666667",
    "longitude": "120.76666667",
    "wikiDataId": null
  },
  {
    "id": 145435,
    "name": "Cama Juan",
    "state_id": 1326,
    "state_code": "AGS",
    "country_id": 174,
    "country_code": "PH",
    "latitude": "15.39222222",
    "longitude": "120.76861111",
    "wikiDataId": null
  },
  {
    "id": 145436,
    "name": "Camachile",
    "state_id": 1326,
    "state_code": "AGS",
    "country_id": 174,
    "country_code": "PH",
    "latitude": "14.64361111",
    "longitude": "120.58083333",
    "wikiDataId": null
  },
  {
    "id": 145437,
    "name": "Camias",
    "state_id": 1326,
    "state_code": "AGS",
    "country_id": 174,
    "country_code": "PH",
    "latitude": "15.16666667",
    "longitude": "120.97416667",
    "wikiDataId": null
  },
  {
    "id": 145440,
    "name": "Candating",
    "state_id": 1326,
    "state_code": "AGS",
    "country_id": 174,
    "country_code": "PH",
    "latitude": "15.15055556",
    "longitude": "120.81861111",
    "wikiDataId": null
  },
  {
    "id": 145444,
    "name": "Carmen",
    "state_id": 1326,
    "state_code": "AGS",
    "country_id": 174,
    "country_code": "PH",
    "latitude": "15.44694444",
    "longitude": "120.82666667",
    "wikiDataId": null
  },
  {
    "id": 145449,
    "name": "Cavite",
    "state_id": 1326,
    "state_code": "AGS",
    "country_id": 174,
    "country_code": "PH",
    "latitude": "15.67777778",
    "longitude": "120.76972222",
    "wikiDataId": null
  },
  {
    "id": 145450,
    "name": "Cawayan Bugtong",
    "state_id": 1326,
    "state_code": "AGS",
    "country_id": 174,
    "country_code": "PH",
    "latitude": "15.63361111",
    "longitude": "120.77694444",
    "wikiDataId": null
  },
  {
    "id": 145451,
    "name": "City of Balanga",
    "state_id": 1326,
    "state_code": "AGS",
    "country_id": 174,
    "country_code": "PH",
    "latitude": "14.66695000",
    "longitude": "120.49430000",
    "wikiDataId": null
  },
  {
    "id": 145452,
    "name": "City of Gapan",
    "state_id": 1326,
    "state_code": "AGS",
    "country_id": 174,
    "country_code": "PH",
    "latitude": "15.28333000",
    "longitude": "120.98333000",
    "wikiDataId": null
  },
  {
    "id": 145453,
    "name": "City of Malolos",
    "state_id": 1326,
    "state_code": "AGS",
    "country_id": 174,
    "country_code": "PH",
    "latitude": "14.82978000",
    "longitude": "120.83713000",
    "wikiDataId": null
  },
  {
    "id": 145454,
    "name": "City of Meycauayan",
    "state_id": 1326,
    "state_code": "AGS",
    "country_id": 174,
    "country_code": "PH",
    "latitude": "14.75238000",
    "longitude": "120.96794000",
    "wikiDataId": null
  },
  {
    "id": 145455,
    "name": "City of San Fernando",
    "state_id": 1326,
    "state_code": "AGS",
    "country_id": 174,
    "country_code": "PH",
    "latitude": "15.04574000",
    "longitude": "120.70373000",
    "wikiDataId": null
  },
  {
    "id": 145456,
    "name": "City of San Jose del Monte",
    "state_id": 1326,
    "state_code": "AGS",
    "country_id": 174,
    "country_code": "PH",
    "latitude": "14.81667000",
    "longitude": "121.11667000",
    "wikiDataId": null
  },
  {
    "id": 145457,
    "name": "Comillas",
    "state_id": 1326,
    "state_code": "AGS",
    "country_id": 174,
    "country_code": "PH",
    "latitude": "15.39833333",
    "longitude": "120.70055556",
    "wikiDataId": null
  },
  {
    "id": 145458,
    "name": "Communal",
    "state_id": 1326,
    "state_code": "AGS",
    "country_id": 174,
    "country_code": "PH",
    "latitude": "13.25472222",
    "longitude": "121.13666667",
    "wikiDataId": null
  },
  {
    "id": 145459,
    "name": "Concepcion",
    "state_id": 1326,
    "state_code": "AGS",
    "country_id": 174,
    "country_code": "PH",
    "latitude": "7.98586170",
    "longitude": "126.00904990",
    "wikiDataId": null
  },
  {
    "id": 145462,
    "name": "Conversion",
    "state_id": 1326,
    "state_code": "AGS",
    "country_id": 174,
    "country_code": "PH",
    "latitude": "15.89833333",
    "longitude": "121.12777778",
    "wikiDataId": null
  },
  {
    "id": 145463,
    "name": "Culianin",
    "state_id": 1326,
    "state_code": "AGS",
    "country_id": 174,
    "country_code": "PH",
    "latitude": "14.91500000",
    "longitude": "120.89861111",
    "wikiDataId": null
  },
  {
    "id": 145464,
    "name": "Culubasa",
    "state_id": 1326,
    "state_code": "AGS",
    "country_id": 174,
    "country_code": "PH",
    "latitude": "15.14444444",
    "longitude": "120.65222222",
    "wikiDataId": null
  },
  {
    "id": 145465,
    "name": "Cut-cut Primero",
    "state_id": 1326,
    "state_code": "AGS",
    "country_id": 174,
    "country_code": "PH",
    "latitude": "15.48277778",
    "longitude": "120.58611111",
    "wikiDataId": null
  },
  {
    "id": 145467,
    "name": "Dampol",
    "state_id": 1326,
    "state_code": "AGS",
    "country_id": 174,
    "country_code": "PH",
    "latitude": "14.90138889",
    "longitude": "120.82194444",
    "wikiDataId": null
  },
  {
    "id": 145469,
    "name": "Del Pilar",
    "state_id": 1326,
    "state_code": "AGS",
    "country_id": 174,
    "country_code": "PH",
    "latitude": "15.03611111",
    "longitude": "120.69944444",
    "wikiDataId": null
  },
  {
    "id": 145471,
    "name": "Digdig",
    "state_id": 1326,
    "state_code": "AGS",
    "country_id": 174,
    "country_code": "PH",
    "latitude": "15.94888889",
    "longitude": "120.97777778",
    "wikiDataId": null
  },
  {
    "id": 145473,
    "name": "Diliman Primero",
    "state_id": 1326,
    "state_code": "AGS",
    "country_id": 174,
    "country_code": "PH",
    "latitude": "15.02472222",
    "longitude": "120.95194444",
    "wikiDataId": null
  },
  {
    "id": 145474,
    "name": "Dinalongan",
    "state_id": 1326,
    "state_code": "AGS",
    "country_id": 174,
    "country_code": "PH",
    "latitude": "16.18333000",
    "longitude": "121.88333000",
    "wikiDataId": null
  },
  {
    "id": 145475,
    "name": "Dinalupihan",
    "state_id": 1326,
    "state_code": "AGS",
    "country_id": 174,
    "country_code": "PH",
    "latitude": "14.88333333",
    "longitude": "120.46666667",
    "wikiDataId": null
  },
  {
    "id": 145480,
    "name": "Entablado",
    "state_id": 1326,
    "state_code": "AGS",
    "country_id": 174,
    "country_code": "PH",
    "latitude": "15.28666667",
    "longitude": "120.86305556",
    "wikiDataId": null
  },
  {
    "id": 145481,
    "name": "Estipona",
    "state_id": 1326,
    "state_code": "AGS",
    "country_id": 174,
    "country_code": "PH",
    "latitude": "15.59027778",
    "longitude": "120.63777778",
    "wikiDataId": null
  },
  {
    "id": 145482,
    "name": "Estrella",
    "state_id": 1326,
    "state_code": "AGS",
    "country_id": 174,
    "country_code": "PH",
    "latitude": "15.75000000",
    "longitude": "121.03333333",
    "wikiDataId": null
  },
  {
    "id": 145491,
    "name": "Gueset",
    "state_id": 1326,
    "state_code": "AGS",
    "country_id": 174,
    "country_code": "PH",
    "latitude": "15.95000000",
    "longitude": "120.63333333",
    "wikiDataId": null
  },
  {
    "id": 145492,
    "name": "Guiguinto",
    "state_id": 1326,
    "state_code": "AGS",
    "country_id": 174,
    "country_code": "PH",
    "latitude": "14.83333333",
    "longitude": "120.88333333",
    "wikiDataId": null
  },
  {
    "id": 145494,
    "name": "Guisguis",
    "state_id": 1326,
    "state_code": "AGS",
    "country_id": 174,
    "country_code": "PH",
    "latitude": "15.79277778",
    "longitude": "119.97666667",
    "wikiDataId": null
  },
  {
    "id": 145495,
    "name": "Guyong",
    "state_id": 1326,
    "state_code": "AGS",
    "country_id": 174,
    "country_code": "PH",
    "latitude": "14.83611111",
    "longitude": "120.97833333",
    "wikiDataId": null
  },
  {
    "id": 145497,
    "name": "Hermosa",
    "state_id": 1326,
    "state_code": "AGS",
    "country_id": 174,
    "country_code": "PH",
    "latitude": "14.83333333",
    "longitude": "120.50000000",
    "wikiDataId": null
  },
  {
    "id": 145501,
    "name": "La Paz",
    "state_id": 1326,
    "state_code": "AGS",
    "country_id": 174,
    "country_code": "PH",
    "latitude": "15.44305556",
    "longitude": "120.72888889",
    "wikiDataId": null
  },
  {
    "id": 145502,
    "name": "Lambakin",
    "state_id": 1326,
    "state_code": "AGS",
    "country_id": 174,
    "country_code": "PH",
    "latitude": "14.75000000",
    "longitude": "120.86666667",
    "wikiDataId": null
  },
  {
    "id": 145504,
    "name": "Lanat",
    "state_id": 1326,
    "state_code": "AGS",
    "country_id": 174,
    "country_code": "PH",
    "latitude": "15.79194444",
    "longitude": "120.60472222",
    "wikiDataId": null
  },
  {
    "id": 145505,
    "name": "Laug",
    "state_id": 1326,
    "state_code": "AGS",
    "country_id": 174,
    "country_code": "PH",
    "latitude": "15.04666667",
    "longitude": "120.75138889",
    "wikiDataId": null
  },
  {
    "id": 145507,
    "name": "Lawang Kupang",
    "state_id": 1326,
    "state_code": "AGS",
    "country_id": 174,
    "country_code": "PH",
    "latitude": "15.34805556",
    "longitude": "120.85750000",
    "wikiDataId": null
  },
  {
    "id": 145508,
    "name": "Lennec",
    "state_id": 1326,
    "state_code": "AGS",
    "country_id": 174,
    "country_code": "PH",
    "latitude": "15.68361111",
    "longitude": "120.73388889",
    "wikiDataId": null
  },
  {
    "id": 145510,
    "name": "Ligaya",
    "state_id": 1326,
    "state_code": "AGS",
    "country_id": 174,
    "country_code": "PH",
    "latitude": "15.50916667",
    "longitude": "121.28722222",
    "wikiDataId": null
  },
  {
    "id": 145512,
    "name": "Liozon",
    "state_id": 1326,
    "state_code": "AGS",
    "country_id": 174,
    "country_code": "PH",
    "latitude": "15.39916667",
    "longitude": "119.93305556",
    "wikiDataId": null
  },
  {
    "id": 145513,
    "name": "Lipay",
    "state_id": 1326,
    "state_code": "AGS",
    "country_id": 174,
    "country_code": "PH",
    "latitude": "15.45611111",
    "longitude": "119.92083333",
    "wikiDataId": null
  },
  {
    "id": 145515,
    "name": "Lomboy",
    "state_id": 1326,
    "state_code": "AGS",
    "country_id": 174,
    "country_code": "PH",
    "latitude": "15.49250000",
    "longitude": "120.71722222",
    "wikiDataId": null
  },
  {
    "id": 145516,
    "name": "Lourdes",
    "state_id": 1326,
    "state_code": "AGS",
    "country_id": 174,
    "country_code": "PH",
    "latitude": "14.96666667",
    "longitude": "120.68333333",
    "wikiDataId": null
  },
  {
    "id": 145519,
    "name": "Lucapon",
    "state_id": 1326,
    "state_code": "AGS",
    "country_id": 174,
    "country_code": "PH",
    "latitude": "15.69972222",
    "longitude": "119.93194444",
    "wikiDataId": null
  },
  {
    "id": 145523,
    "name": "Mabayo",
    "state_id": 1326,
    "state_code": "AGS",
    "country_id": 174,
    "country_code": "PH",
    "latitude": "14.73166667",
    "longitude": "120.27805556",
    "wikiDataId": null
  },
  {
    "id": 145524,
    "name": "Mabilang",
    "state_id": 1326,
    "state_code": "AGS",
    "country_id": 174,
    "country_code": "PH",
    "latitude": "15.67500000",
    "longitude": "120.48833333",
    "wikiDataId": null
  },
  {
    "id": 145525,
    "name": "Mabilog",
    "state_id": 1326,
    "state_code": "AGS",
    "country_id": 174,
    "country_code": "PH",
    "latitude": "15.39472222",
    "longitude": "120.66583333",
    "wikiDataId": null
  },
  {
    "id": 145528,
    "name": "Macapsing",
    "state_id": 1326,
    "state_code": "AGS",
    "country_id": 174,
    "country_code": "PH",
    "latitude": "15.67833333",
    "longitude": "121.13194444",
    "wikiDataId": null
  },
  {
    "id": 145529,
    "name": "Macarse",
    "state_id": 1326,
    "state_code": "AGS",
    "country_id": 174,
    "country_code": "PH",
    "latitude": "15.42500000",
    "longitude": "120.77472222",
    "wikiDataId": null
  },
  {
    "id": 145530,
    "name": "Macatbong",
    "state_id": 1326,
    "state_code": "AGS",
    "country_id": 174,
    "country_code": "PH",
    "latitude": "15.50472222",
    "longitude": "121.07916667",
    "wikiDataId": null
  },
  {
    "id": 145532,
    "name": "Magliman",
    "state_id": 1326,
    "state_code": "AGS",
    "country_id": 174,
    "country_code": "PH",
    "latitude": "15.03555556",
    "longitude": "120.66416667",
    "wikiDataId": null
  },
  {
    "id": 145533,
    "name": "Magtangol",
    "state_id": 1326,
    "state_code": "AGS",
    "country_id": 174,
    "country_code": "PH",
    "latitude": "15.75805556",
    "longitude": "120.91555556",
    "wikiDataId": null
  },
  {
    "id": 145534,
    "name": "Maguinao",
    "state_id": 1326,
    "state_code": "AGS",
    "country_id": 174,
    "country_code": "PH",
    "latitude": "15.02222222",
    "longitude": "120.93416667",
    "wikiDataId": null
  },
  {
    "id": 145535,
    "name": "Malabon",
    "state_id": 1326,
    "state_code": "AGS",
    "country_id": 174,
    "country_code": "PH",
    "latitude": "15.63611111",
    "longitude": "119.93777778",
    "wikiDataId": null
  },
  {
    "id": 145536,
    "name": "Malacampa",
    "state_id": 1326,
    "state_code": "AGS",
    "country_id": 174,
    "country_code": "PH",
    "latitude": "15.64333333",
    "longitude": "120.41111111",
    "wikiDataId": null
  },
  {
    "id": 145537,
    "name": "Maligaya",
    "state_id": 1326,
    "state_code": "AGS",
    "country_id": 174,
    "country_code": "PH",
    "latitude": "15.67472222",
    "longitude": "120.88861111",
    "wikiDataId": null
  },
  {
    "id": 145538,
    "name": "Malino",
    "state_id": 1326,
    "state_code": "AGS",
    "country_id": 174,
    "country_code": "PH",
    "latitude": "15.12694444",
    "longitude": "120.67444444",
    "wikiDataId": null
  },
  {
    "id": 145539,
    "name": "Malolos",
    "state_id": 1326,
    "state_code": "AGS",
    "country_id": 174,
    "country_code": "PH",
    "latitude": "14.84333333",
    "longitude": "120.81138889",
    "wikiDataId": null
  },
  {
    "id": 145540,
    "name": "Maloma",
    "state_id": 1326,
    "state_code": "AGS",
    "country_id": 174,
    "country_code": "PH",
    "latitude": "15.11361111",
    "longitude": "120.06388889",
    "wikiDataId": null
  },
  {
    "id": 145541,
    "name": "Maluid",
    "state_id": 1326,
    "state_code": "AGS",
    "country_id": 174,
    "country_code": "PH",
    "latitude": "15.54916667",
    "longitude": "120.65277778",
    "wikiDataId": null
  },
  {
    "id": 145542,
    "name": "Malusac",
    "state_id": 1326,
    "state_code": "AGS",
    "country_id": 174,
    "country_code": "PH",
    "latitude": "14.85833333",
    "longitude": "120.62111111",
    "wikiDataId": null
  },
  {
    "id": 145543,
    "name": "Mambog",
    "state_id": 1326,
    "state_code": "AGS",
    "country_id": 174,
    "country_code": "PH",
    "latitude": "15.31361111",
    "longitude": "120.03027778",
    "wikiDataId": null
  },
  {
    "id": 145544,
    "name": "Mamonit",
    "state_id": 1326,
    "state_code": "AGS",
    "country_id": 174,
    "country_code": "PH",
    "latitude": "15.58722222",
    "longitude": "120.39638889",
    "wikiDataId": null
  },
  {
    "id": 145545,
    "name": "Manacsac",
    "state_id": 1326,
    "state_code": "AGS",
    "country_id": 174,
    "country_code": "PH",
    "latitude": "15.59527778",
    "longitude": "120.79111111",
    "wikiDataId": null
  },
  {
    "id": 145546,
    "name": "Manatal",
    "state_id": 1326,
    "state_code": "AGS",
    "country_id": 174,
    "country_code": "PH",
    "latitude": "14.87694444",
    "longitude": "120.91638889",
    "wikiDataId": null
  },
  {
    "id": 145547,
    "name": "Mandili",
    "state_id": 1326,
    "state_code": "AGS",
    "country_id": 174,
    "country_code": "PH",
    "latitude": "15.17916667",
    "longitude": "120.87722222",
    "wikiDataId": null
  },
  {
    "id": 145548,
    "name": "Mangga",
    "state_id": 1326,
    "state_code": "AGS",
    "country_id": 174,
    "country_code": "PH",
    "latitude": "15.25027778",
    "longitude": "120.90888889",
    "wikiDataId": null
  },
  {
    "id": 145549,
    "name": "Manibaug Pasig",
    "state_id": 1326,
    "state_code": "AGS",
    "country_id": 174,
    "country_code": "PH",
    "latitude": "15.09611111",
    "longitude": "120.56444444",
    "wikiDataId": null
  },
  {
    "id": 145550,
    "name": "Manogpi",
    "state_id": 1326,
    "state_code": "AGS",
    "country_id": 174,
    "country_code": "PH",
    "latitude": "13.31083333",
    "longitude": "121.20388889",
    "wikiDataId": null
  },
  {
    "id": 145551,
    "name": "Mapalacsiao",
    "state_id": 1326,
    "state_code": "AGS",
    "country_id": 174,
    "country_code": "PH",
    "latitude": "15.42833333",
    "longitude": "120.65250000",
    "wikiDataId": null
  },
  {
    "id": 145552,
    "name": "Mapalad",
    "state_id": 1326,
    "state_code": "AGS",
    "country_id": 174,
    "country_code": "PH",
    "latitude": "15.45138889",
    "longitude": "121.08388889",
    "wikiDataId": null
  },
  {
    "id": 145553,
    "name": "Mapaniqui",
    "state_id": 1326,
    "state_code": "AGS",
    "country_id": 174,
    "country_code": "PH",
    "latitude": "15.10694444",
    "longitude": "120.92277778",
    "wikiDataId": null
  },
  {
    "id": 145554,
    "name": "Maquiapo",
    "state_id": 1326,
    "state_code": "AGS",
    "country_id": 174,
    "country_code": "PH",
    "latitude": "14.98555556",
    "longitude": "120.55861111",
    "wikiDataId": null
  },
  {
    "id": 145555,
    "name": "Marawa",
    "state_id": 1326,
    "state_code": "AGS",
    "country_id": 174,
    "country_code": "PH",
    "latitude": "15.41722222",
    "longitude": "120.83805556",
    "wikiDataId": null
  },
  {
    "id": 145557,
    "name": "Marilao",
    "state_id": 1326,
    "state_code": "AGS",
    "country_id": 174,
    "country_code": "PH",
    "latitude": "14.75805556",
    "longitude": "120.94805556",
    "wikiDataId": null
  },
  {
    "id": 145558,
    "name": "Mariveles",
    "state_id": 1326,
    "state_code": "AGS",
    "country_id": 174,
    "country_code": "PH",
    "latitude": "14.43333333",
    "longitude": "120.48333333",
    "wikiDataId": null
  },
  {
    "id": 145559,
    "name": "Masalipit",
    "state_id": 1326,
    "state_code": "AGS",
    "country_id": 174,
    "country_code": "PH",
    "latitude": "15.14805556",
    "longitude": "121.03722222",
    "wikiDataId": null
  },
  {
    "id": 145562,
    "name": "Matayumtayum",
    "state_id": 1326,
    "state_code": "AGS",
    "country_id": 174,
    "country_code": "PH",
    "latitude": "15.51666667",
    "longitude": "120.70972222",
    "wikiDataId": null
  },
  {
    "id": 145563,
    "name": "Maturanoc",
    "state_id": 1326,
    "state_code": "AGS",
    "country_id": 174,
    "country_code": "PH",
    "latitude": "15.65722222",
    "longitude": "120.79222222",
    "wikiDataId": null
  },
  {
    "id": 145566,
    "name": "Meycauayan",
    "state_id": 1326,
    "state_code": "AGS",
    "country_id": 174,
    "country_code": "PH",
    "latitude": "14.73333333",
    "longitude": "120.95000000",
    "wikiDataId": null
  },
  {
    "id": 145569,
    "name": "Moriones",
    "state_id": 1326,
    "state_code": "AGS",
    "country_id": 174,
    "country_code": "PH",
    "latitude": "15.46111111",
    "longitude": "120.46583333",
    "wikiDataId": null
  },
  {
    "id": 145571,
    "name": "Motrico",
    "state_id": 1326,
    "state_code": "AGS",
    "country_id": 174,
    "country_code": "PH",
    "latitude": "15.41361111",
    "longitude": "120.67666667",
    "wikiDataId": null
  },
  {
    "id": 145574,
    "name": "Nagpandayan",
    "state_id": 1326,
    "state_code": "AGS",
    "country_id": 174,
    "country_code": "PH",
    "latitude": "15.60138889",
    "longitude": "120.76888889",
    "wikiDataId": null
  },
  {
    "id": 145575,
    "name": "Nambalan",
    "state_id": 1326,
    "state_code": "AGS",
    "country_id": 174,
    "country_code": "PH",
    "latitude": "15.59916667",
    "longitude": "120.46027778",
    "wikiDataId": null
  },
  {
    "id": 145578,
    "name": "Nancamarinan",
    "state_id": 1326,
    "state_code": "AGS",
    "country_id": 174,
    "country_code": "PH",
    "latitude": "15.67527778",
    "longitude": "120.53638889",
    "wikiDataId": null
  },
  {
    "id": 145579,
    "name": "Nieves",
    "state_id": 1326,
    "state_code": "AGS",
    "country_id": 174,
    "country_code": "PH",
    "latitude": "15.32833333",
    "longitude": "120.94888889",
    "wikiDataId": null
  },
  {
    "id": 145580,
    "name": "Niugan",
    "state_id": 1326,
    "state_code": "AGS",
    "country_id": 174,
    "country_code": "PH",
    "latitude": "14.94611111",
    "longitude": "120.96722222",
    "wikiDataId": null
  },
  {
    "id": 145581,
    "name": "Norzagaray",
    "state_id": 1326,
    "state_code": "AGS",
    "country_id": 174,
    "country_code": "PH",
    "latitude": "14.91083333",
    "longitude": "121.04916667",
    "wikiDataId": null
  },
  {
    "id": 145582,
    "name": "Obando",
    "state_id": 1326,
    "state_code": "AGS",
    "country_id": 174,
    "country_code": "PH",
    "latitude": "14.70000000",
    "longitude": "120.91666667",
    "wikiDataId": null
  },
  {
    "id": 145584,
    "name": "Orani",
    "state_id": 1326,
    "state_code": "AGS",
    "country_id": 174,
    "country_code": "PH",
    "latitude": "14.80000000",
    "longitude": "120.53333333",
    "wikiDataId": null
  },
  {
    "id": 145586,
    "name": "Paco Roman",
    "state_id": 1326,
    "state_code": "AGS",
    "country_id": 174,
    "country_code": "PH",
    "latitude": "15.65972222",
    "longitude": "121.08777778",
    "wikiDataId": null
  },
  {
    "id": 145587,
    "name": "Padapada",
    "state_id": 1326,
    "state_code": "AGS",
    "country_id": 174,
    "country_code": "PH",
    "latitude": "15.55166667",
    "longitude": "120.51638889",
    "wikiDataId": null
  },
  {
    "id": 145588,
    "name": "Paitan Norte",
    "state_id": 1326,
    "state_code": "AGS",
    "country_id": 174,
    "country_code": "PH",
    "latitude": "15.83333333",
    "longitude": "120.74083333",
    "wikiDataId": null
  },
  {
    "id": 145591,
    "name": "Palusapis",
    "state_id": 1326,
    "state_code": "AGS",
    "country_id": 174,
    "country_code": "PH",
    "latitude": "15.68333333",
    "longitude": "120.86277778",
    "wikiDataId": null
  },
  {
    "id": 145592,
    "name": "Pamatawan",
    "state_id": 1326,
    "state_code": "AGS",
    "country_id": 174,
    "country_code": "PH",
    "latitude": "14.92777778",
    "longitude": "120.21361111",
    "wikiDataId": null
  },
  {
    "id": 145593,
    "name": "Panabingan",
    "state_id": 1326,
    "state_code": "AGS",
    "country_id": 174,
    "country_code": "PH",
    "latitude": "15.37722222",
    "longitude": "120.76500000",
    "wikiDataId": null
  },
  {
    "id": 145594,
    "name": "Panan",
    "state_id": 1326,
    "state_code": "AGS",
    "country_id": 174,
    "country_code": "PH",
    "latitude": "15.21333333",
    "longitude": "120.02722222",
    "wikiDataId": null
  },
  {
    "id": 145595,
    "name": "Pance",
    "state_id": 1326,
    "state_code": "AGS",
    "country_id": 174,
    "country_code": "PH",
    "latitude": "15.68861111",
    "longitude": "120.62000000",
    "wikiDataId": null
  },
  {
    "id": 145596,
    "name": "Pandacaqui",
    "state_id": 1326,
    "state_code": "AGS",
    "country_id": 174,
    "country_code": "PH",
    "latitude": "15.17194444",
    "longitude": "120.65444444",
    "wikiDataId": null
  },
  {
    "id": 145597,
    "name": "Pandi",
    "state_id": 1326,
    "state_code": "AGS",
    "country_id": 174,
    "country_code": "PH",
    "latitude": "14.86666667",
    "longitude": "120.95000000",
    "wikiDataId": null
  },
  {
    "id": 145598,
    "name": "Pando",
    "state_id": 1326,
    "state_code": "AGS",
    "country_id": 174,
    "country_code": "PH",
    "latitude": "15.39388889",
    "longitude": "120.68472222",
    "wikiDataId": null
  },
  {
    "id": 145601,
    "name": "Pantubig",
    "state_id": 1326,
    "state_code": "AGS",
    "country_id": 174,
    "country_code": "PH",
    "latitude": "14.96805556",
    "longitude": "120.95472222",
    "wikiDataId": null
  },
  {
    "id": 145602,
    "name": "Paombong",
    "state_id": 1326,
    "state_code": "AGS",
    "country_id": 174,
    "country_code": "PH",
    "latitude": "14.83111100",
    "longitude": "120.78916700",
    "wikiDataId": null
  },
  {
    "id": 145603,
    "name": "Papaya",
    "state_id": 1326,
    "state_code": "AGS",
    "country_id": 174,
    "country_code": "PH",
    "latitude": "15.32027778",
    "longitude": "120.83583333",
    "wikiDataId": null
  },
  {
    "id": 145605,
    "name": "Parista",
    "state_id": 1326,
    "state_code": "AGS",
    "country_id": 174,
    "country_code": "PH",
    "latitude": "15.85361111",
    "longitude": "120.92833333",
    "wikiDataId": null
  },
  {
    "id": 145606,
    "name": "Pau",
    "state_id": 1326,
    "state_code": "AGS",
    "country_id": 174,
    "country_code": "PH",
    "latitude": "15.02777778",
    "longitude": "120.72416667",
    "wikiDataId": null
  },
  {
    "id": 145608,
    "name": "Pias",
    "state_id": 1326,
    "state_code": "AGS",
    "country_id": 174,
    "country_code": "PH",
    "latitude": "15.34527778",
    "longitude": "121.07472222",
    "wikiDataId": null
  },
  {
    "id": 145613,
    "name": "Piñahan",
    "state_id": 1326,
    "state_code": "AGS",
    "country_id": 174,
    "country_code": "PH",
    "latitude": "15.62666667",
    "longitude": "121.06222222",
    "wikiDataId": null
  },
  {
    "id": 145611,
    "name": "Pinambaran",
    "state_id": 1326,
    "state_code": "AGS",
    "country_id": 174,
    "country_code": "PH",
    "latitude": "15.20222222",
    "longitude": "120.97805556",
    "wikiDataId": null
  },
  {
    "id": 145612,
    "name": "Pio",
    "state_id": 1326,
    "state_code": "AGS",
    "country_id": 174,
    "country_code": "PH",
    "latitude": "15.04750000",
    "longitude": "120.51888889",
    "wikiDataId": null
  },
  {
    "id": 145617,
    "name": "Porais",
    "state_id": 1326,
    "state_code": "AGS",
    "country_id": 174,
    "country_code": "PH",
    "latitude": "15.75500000",
    "longitude": "121.04277778",
    "wikiDataId": null
  },
  {
    "id": 145618,
    "name": "Prado Siongco",
    "state_id": 1326,
    "state_code": "AGS",
    "country_id": 174,
    "country_code": "PH",
    "latitude": "14.87888889",
    "longitude": "120.51305556",
    "wikiDataId": null
  },
  {
    "id": 145619,
    "name": "Pulilan",
    "state_id": 1326,
    "state_code": "AGS",
    "country_id": 174,
    "country_code": "PH",
    "latitude": "14.90000000",
    "longitude": "120.85000000",
    "wikiDataId": null
  },
  {
    "id": 145620,
    "name": "Pulo",
    "state_id": 1326,
    "state_code": "AGS",
    "country_id": 174,
    "country_code": "PH",
    "latitude": "14.96222222",
    "longitude": "121.01472222",
    "wikiDataId": null
  },
  {
    "id": 145621,
    "name": "Pulong Gubat",
    "state_id": 1326,
    "state_code": "AGS",
    "country_id": 174,
    "country_code": "PH",
    "latitude": "14.85944444",
    "longitude": "120.90611111",
    "wikiDataId": null
  },
  {
    "id": 145622,
    "name": "Pulong Sampalok",
    "state_id": 1326,
    "state_code": "AGS",
    "country_id": 174,
    "country_code": "PH",
    "latitude": "14.96111111",
    "longitude": "121.06083333",
    "wikiDataId": null
  },
  {
    "id": 145623,
    "name": "Pulung Santol",
    "state_id": 1326,
    "state_code": "AGS",
    "country_id": 174,
    "country_code": "PH",
    "latitude": "15.04583333",
    "longitude": "120.56194444",
    "wikiDataId": null
  },
  {
    "id": 145624,
    "name": "Pulungmasle",
    "state_id": 1326,
    "state_code": "AGS",
    "country_id": 174,
    "country_code": "PH",
    "latitude": "15.00027778",
    "longitude": "120.55777778",
    "wikiDataId": null
  },
  {
    "id": 145625,
    "name": "Puncan",
    "state_id": 1326,
    "state_code": "AGS",
    "country_id": 174,
    "country_code": "PH",
    "latitude": "15.90722222",
    "longitude": "120.99083333",
    "wikiDataId": null
  },
  {
    "id": 145627,
    "name": "Purac",
    "state_id": 1326,
    "state_code": "AGS",
    "country_id": 174,
    "country_code": "PH",
    "latitude": "15.25194444",
    "longitude": "120.01694444",
    "wikiDataId": null
  },
  {
    "id": 145628,
    "name": "Putlod",
    "state_id": 1326,
    "state_code": "AGS",
    "country_id": 174,
    "country_code": "PH",
    "latitude": "15.37055556",
    "longitude": "120.86750000",
    "wikiDataId": null
  },
  {
    "id": 145630,
    "name": "Rajal Norte",
    "state_id": 1326,
    "state_code": "AGS",
    "country_id": 174,
    "country_code": "PH",
    "latitude": "15.44472222",
    "longitude": "120.86250000",
    "wikiDataId": null
  },
  {
    "id": 145632,
    "name": "Rizal",
    "state_id": 1326,
    "state_code": "AGS",
    "country_id": 174,
    "country_code": "PH",
    "latitude": "15.68333333",
    "longitude": "121.16666667",
    "wikiDataId": null
  },
  {
    "id": 145633,
    "name": "Sabang",
    "state_id": 1326,
    "state_code": "AGS",
    "country_id": 174,
    "country_code": "PH",
    "latitude": "14.69500000",
    "longitude": "120.25083333",
    "wikiDataId": null
  },
  {
    "id": 145634,
    "name": "Sagana",
    "state_id": 1326,
    "state_code": "AGS",
    "country_id": 174,
    "country_code": "PH",
    "latitude": "15.56888889",
    "longitude": "121.15222222",
    "wikiDataId": null
  },
  {
    "id": 145635,
    "name": "Salapungan",
    "state_id": 1326,
    "state_code": "AGS",
    "country_id": 174,
    "country_code": "PH",
    "latitude": "15.13388889",
    "longitude": "120.92805556",
    "wikiDataId": null
  },
  {
    "id": 145636,
    "name": "Salaza",
    "state_id": 1326,
    "state_code": "AGS",
    "country_id": 174,
    "country_code": "PH",
    "latitude": "15.45416667",
    "longitude": "119.95527778",
    "wikiDataId": null
  },
  {
    "id": 145638,
    "name": "Salvacion I",
    "state_id": 1326,
    "state_code": "AGS",
    "country_id": 174,
    "country_code": "PH",
    "latitude": "15.83972222",
    "longitude": "120.91583333",
    "wikiDataId": null
  },
  {
    "id": 145641,
    "name": "San Agustin",
    "state_id": 1326,
    "state_code": "AGS",
    "country_id": 174,
    "country_code": "PH",
    "latitude": "14.93333333",
    "longitude": "120.15000000",
    "wikiDataId": null
  },
  {
    "id": 145643,
    "name": "San Alejandro",
    "state_id": 1326,
    "state_code": "AGS",
    "country_id": 174,
    "country_code": "PH",
    "latitude": "15.56111111",
    "longitude": "120.84888889",
    "wikiDataId": null
  },
  {
    "id": 145644,
    "name": "San Andres",
    "state_id": 1326,
    "state_code": "AGS",
    "country_id": 174,
    "country_code": "PH",
    "latitude": "15.71916667",
    "longitude": "120.77750000",
    "wikiDataId": null
  },
  {
    "id": 145645,
    "name": "San Anton",
    "state_id": 1326,
    "state_code": "AGS",
    "country_id": 174,
    "country_code": "PH",
    "latitude": "15.34777778",
    "longitude": "120.92000000",
    "wikiDataId": null
  },
  {
    "id": 145651,
    "name": "San Basilio",
    "state_id": 1326,
    "state_code": "AGS",
    "country_id": 174,
    "country_code": "PH",
    "latitude": "15.03333333",
    "longitude": "120.58416667",
    "wikiDataId": null
  },
  {
    "id": 145655,
    "name": "San Casimiro",
    "state_id": 1326,
    "state_code": "AGS",
    "country_id": 174,
    "country_code": "PH",
    "latitude": "15.55305556",
    "longitude": "120.78083333",
    "wikiDataId": null
  },
  {
    "id": 145657,
    "name": "San Cristobal",
    "state_id": 1326,
    "state_code": "AGS",
    "country_id": 174,
    "country_code": "PH",
    "latitude": "15.55388889",
    "longitude": "120.76694444",
    "wikiDataId": null
  },
  {
    "id": 145661,
    "name": "San Felipe Old",
    "state_id": 1326,
    "state_code": "AGS",
    "country_id": 174,
    "country_code": "PH",
    "latitude": "15.50138889",
    "longitude": "120.90777778",
    "wikiDataId": null
  },
  {
    "id": 145663,
    "name": "San Francisco",
    "state_id": 1326,
    "state_code": "AGS",
    "country_id": 174,
    "country_code": "PH",
    "latitude": "15.35555556",
    "longitude": "120.84000000",
    "wikiDataId": null
  },
  {
    "id": 145667,
    "name": "San Isidro",
    "state_id": 1326,
    "state_code": "AGS",
    "country_id": 174,
    "country_code": "PH",
    "latitude": "15.26666667",
    "longitude": "120.90000000",
    "wikiDataId": null
  },
  {
    "id": 145674,
    "name": "San Jose del Monte",
    "state_id": 1326,
    "state_code": "AGS",
    "country_id": 174,
    "country_code": "PH",
    "latitude": "14.81388889",
    "longitude": "121.04527778",
    "wikiDataId": null
  },
  {
    "id": 145677,
    "name": "San Juan de Mata",
    "state_id": 1326,
    "state_code": "AGS",
    "country_id": 174,
    "country_code": "PH",
    "latitude": "15.53527778",
    "longitude": "120.53027778",
    "wikiDataId": null
  },
  {
    "id": 145679,
    "name": "San Lorenzo",
    "state_id": 1326,
    "state_code": "AGS",
    "country_id": 174,
    "country_code": "PH",
    "latitude": "15.48611111",
    "longitude": "119.96222222",
    "wikiDataId": null
  },
  {
    "id": 145680,
    "name": "San Luis",
    "state_id": 1326,
    "state_code": "AGS",
    "country_id": 174,
    "country_code": "PH",
    "latitude": "15.04000000",
    "longitude": "120.79194444",
    "wikiDataId": null
  },
  {
    "id": 145685,
    "name": "San Mariano",
    "state_id": 1326,
    "state_code": "AGS",
    "country_id": 174,
    "country_code": "PH",
    "latitude": "15.32083333",
    "longitude": "120.87611111",
    "wikiDataId": null
  },
  {
    "id": 145690,
    "name": "San Nicolas",
    "state_id": 1326,
    "state_code": "AGS",
    "country_id": 174,
    "country_code": "PH",
    "latitude": "15.58416667",
    "longitude": "120.67638889",
    "wikiDataId": null
  },
  {
    "id": 145694,
    "name": "San Patricio",
    "state_id": 1326,
    "state_code": "AGS",
    "country_id": 174,
    "country_code": "PH",
    "latitude": "15.09777778",
    "longitude": "120.72888889",
    "wikiDataId": null
  },
  {
    "id": 145695,
    "name": "San Rafael",
    "state_id": 1326,
    "state_code": "AGS",
    "country_id": 174,
    "country_code": "PH",
    "latitude": "14.95000000",
    "longitude": "120.96666667",
    "wikiDataId": null
  },
  {
    "id": 145699,
    "name": "San Roque",
    "state_id": 1326,
    "state_code": "AGS",
    "country_id": 174,
    "country_code": "PH",
    "latitude": "15.00944444",
    "longitude": "120.93833333",
    "wikiDataId": null
  },
  {
    "id": 145701,
    "name": "San Roque Dau First",
    "state_id": 1326,
    "state_code": "AGS",
    "country_id": 174,
    "country_code": "PH",
    "latitude": "14.97722222",
    "longitude": "120.57694444",
    "wikiDataId": null
  },
  {
    "id": 145703,
    "name": "San Vicente",
    "state_id": 1326,
    "state_code": "AGS",
    "country_id": 174,
    "country_code": "PH",
    "latitude": "15.29222222",
    "longitude": "120.65500000",
    "wikiDataId": null
  },
  {
    "id": 145706,
    "name": "San Vincente",
    "state_id": 1326,
    "state_code": "AGS",
    "country_id": 174,
    "country_code": "PH",
    "latitude": "13.40666667",
    "longitude": "121.17500000",
    "wikiDataId": null
  },
  {
    "id": 145707,
    "name": "Santa Ana",
    "state_id": 1326,
    "state_code": "AGS",
    "country_id": 174,
    "country_code": "PH",
    "latitude": "15.09388889",
    "longitude": "120.76805556",
    "wikiDataId": null
  },
  {
    "id": 145709,
    "name": "Santa Cruz",
    "state_id": 1326,
    "state_code": "AGS",
    "country_id": 174,
    "country_code": "PH",
    "latitude": "15.76527778",
    "longitude": "119.90916667",
    "wikiDataId": null
  },
  {
    "id": 145712,
    "name": "Santa Fe",
    "state_id": 1326,
    "state_code": "AGS",
    "country_id": 174,
    "country_code": "PH",
    "latitude": "15.01027778",
    "longitude": "120.21027778",
    "wikiDataId": null
  },
  {
    "id": 145714,
    "name": "Santa Ines West",
    "state_id": 1326,
    "state_code": "AGS",
    "country_id": 174,
    "country_code": "PH",
    "latitude": "15.55694444",
    "longitude": "120.46444444",
    "wikiDataId": null
  },
  {
    "id": 145715,
    "name": "Santa Juliana",
    "state_id": 1326,
    "state_code": "AGS",
    "country_id": 174,
    "country_code": "PH",
    "latitude": "15.32833333",
    "longitude": "120.42861111",
    "wikiDataId": null
  },
  {
    "id": 145719,
    "name": "Santa Maria",
    "state_id": 1326,
    "state_code": "AGS",
    "country_id": 174,
    "country_code": "PH",
    "latitude": "14.81833333",
    "longitude": "120.95633333",
    "wikiDataId": null
  },
  {
    "id": 145723,
    "name": "Santa Monica",
    "state_id": 1326,
    "state_code": "AGS",
    "country_id": 174,
    "country_code": "PH",
    "latitude": "15.35777778",
    "longitude": "120.72000000",
    "wikiDataId": null
  },
  {
    "id": 145724,
    "name": "Santa Rita",
    "state_id": 1326,
    "state_code": "AGS",
    "country_id": 174,
    "country_code": "PH",
    "latitude": "14.99527800",
    "longitude": "120.61527800",
    "wikiDataId": null
  },
  {
    "id": 145728,
    "name": "Santa Teresa First",
    "state_id": 1326,
    "state_code": "AGS",
    "country_id": 174,
    "country_code": "PH",
    "latitude": "14.92638889",
    "longitude": "120.55777778",
    "wikiDataId": null
  },
  {
    "id": 145729,
    "name": "Santiago",
    "state_id": 1326,
    "state_code": "AGS",
    "country_id": 174,
    "country_code": "PH",
    "latitude": "14.90361111",
    "longitude": "120.51138889",
    "wikiDataId": null
  },
  {
    "id": 145730,
    "name": "Santo Cristo",
    "state_id": 1326,
    "state_code": "AGS",
    "country_id": 174,
    "country_code": "PH",
    "latitude": "15.29694444",
    "longitude": "120.89027778",
    "wikiDataId": null
  },
  {
    "id": 145736,
    "name": "Santo Niño",
    "state_id": 1326,
    "state_code": "AGS",
    "country_id": 174,
    "country_code": "PH",
    "latitude": "15.33444444",
    "longitude": "120.62611111",
    "wikiDataId": null
  },
  {
    "id": 145738,
    "name": "Santo Rosario",
    "state_id": 1326,
    "state_code": "AGS",
    "country_id": 174,
    "country_code": "PH",
    "latitude": "15.43416667",
    "longitude": "120.88972222",
    "wikiDataId": null
  },
  {
    "id": 145744,
    "name": "Sapang",
    "state_id": 1326,
    "state_code": "AGS",
    "country_id": 174,
    "country_code": "PH",
    "latitude": "15.70333333",
    "longitude": "120.52444444",
    "wikiDataId": null
  },
  {
    "id": 145745,
    "name": "Sapang Buho",
    "state_id": 1326,
    "state_code": "AGS",
    "country_id": 174,
    "country_code": "PH",
    "latitude": "15.59027778",
    "longitude": "121.12444444",
    "wikiDataId": null
  },
  {
    "id": 145746,
    "name": "Sapol",
    "state_id": 1326,
    "state_code": "AGS",
    "country_id": 174,
    "country_code": "PH",
    "latitude": "13.36500000",
    "longitude": "121.18916667",
    "wikiDataId": null
  },
  {
    "id": 145749,
    "name": "Saysain",
    "state_id": 1326,
    "state_code": "AGS",
    "country_id": 174,
    "country_code": "PH",
    "latitude": "14.56111111",
    "longitude": "120.39250000",
    "wikiDataId": null
  },
  {
    "id": 145750,
    "name": "Sibul",
    "state_id": 1326,
    "state_code": "AGS",
    "country_id": 174,
    "country_code": "PH",
    "latitude": "15.16888889",
    "longitude": "121.06166667",
    "wikiDataId": null
  },
  {
    "id": 145752,
    "name": "Siclong",
    "state_id": 1326,
    "state_code": "AGS",
    "country_id": 174,
    "country_code": "PH",
    "latitude": "15.58083333",
    "longitude": "121.22388889",
    "wikiDataId": null
  },
  {
    "id": 145754,
    "name": "Sinilian First",
    "state_id": 1326,
    "state_code": "AGS",
    "country_id": 174,
    "country_code": "PH",
    "latitude": "15.69333333",
    "longitude": "120.45944444",
    "wikiDataId": null
  },
  {
    "id": 145755,
    "name": "Soledad",
    "state_id": 1326,
    "state_code": "AGS",
    "country_id": 174,
    "country_code": "PH",
    "latitude": "15.42833333",
    "longitude": "120.98361111",
    "wikiDataId": null
  },
  {
    "id": 145757,
    "name": "Suklayin",
    "state_id": 1326,
    "state_code": "AGS",
    "country_id": 174,
    "country_code": "PH",
    "latitude": "15.75750000",
    "longitude": "121.55027778",
    "wikiDataId": null
  },
  {
    "id": 145758,
    "name": "Sula",
    "state_id": 1326,
    "state_code": "AGS",
    "country_id": 174,
    "country_code": "PH",
    "latitude": "15.45722222",
    "longitude": "120.39555556",
    "wikiDataId": null
  },
  {
    "id": 145759,
    "name": "Sulucan",
    "state_id": 1326,
    "state_code": "AGS",
    "country_id": 174,
    "country_code": "PH",
    "latitude": "14.79444444",
    "longitude": "120.92583333",
    "wikiDataId": null
  },
  {
    "id": 145760,
    "name": "Tabacao",
    "state_id": 1326,
    "state_code": "AGS",
    "country_id": 174,
    "country_code": "PH",
    "latitude": "15.64972222",
    "longitude": "120.94055556",
    "wikiDataId": null
  },
  {
    "id": 145761,
    "name": "Tabon",
    "state_id": 1326,
    "state_code": "AGS",
    "country_id": 174,
    "country_code": "PH",
    "latitude": "15.27111111",
    "longitude": "120.91277778",
    "wikiDataId": null
  },
  {
    "id": 145762,
    "name": "Tabuating",
    "state_id": 1326,
    "state_code": "AGS",
    "country_id": 174,
    "country_code": "PH",
    "latitude": "15.39222222",
    "longitude": "120.94083333",
    "wikiDataId": null
  },
  {
    "id": 145763,
    "name": "Tal I Mun Doc",
    "state_id": 1326,
    "state_code": "AGS",
    "country_id": 174,
    "country_code": "PH",
    "latitude": "15.21222222",
    "longitude": "120.68500000",
    "wikiDataId": null
  },
  {
    "id": 145764,
    "name": "Talaga",
    "state_id": 1326,
    "state_code": "AGS",
    "country_id": 174,
    "country_code": "PH",
    "latitude": "15.38388889",
    "longitude": "120.58944444",
    "wikiDataId": null
  },
  {
    "id": 145765,
    "name": "Talang",
    "state_id": 1326,
    "state_code": "AGS",
    "country_id": 174,
    "country_code": "PH",
    "latitude": "15.02500000",
    "longitude": "120.83777778",
    "wikiDataId": null
  },
  {
    "id": 145767,
    "name": "Taltal",
    "state_id": 1326,
    "state_code": "AGS",
    "country_id": 174,
    "country_code": "PH",
    "latitude": "15.58777778",
    "longitude": "119.94555556",
    "wikiDataId": null
  },
  {
    "id": 145769,
    "name": "Tariji",
    "state_id": 1326,
    "state_code": "AGS",
    "country_id": 174,
    "country_code": "PH",
    "latitude": "15.52111111",
    "longitude": "120.61444444",
    "wikiDataId": null
  },
  {
    "id": 145771,
    "name": "Tayabo",
    "state_id": 1326,
    "state_code": "AGS",
    "country_id": 174,
    "country_code": "PH",
    "latitude": "15.83444444",
    "longitude": "121.03083333",
    "wikiDataId": null
  },
  {
    "id": 145772,
    "name": "Telabastagan",
    "state_id": 1326,
    "state_code": "AGS",
    "country_id": 174,
    "country_code": "PH",
    "latitude": "15.11861111",
    "longitude": "120.60777778",
    "wikiDataId": null
  },
  {
    "id": 145773,
    "name": "Tikiw",
    "state_id": 1326,
    "state_code": "AGS",
    "country_id": 174,
    "country_code": "PH",
    "latitude": "15.31194444",
    "longitude": "120.86111111",
    "wikiDataId": null
  },
  {
    "id": 145774,
    "name": "Tinang",
    "state_id": 1326,
    "state_code": "AGS",
    "country_id": 174,
    "country_code": "PH",
    "latitude": "15.37638889",
    "longitude": "120.65333333",
    "wikiDataId": null
  },
  {
    "id": 145775,
    "name": "Tondod",
    "state_id": 1326,
    "state_code": "AGS",
    "country_id": 174,
    "country_code": "PH",
    "latitude": "15.71833333",
    "longitude": "120.96805556",
    "wikiDataId": null
  },
  {
    "id": 145776,
    "name": "Uacon",
    "state_id": 1326,
    "state_code": "AGS",
    "country_id": 174,
    "country_code": "PH",
    "latitude": "15.67861111",
    "longitude": "119.94027778",
    "wikiDataId": null
  },
  {
    "id": 145777,
    "name": "Umiray",
    "state_id": 1326,
    "state_code": "AGS",
    "country_id": 174,
    "country_code": "PH",
    "latitude": "15.22055556",
    "longitude": "121.41111111",
    "wikiDataId": null
  },
  {
    "id": 145778,
    "name": "Upig",
    "state_id": 1326,
    "state_code": "AGS",
    "country_id": 174,
    "country_code": "PH",
    "latitude": "15.02555556",
    "longitude": "120.99194444",
    "wikiDataId": null
  },
  {
    "id": 145779,
    "name": "Vargas",
    "state_id": 1326,
    "state_code": "AGS",
    "country_id": 174,
    "country_code": "PH",
    "latitude": "15.59333333",
    "longitude": "120.48722222",
    "wikiDataId": null
  },
  {
    "id": 145781,
    "name": "Villa Aglipay",
    "state_id": 1326,
    "state_code": "AGS",
    "country_id": 174,
    "country_code": "PH",
    "latitude": "15.46611111",
    "longitude": "120.45277778",
    "wikiDataId": null
  },
  {
    "id": 145782,
    "name": "Villa Isla",
    "state_id": 1326,
    "state_code": "AGS",
    "country_id": 174,
    "country_code": "PH",
    "latitude": "15.77027778",
    "longitude": "120.86666667",
    "wikiDataId": null
  },
  {
    "id": 145783,
    "name": "Vizal San Pablo",
    "state_id": 1326,
    "state_code": "AGS",
    "country_id": 174,
    "country_code": "PH",
    "latitude": "15.06250000",
    "longitude": "120.90027778",
    "wikiDataId": null
  },
  {
    "id": 145784,
    "name": "Vizal Santo Niño",
    "state_id": 1326,
    "state_code": "AGS",
    "country_id": 174,
    "country_code": "PH",
    "latitude": "15.02916667",
    "longitude": "120.90500000",
    "wikiDataId": null
  }
]