[
  {
    "id": 135230,
    "name": "Ísafjarðarbær",
    "state_id": 3432,
    "state_code": "4",
    "country_id": 100,
    "country_code": "IS",
    "latitude": "66.07586000",
    "longitude": "-23.12794000",
    "wikiDataId": null
  },
  {
    "id": 135231,
    "name": "Ísafjörður",
    "state_id": 3432,
    "state_code": "4",
    "country_id": 100,
    "country_code": "IS",
    "latitude": "66.07475000",
    "longitude": "-23.13498000",
    "wikiDataId": null
  },
  {
    "id": 135204,
    "name": "Reykhólahreppur",
    "state_id": 3432,
    "state_code": "4",
    "country_id": 100,
    "country_code": "IS",
    "latitude": "65.60990000",
    "longitude": "-22.33324000",
    "wikiDataId": null
  },
  {
    "id": 135219,
    "name": "Strandabyggð",
    "state_id": 3432,
    "state_code": "4",
    "country_id": 100,
    "country_code": "IS",
    "latitude": "65.77455000",
    "longitude": "-21.95725000",
    "wikiDataId": null
  },
  {
    "id": 135224,
    "name": "Tálknafjarðarhreppur",
    "state_id": 3432,
    "state_code": "4",
    "country_id": 100,
    "country_code": "IS",
    "latitude": "65.61667000",
    "longitude": "-23.88333000",
    "wikiDataId": null
  }
]