[
  {
    "id": 109311,
    "name": "Alchevs’k",
    "state_id": 4673,
    "state_code": "09",
    "country_id": 230,
    "country_code": "UA",
    "latitude": "48.46893000",
    "longitude": "38.81669000",
    "wikiDataId": null
  },
  {
    "id": 109312,
    "name": "Alchevs’ka Mis’krada",
    "state_id": 4673,
    "state_code": "09",
    "country_id": 230,
    "country_code": "UA",
    "latitude": "48.48029000",
    "longitude": "38.79690000",
    "wikiDataId": null
  },
  {
    "id": 109323,
    "name": "Antratsyt",
    "state_id": 4673,
    "state_code": "09",
    "country_id": 230,
    "country_code": "UA",
    "latitude": "48.11503000",
    "longitude": "39.09128000",
    "wikiDataId": null
  },
  {
    "id": 109324,
    "name": "Antratsytivs’kyy Rayon",
    "state_id": 4673,
    "state_code": "09",
    "country_id": 230,
    "country_code": "UA",
    "latitude": "48.12450000",
    "longitude": "39.05683000",
    "wikiDataId": null
  },
  {
    "id": 109329,
    "name": "Artemivs’k",
    "state_id": 4673,
    "state_code": "09",
    "country_id": 230,
    "country_code": "UA",
    "latitude": "48.44061000",
    "longitude": "38.73200000",
    "wikiDataId": null
  },
  {
    "id": 109359,
    "name": "Bayrachky",
    "state_id": 4673,
    "state_code": "09",
    "country_id": 230,
    "country_code": "UA",
    "latitude": "48.39200000",
    "longitude": "38.60174000",
    "wikiDataId": null
  },
  {
    "id": 109395,
    "name": "Bile",
    "state_id": 4673,
    "state_code": "09",
    "country_id": 230,
    "country_code": "UA",
    "latitude": "48.49523000",
    "longitude": "39.05051000",
    "wikiDataId": null
  },
  {
    "id": 109400,
    "name": "Bilohorivka",
    "state_id": 4673,
    "state_code": "09",
    "country_id": 230,
    "country_code": "UA",
    "latitude": "48.92503000",
    "longitude": "38.24822000",
    "wikiDataId": null
  },
  {
    "id": 109401,
    "name": "Bilokurakyne",
    "state_id": 4673,
    "state_code": "09",
    "country_id": 230,
    "country_code": "UA",
    "latitude": "49.53410000",
    "longitude": "38.73067000",
    "wikiDataId": null
  },
  {
    "id": 109403,
    "name": "Bilovods'k",
    "state_id": 4673,
    "state_code": "09",
    "country_id": 230,
    "country_code": "UA",
    "latitude": "49.20846000",
    "longitude": "39.58975000",
    "wikiDataId": null
  },
  {
    "id": 109408,
    "name": "Biryukove",
    "state_id": 4673,
    "state_code": "09",
    "country_id": 230,
    "country_code": "UA",
    "latitude": "47.95631000",
    "longitude": "39.73843000",
    "wikiDataId": null
  },
  {
    "id": 109453,
    "name": "Bryanka",
    "state_id": 4673,
    "state_code": "09",
    "country_id": 230,
    "country_code": "UA",
    "latitude": "48.51100000",
    "longitude": "38.67222000",
    "wikiDataId": null
  },
  {
    "id": 109460,
    "name": "Buran",
    "state_id": 4673,
    "state_code": "09",
    "country_id": 230,
    "country_code": "UA",
    "latitude": "48.30003000",
    "longitude": "39.61526000",
    "wikiDataId": null
  },
  {
    "id": 109502,
    "name": "Chervonopartyzans’k",
    "state_id": 4673,
    "state_code": "09",
    "country_id": 230,
    "country_code": "UA",
    "latitude": "48.07613000",
    "longitude": "39.79618000",
    "wikiDataId": null
  },
  {
    "id": 109515,
    "name": "Chornukhyne",
    "state_id": 4673,
    "state_code": "09",
    "country_id": 230,
    "country_code": "UA",
    "latitude": "48.32339000",
    "longitude": "38.52272000",
    "wikiDataId": null
  },
  {
    "id": 109574,
    "name": "Dovzhanskyy Rayon",
    "state_id": 4673,
    "state_code": "09",
    "country_id": 230,
    "country_code": "UA",
    "latitude": "48.00000000",
    "longitude": "39.66667000",
    "wikiDataId": null
  },
  {
    "id": 109630,
    "name": "Hirs’ke",
    "state_id": 4673,
    "state_code": "09",
    "country_id": 230,
    "country_code": "UA",
    "latitude": "48.73468000",
    "longitude": "38.49541000",
    "wikiDataId": null
  },
  {
    "id": 109693,
    "name": "Kadiyivka",
    "state_id": 4673,
    "state_code": "09",
    "country_id": 230,
    "country_code": "UA",
    "latitude": "48.56818000",
    "longitude": "38.64352000",
    "wikiDataId": null
  },
  {
    "id": 109754,
    "name": "Kirovs’k",
    "state_id": 4673,
    "state_code": "09",
    "country_id": 230,
    "country_code": "UA",
    "latitude": "48.63751000",
    "longitude": "38.64280000",
    "wikiDataId": null
  },
  {
    "id": 109755,
    "name": "Kirovs’ka Mis’krada",
    "state_id": 4673,
    "state_code": "09",
    "country_id": 230,
    "country_code": "UA",
    "latitude": "48.63485000",
    "longitude": "38.64753000",
    "wikiDataId": null
  },
  {
    "id": 109760,
    "name": "Klenovyy",
    "state_id": 4673,
    "state_code": "09",
    "country_id": 230,
    "country_code": "UA",
    "latitude": "48.11934000",
    "longitude": "39.45880000",
    "wikiDataId": null
  },
  {
    "id": 109853,
    "name": "Krasnyy Kut",
    "state_id": 4673,
    "state_code": "09",
    "country_id": 230,
    "country_code": "UA",
    "latitude": "48.20138000",
    "longitude": "38.79765000",
    "wikiDataId": null
  },
  {
    "id": 109854,
    "name": "Krasnyy Luch",
    "state_id": 4673,
    "state_code": "09",
    "country_id": 230,
    "country_code": "UA",
    "latitude": "48.13954000",
    "longitude": "38.93715000",
    "wikiDataId": null
  },
  {
    "id": 109860,
    "name": "Kreminna",
    "state_id": 4673,
    "state_code": "09",
    "country_id": 230,
    "country_code": "UA",
    "latitude": "49.04950000",
    "longitude": "38.21792000",
    "wikiDataId": null
  },
  {
    "id": 109864,
    "name": "Kripens’kyy",
    "state_id": 4673,
    "state_code": "09",
    "country_id": 230,
    "country_code": "UA",
    "latitude": "48.07709000",
    "longitude": "39.05800000",
    "wikiDataId": null
  },
  {
    "id": 109911,
    "name": "Lenina",
    "state_id": 4673,
    "state_code": "09",
    "country_id": 230,
    "country_code": "UA",
    "latitude": "48.42944000",
    "longitude": "39.14556000",
    "wikiDataId": null
  },
  {
    "id": 109931,
    "name": "Lozno-Oleksandrivka",
    "state_id": 4673,
    "state_code": "09",
    "country_id": 230,
    "country_code": "UA",
    "latitude": "49.83910000",
    "longitude": "38.74098000",
    "wikiDataId": null
  },
  {
    "id": 109939,
    "name": "Luhans’ka Mis’krada",
    "state_id": 4673,
    "state_code": "09",
    "country_id": 230,
    "country_code": "UA",
    "latitude": "48.58083000",
    "longitude": "39.35478000",
    "wikiDataId": null
  },
  {
    "id": 109938,
    "name": "Luhansk",
    "state_id": 4673,
    "state_code": "09",
    "country_id": 230,
    "country_code": "UA",
    "latitude": "48.56705000",
    "longitude": "39.31706000",
    "wikiDataId": null
  },
  {
    "id": 109945,
    "name": "Lutuhyne",
    "state_id": 4673,
    "state_code": "09",
    "country_id": 230,
    "country_code": "UA",
    "latitude": "48.40507000",
    "longitude": "39.22675000",
    "wikiDataId": null
  },
  {
    "id": 109946,
    "name": "Lutuhyns’kyy Rayon",
    "state_id": 4673,
    "state_code": "09",
    "country_id": 230,
    "country_code": "UA",
    "latitude": "48.38509000",
    "longitude": "39.21209000",
    "wikiDataId": null
  },
  {
    "id": 109960,
    "name": "Lysychans’k",
    "state_id": 4673,
    "state_code": "09",
    "country_id": 230,
    "country_code": "UA",
    "latitude": "48.90485000",
    "longitude": "38.44207000",
    "wikiDataId": null
  },
  {
    "id": 109974,
    "name": "Makariv Yar",
    "state_id": 4673,
    "state_code": "09",
    "country_id": 230,
    "country_code": "UA",
    "latitude": "48.57768000",
    "longitude": "39.71944000",
    "wikiDataId": null
  },
  {
    "id": 110001,
    "name": "Markivka",
    "state_id": 4673,
    "state_code": "09",
    "country_id": 230,
    "country_code": "UA",
    "latitude": "49.52290000",
    "longitude": "39.57055000",
    "wikiDataId": null
  },
  {
    "id": 110030,
    "name": "Millerovo",
    "state_id": 4673,
    "state_code": "09",
    "country_id": 230,
    "country_code": "UA",
    "latitude": "48.16829000",
    "longitude": "39.16537000",
    "wikiDataId": null
  },
  {
    "id": 110031,
    "name": "Milove",
    "state_id": 4673,
    "state_code": "09",
    "country_id": 230,
    "country_code": "UA",
    "latitude": "49.37528000",
    "longitude": "40.13222000",
    "wikiDataId": null
  },
  {
    "id": 110038,
    "name": "Miusyns’k",
    "state_id": 4673,
    "state_code": "09",
    "country_id": 230,
    "country_code": "UA",
    "latitude": "48.07750000",
    "longitude": "38.90364000",
    "wikiDataId": null
  },
  {
    "id": 110049,
    "name": "Molodohvardiys’k",
    "state_id": 4673,
    "state_code": "09",
    "country_id": 230,
    "country_code": "UA",
    "latitude": "48.34511000",
    "longitude": "39.65244000",
    "wikiDataId": null
  },
  {
    "id": 110143,
    "name": "Novopskov",
    "state_id": 4673,
    "state_code": "09",
    "country_id": 230,
    "country_code": "UA",
    "latitude": "49.54640000",
    "longitude": "39.08987000",
    "wikiDataId": null
  },
  {
    "id": 110166,
    "name": "Nyzhnya Duvanka",
    "state_id": 4673,
    "state_code": "09",
    "country_id": 230,
    "country_code": "UA",
    "latitude": "49.58464000",
    "longitude": "38.17429000",
    "wikiDataId": null
  },
  {
    "id": 110231,
    "name": "Pavlivka",
    "state_id": 4673,
    "state_code": "09",
    "country_id": 230,
    "country_code": "UA",
    "latitude": "49.60864000",
    "longitude": "38.70917000",
    "wikiDataId": null
  },
  {
    "id": 110244,
    "name": "Pereval’s’k",
    "state_id": 4673,
    "state_code": "09",
    "country_id": 230,
    "country_code": "UA",
    "latitude": "48.43779000",
    "longitude": "38.84384000",
    "wikiDataId": null
  },
  {
    "id": 110250,
    "name": "Pervomays’k",
    "state_id": 4673,
    "state_code": "09",
    "country_id": 230,
    "country_code": "UA",
    "latitude": "48.62988000",
    "longitude": "38.54806000",
    "wikiDataId": null
  },
  {
    "id": 110300,
    "name": "Popasna",
    "state_id": 4673,
    "state_code": "09",
    "country_id": 230,
    "country_code": "UA",
    "latitude": "48.63328000",
    "longitude": "38.37804000",
    "wikiDataId": null
  },
  {
    "id": 110324,
    "name": "Pryvillya",
    "state_id": 4673,
    "state_code": "09",
    "country_id": 230,
    "country_code": "UA",
    "latitude": "49.01501000",
    "longitude": "38.30457000",
    "wikiDataId": null
  },
  {
    "id": 110374,
    "name": "Roven’ky",
    "state_id": 4673,
    "state_code": "09",
    "country_id": 230,
    "country_code": "UA",
    "latitude": "48.08331000",
    "longitude": "39.37764000",
    "wikiDataId": null
  },
  {
    "id": 110384,
    "name": "Rozkishne",
    "state_id": 4673,
    "state_code": "09",
    "country_id": 230,
    "country_code": "UA",
    "latitude": "48.48959000",
    "longitude": "39.27881000",
    "wikiDataId": null
  },
  {
    "id": 110387,
    "name": "Rubizhans’ka Mis’krada",
    "state_id": 4673,
    "state_code": "09",
    "country_id": 230,
    "country_code": "UA",
    "latitude": "49.01460000",
    "longitude": "38.38909000",
    "wikiDataId": null
  },
  {
    "id": 110388,
    "name": "Rubizhne",
    "state_id": 4673,
    "state_code": "09",
    "country_id": 230,
    "country_code": "UA",
    "latitude": "49.01229000",
    "longitude": "38.37967000",
    "wikiDataId": null
  },
  {
    "id": 110433,
    "name": "Shchastya",
    "state_id": 4673,
    "state_code": "09",
    "country_id": 230,
    "country_code": "UA",
    "latitude": "48.73963000",
    "longitude": "39.23230000",
    "wikiDataId": null
  },
  {
    "id": 110460,
    "name": "Simeykyne",
    "state_id": 4673,
    "state_code": "09",
    "country_id": 230,
    "country_code": "UA",
    "latitude": "48.32643000",
    "longitude": "39.53366000",
    "wikiDataId": null
  },
  {
    "id": 110485,
    "name": "Slov`yanoserbsk",
    "state_id": 4673,
    "state_code": "09",
    "country_id": 230,
    "country_code": "UA",
    "latitude": "48.69779000",
    "longitude": "38.98133000",
    "wikiDataId": null
  },
  {
    "id": 110514,
    "name": "Sorokyne",
    "state_id": 4673,
    "state_code": "09",
    "country_id": 230,
    "country_code": "UA",
    "latitude": "48.29235000",
    "longitude": "39.73921000",
    "wikiDataId": null
  },
  {
    "id": 110515,
    "name": "Sorokyns'kyi Rayon",
    "state_id": 4673,
    "state_code": "09",
    "country_id": 230,
    "country_code": "UA",
    "latitude": "48.33333000",
    "longitude": "39.75000000",
    "wikiDataId": null
  },
  {
    "id": 110526,
    "name": "Stanytsya Luhans’ka",
    "state_id": 4673,
    "state_code": "09",
    "country_id": 230,
    "country_code": "UA",
    "latitude": "48.65433000",
    "longitude": "39.47943000",
    "wikiDataId": null
  },
  {
    "id": 110532,
    "name": "Starobil’s’k",
    "state_id": 4673,
    "state_code": "09",
    "country_id": 230,
    "country_code": "UA",
    "latitude": "49.27832000",
    "longitude": "38.91069000",
    "wikiDataId": null
  },
  {
    "id": 110572,
    "name": "Svatove",
    "state_id": 4673,
    "state_code": "09",
    "country_id": 230,
    "country_code": "UA",
    "latitude": "49.41029000",
    "longitude": "38.15035000",
    "wikiDataId": null
  },
  {
    "id": 110573,
    "name": "Sverdlovs’k",
    "state_id": 4673,
    "state_code": "09",
    "country_id": 230,
    "country_code": "UA",
    "latitude": "48.08964000",
    "longitude": "39.65243000",
    "wikiDataId": null
  },
  {
    "id": 110574,
    "name": "Sverdlovs’ka Mis’krada",
    "state_id": 4673,
    "state_code": "09",
    "country_id": 230,
    "country_code": "UA",
    "latitude": "48.06850000",
    "longitude": "39.58057000",
    "wikiDataId": null
  },
  {
    "id": 110582,
    "name": "Syevyerodonets’k",
    "state_id": 4673,
    "state_code": "09",
    "country_id": 230,
    "country_code": "UA",
    "latitude": "48.94832000",
    "longitude": "38.49166000",
    "wikiDataId": null
  },
  {
    "id": 110597,
    "name": "Teple",
    "state_id": 4673,
    "state_code": "09",
    "country_id": 230,
    "country_code": "UA",
    "latitude": "48.31245000",
    "longitude": "39.56284000",
    "wikiDataId": null
  },
  {
    "id": 110618,
    "name": "Toshkivka",
    "state_id": 4673,
    "state_code": "09",
    "country_id": 230,
    "country_code": "UA",
    "latitude": "48.77914000",
    "longitude": "38.57903000",
    "wikiDataId": null
  },
  {
    "id": 110625,
    "name": "Tr’okhizbenka",
    "state_id": 4673,
    "state_code": "09",
    "country_id": 230,
    "country_code": "UA",
    "latitude": "48.75751000",
    "longitude": "38.96333000",
    "wikiDataId": null
  },
  {
    "id": 110657,
    "name": "Uralo-Kavkaz",
    "state_id": 4673,
    "state_code": "09",
    "country_id": 230,
    "country_code": "UA",
    "latitude": "48.32110000",
    "longitude": "39.80302000",
    "wikiDataId": null
  },
  {
    "id": 110661,
    "name": "Uspenka",
    "state_id": 4673,
    "state_code": "09",
    "country_id": 230,
    "country_code": "UA",
    "latitude": "48.39077000",
    "longitude": "39.16284000",
    "wikiDataId": null
  },
  {
    "id": 110812,
    "name": "Zalesnoye",
    "state_id": 4673,
    "state_code": "09",
    "country_id": 230,
    "country_code": "UA",
    "latitude": "48.03104000",
    "longitude": "38.80934000",
    "wikiDataId": null
  },
  {
    "id": 110866,
    "name": "Zoryns’k",
    "state_id": 4673,
    "state_code": "09",
    "country_id": 230,
    "country_code": "UA",
    "latitude": "48.41194000",
    "longitude": "38.62361000",
    "wikiDataId": null
  },
  {
    "id": 110871,
    "name": "Zymohiria",
    "state_id": 4673,
    "state_code": "09",
    "country_id": 230,
    "country_code": "UA",
    "latitude": "48.58528000",
    "longitude": "38.93750000",
    "wikiDataId": null
  }
]