[
  {
    "id": 56193,
    "name": "Banda Aceh",
    "state_id": 1822,
    "state_code": "AC",
    "country_id": 102,
    "country_code": "ID",
    "latitude": "5.54167000",
    "longitude": "95.33333000",
    "wikiDataId": null
  },
  {
    "id": 56223,
    "name": "Bireun",
    "state_id": 1822,
    "state_code": "AC",
    "country_id": 102,
    "country_code": "ID",
    "latitude": "5.20300000",
    "longitude": "96.70090000",
    "wikiDataId": null
  },
  {
    "id": 56307,
    "name": "Kabupaten Aceh Barat",
    "state_id": 1822,
    "state_code": "AC",
    "country_id": 102,
    "country_code": "ID",
    "latitude": "4.45000000",
    "longitude": "96.16667000",
    "wikiDataId": null
  },
  {
    "id": 56308,
    "name": "Kabupaten Aceh Barat Daya",
    "state_id": 1822,
    "state_code": "AC",
    "country_id": 102,
    "country_code": "ID",
    "latitude": "3.83333000",
    "longitude": "96.88333000",
    "wikiDataId": null
  },
  {
    "id": 56309,
    "name": "Kabupaten Aceh Besar",
    "state_id": 1822,
    "state_code": "AC",
    "country_id": 102,
    "country_code": "ID",
    "latitude": "5.38333000",
    "longitude": "95.51667000",
    "wikiDataId": null
  },
  {
    "id": 56310,
    "name": "Kabupaten Aceh Jaya",
    "state_id": 1822,
    "state_code": "AC",
    "country_id": 102,
    "country_code": "ID",
    "latitude": "4.86000000",
    "longitude": "95.64000000",
    "wikiDataId": null
  },
  {
    "id": 56311,
    "name": "Kabupaten Aceh Selatan",
    "state_id": 1822,
    "state_code": "AC",
    "country_id": 102,
    "country_code": "ID",
    "latitude": "3.16667000",
    "longitude": "97.41667000",
    "wikiDataId": null
  },
  {
    "id": 56312,
    "name": "Kabupaten Aceh Singkil",
    "state_id": 1822,
    "state_code": "AC",
    "country_id": 102,
    "country_code": "ID",
    "latitude": "2.41667000",
    "longitude": "97.91667000",
    "wikiDataId": null
  },
  {
    "id": 56313,
    "name": "Kabupaten Aceh Tamiang",
    "state_id": 1822,
    "state_code": "AC",
    "country_id": 102,
    "country_code": "ID",
    "latitude": "4.25000000",
    "longitude": "97.96667000",
    "wikiDataId": null
  },
  {
    "id": 56314,
    "name": "Kabupaten Aceh Tengah",
    "state_id": 1822,
    "state_code": "AC",
    "country_id": 102,
    "country_code": "ID",
    "latitude": "4.51000000",
    "longitude": "96.85500000",
    "wikiDataId": null
  },
  {
    "id": 56315,
    "name": "Kabupaten Aceh Tenggara",
    "state_id": 1822,
    "state_code": "AC",
    "country_id": 102,
    "country_code": "ID",
    "latitude": "3.36667000",
    "longitude": "97.70000000",
    "wikiDataId": null
  },
  {
    "id": 56316,
    "name": "Kabupaten Aceh Timur",
    "state_id": 1822,
    "state_code": "AC",
    "country_id": 102,
    "country_code": "ID",
    "latitude": "4.63333000",
    "longitude": "97.63333000",
    "wikiDataId": null
  },
  {
    "id": 56317,
    "name": "Kabupaten Aceh Utara",
    "state_id": 1822,
    "state_code": "AC",
    "country_id": 102,
    "country_code": "ID",
    "latitude": "4.97000000",
    "longitude": "97.14000000",
    "wikiDataId": null
  },
  {
    "id": 56353,
    "name": "Kabupaten Bener Meriah",
    "state_id": 1822,
    "state_code": "AC",
    "country_id": 102,
    "country_code": "ID",
    "latitude": "4.73015000",
    "longitude": "96.86156000",
    "wikiDataId": null
  },
  {
    "id": 56362,
    "name": "Kabupaten Bireuen",
    "state_id": 1822,
    "state_code": "AC",
    "country_id": 102,
    "country_code": "ID",
    "latitude": "5.08333000",
    "longitude": "96.58333000",
    "wikiDataId": null
  },
  {
    "id": 56408,
    "name": "Kabupaten Gayo Lues",
    "state_id": 1822,
    "state_code": "AC",
    "country_id": 102,
    "country_code": "ID",
    "latitude": "3.95000000",
    "longitude": "97.39000000",
    "wikiDataId": null
  },
  {
    "id": 56552,
    "name": "Kabupaten Nagan Raya",
    "state_id": 1822,
    "state_code": "AC",
    "country_id": 102,
    "country_code": "ID",
    "latitude": "4.16667000",
    "longitude": "96.51667000",
    "wikiDataId": null
  },
  {
    "id": 56593,
    "name": "Kabupaten Pidie",
    "state_id": 1822,
    "state_code": "AC",
    "country_id": 102,
    "country_code": "ID",
    "latitude": "5.08000000",
    "longitude": "96.11000000",
    "wikiDataId": null
  },
  {
    "id": 56634,
    "name": "Kabupaten Simeulue",
    "state_id": 1822,
    "state_code": "AC",
    "country_id": 102,
    "country_code": "ID",
    "latitude": "2.61667000",
    "longitude": "96.08333000",
    "wikiDataId": null
  },
  {
    "id": 56837,
    "name": "Langsa",
    "state_id": 1822,
    "state_code": "AC",
    "country_id": 102,
    "country_code": "ID",
    "latitude": "4.46830000",
    "longitude": "97.96830000",
    "wikiDataId": null
  },
  {
    "id": 56844,
    "name": "Lhokseumawe",
    "state_id": 1822,
    "state_code": "AC",
    "country_id": 102,
    "country_code": "ID",
    "latitude": "5.18010000",
    "longitude": "97.15070000",
    "wikiDataId": null
  },
  {
    "id": 56872,
    "name": "Meulaboh",
    "state_id": 1822,
    "state_code": "AC",
    "country_id": 102,
    "country_code": "ID",
    "latitude": "4.14402000",
    "longitude": "96.12664000",
    "wikiDataId": null
  },
  {
    "id": 56955,
    "name": "Reuleuet",
    "state_id": 1822,
    "state_code": "AC",
    "country_id": 102,
    "country_code": "ID",
    "latitude": "5.21667000",
    "longitude": "96.28333000",
    "wikiDataId": null
  },
  {
    "id": 56957,
    "name": "Sabang",
    "state_id": 1822,
    "state_code": "AC",
    "country_id": 102,
    "country_code": "ID",
    "latitude": "5.88969000",
    "longitude": "95.31644000",
    "wikiDataId": null
  },
  {
    "id": 56976,
    "name": "Sigli",
    "state_id": 1822,
    "state_code": "AC",
    "country_id": 102,
    "country_code": "ID",
    "latitude": "5.38480000",
    "longitude": "95.96090000",
    "wikiDataId": null
  },
  {
    "id": 56979,
    "name": "Sinabang",
    "state_id": 1822,
    "state_code": "AC",
    "country_id": 102,
    "country_code": "ID",
    "latitude": "2.48030000",
    "longitude": "96.38010000",
    "wikiDataId": null
  },
  {
    "id": 56982,
    "name": "Singkil",
    "state_id": 1822,
    "state_code": "AC",
    "country_id": 102,
    "country_code": "ID",
    "latitude": "2.28740000",
    "longitude": "97.78840000",
    "wikiDataId": null
  }
]