[
  {
    "id": 104707,
    "name": "Diawara",
    "state_id": 476,
    "state_code": "MT",
    "country_id": 195,
    "country_code": "SN",
    "latitude": "15.02196000",
    "longitude": "-12.54374000",
    "wikiDataId": null
  },
  {
    "id": 104720,
    "name": "Kanel",
    "state_id": 476,
    "state_code": "MT",
    "country_id": 195,
    "country_code": "SN",
    "latitude": "15.49160000",
    "longitude": "-13.17627000",
    "wikiDataId": null
  },
  {
    "id": 104732,
    "name": "Matam",
    "state_id": 476,
    "state_code": "MT",
    "country_id": 195,
    "country_code": "SN",
    "latitude": "15.65587000",
    "longitude": "-13.25544000",
    "wikiDataId": null
  },
  {
    "id": 104733,
    "name": "Matam Department",
    "state_id": 476,
    "state_code": "MT",
    "country_id": 195,
    "country_code": "SN",
    "latitude": "15.73191000",
    "longitude": "-13.63393000",
    "wikiDataId": null
  },
  {
    "id": 104745,
    "name": "Ouro Sogui",
    "state_id": 476,
    "state_code": "MT",
    "country_id": 195,
    "country_code": "SN",
    "latitude": "15.60588000",
    "longitude": "-13.32230000",
    "wikiDataId": null
  },
  {
    "id": 104753,
    "name": "Ranérou",
    "state_id": 476,
    "state_code": "MT",
    "country_id": 195,
    "country_code": "SN",
    "latitude": "15.30000000",
    "longitude": "-13.96667000",
    "wikiDataId": null
  },
  {
    "id": 104761,
    "name": "Sémé",
    "state_id": 476,
    "state_code": "MT",
    "country_id": 195,
    "country_code": "SN",
    "latitude": "15.19422000",
    "longitude": "-12.94482000",
    "wikiDataId": null
  },
  {
    "id": 104772,
    "name": "Waoundé",
    "state_id": 476,
    "state_code": "MT",
    "country_id": 195,
    "country_code": "SN",
    "latitude": "15.26367000",
    "longitude": "-12.86821000",
    "wikiDataId": null
  }
]