[
  {
    "id": 110970,
    "name": "Abbotsford",
    "state_id": 1441,
    "state_code": "WI",
    "country_id": 233,
    "country_code": "US",
    "latitude": "44.94636000",
    "longitude": "-90.31597000",
    "wikiDataId": null
  },
  {
    "id": 111015,
    "name": "Adams",
    "state_id": 1441,
    "state_code": "WI",
    "country_id": 233,
    "country_code": "US",
    "latitude": "43.95608000",
    "longitude": "-89.81818000",
    "wikiDataId": null
  },
  {
    "id": 111023,
    "name": "Adams County",
    "state_id": 1441,
    "state_code": "WI",
    "country_id": 233,
    "country_code": "US",
    "latitude": "43.96963000",
    "longitude": "-89.77064000",
    "wikiDataId": null
  },
  {
    "id": 111038,
    "name": "Addison",
    "state_id": 1441,
    "state_code": "WI",
    "country_id": 233,
    "country_code": "US",
    "latitude": "43.42278000",
    "longitude": "-88.37454000",
    "wikiDataId": null
  },
  {
    "id": 111109,
    "name": "Albany",
    "state_id": 1441,
    "state_code": "WI",
    "country_id": 233,
    "country_code": "US",
    "latitude": "42.70778000",
    "longitude": "-89.43706000",
    "wikiDataId": null
  },
  {
    "id": 111162,
    "name": "Algoma",
    "state_id": 1441,
    "state_code": "WI",
    "country_id": 233,
    "country_code": "US",
    "latitude": "44.60889000",
    "longitude": "-87.43259000",
    "wikiDataId": null
  },
  {
    "id": 111203,
    "name": "Allouez",
    "state_id": 1441,
    "state_code": "WI",
    "country_id": 233,
    "country_code": "US",
    "latitude": "44.47749000",
    "longitude": "-88.01621000",
    "wikiDataId": null
  },
  {
    "id": 111211,
    "name": "Alma",
    "state_id": 1441,
    "state_code": "WI",
    "country_id": 233,
    "country_code": "US",
    "latitude": "44.31997000",
    "longitude": "-91.91488000",
    "wikiDataId": null
  },
  {
    "id": 111241,
    "name": "Alto",
    "state_id": 1441,
    "state_code": "WI",
    "country_id": 233,
    "country_code": "US",
    "latitude": "43.67665000",
    "longitude": "-88.79511000",
    "wikiDataId": null
  },
  {
    "id": 111249,
    "name": "Altoona",
    "state_id": 1441,
    "state_code": "WI",
    "country_id": 233,
    "country_code": "US",
    "latitude": "44.80468000",
    "longitude": "-91.44321000",
    "wikiDataId": null
  },
  {
    "id": 111275,
    "name": "Amery",
    "state_id": 1441,
    "state_code": "WI",
    "country_id": 233,
    "country_code": "US",
    "latitude": "45.30691000",
    "longitude": "-92.36214000",
    "wikiDataId": null
  },
  {
    "id": 111284,
    "name": "Amherst",
    "state_id": 1441,
    "state_code": "WI",
    "country_id": 233,
    "country_code": "US",
    "latitude": "44.45081000",
    "longitude": "-89.28484000",
    "wikiDataId": null
  },
  {
    "id": 111371,
    "name": "Antigo",
    "state_id": 1441,
    "state_code": "WI",
    "country_id": 233,
    "country_code": "US",
    "latitude": "45.14025000",
    "longitude": "-89.15234000",
    "wikiDataId": null
  },
  {
    "id": 111397,
    "name": "Appleton",
    "state_id": 1441,
    "state_code": "WI",
    "country_id": 233,
    "country_code": "US",
    "latitude": "44.26193000",
    "longitude": "-88.41538000",
    "wikiDataId": null
  },
  {
    "id": 111424,
    "name": "Arcadia",
    "state_id": 1441,
    "state_code": "WI",
    "country_id": 233,
    "country_code": "US",
    "latitude": "44.25274000",
    "longitude": "-91.50154000",
    "wikiDataId": null
  },
  {
    "id": 111525,
    "name": "Ashford",
    "state_id": 1441,
    "state_code": "WI",
    "country_id": 233,
    "country_code": "US",
    "latitude": "43.58694000",
    "longitude": "-88.37066000",
    "wikiDataId": null
  },
  {
    "id": 111539,
    "name": "Ashland",
    "state_id": 1441,
    "state_code": "WI",
    "country_id": 233,
    "country_code": "US",
    "latitude": "46.59244000",
    "longitude": "-90.88380000",
    "wikiDataId": null
  },
  {
    "id": 111542,
    "name": "Ashland County",
    "state_id": 1441,
    "state_code": "WI",
    "country_id": 233,
    "country_code": "US",
    "latitude": "46.50974000",
    "longitude": "-90.71960000",
    "wikiDataId": null
  },
  {
    "id": 111549,
    "name": "Ashwaubenon",
    "state_id": 1441,
    "state_code": "WI",
    "country_id": 233,
    "country_code": "US",
    "latitude": "44.48221000",
    "longitude": "-88.07010000",
    "wikiDataId": null
  },
  {
    "id": 111581,
    "name": "Athens",
    "state_id": 1441,
    "state_code": "WI",
    "country_id": 233,
    "country_code": "US",
    "latitude": "45.03302000",
    "longitude": "-90.07402000",
    "wikiDataId": null
  },
  {
    "id": 111651,
    "name": "Augusta",
    "state_id": 1441,
    "state_code": "WI",
    "country_id": 233,
    "country_code": "US",
    "latitude": "44.68024000",
    "longitude": "-91.11988000",
    "wikiDataId": null
  },
  {
    "id": 111711,
    "name": "Aztalan",
    "state_id": 1441,
    "state_code": "WI",
    "country_id": 233,
    "country_code": "US",
    "latitude": "43.07278000",
    "longitude": "-88.86233000",
    "wikiDataId": null
  },
  {
    "id": 111758,
    "name": "Baldwin",
    "state_id": 1441,
    "state_code": "WI",
    "country_id": 233,
    "country_code": "US",
    "latitude": "44.96663000",
    "longitude": "-92.37436000",
    "wikiDataId": null
  },
  {
    "id": 111780,
    "name": "Balsam Lake",
    "state_id": 1441,
    "state_code": "WI",
    "country_id": 233,
    "country_code": "US",
    "latitude": "45.45218000",
    "longitude": "-92.45464000",
    "wikiDataId": null
  },
  {
    "id": 111794,
    "name": "Bangor",
    "state_id": 1441,
    "state_code": "WI",
    "country_id": 233,
    "country_code": "US",
    "latitude": "43.89302000",
    "longitude": "-90.99041000",
    "wikiDataId": null
  },
  {
    "id": 111808,
    "name": "Baraboo",
    "state_id": 1441,
    "state_code": "WI",
    "country_id": 233,
    "country_code": "US",
    "latitude": "43.47109000",
    "longitude": "-89.74429000",
    "wikiDataId": null
  },
  {
    "id": 111831,
    "name": "Barneveld",
    "state_id": 1441,
    "state_code": "WI",
    "country_id": 233,
    "country_code": "US",
    "latitude": "43.01555000",
    "longitude": "-89.89540000",
    "wikiDataId": null
  },
  {
    "id": 111850,
    "name": "Barron",
    "state_id": 1441,
    "state_code": "WI",
    "country_id": 233,
    "country_code": "US",
    "latitude": "45.40135000",
    "longitude": "-91.84906000",
    "wikiDataId": null
  },
  {
    "id": 111851,
    "name": "Barron County",
    "state_id": 1441,
    "state_code": "WI",
    "country_id": 233,
    "country_code": "US",
    "latitude": "45.42372000",
    "longitude": "-91.84831000",
    "wikiDataId": null
  },
  {
    "id": 111865,
    "name": "Barton",
    "state_id": 1441,
    "state_code": "WI",
    "country_id": 233,
    "country_code": "US",
    "latitude": "43.44361000",
    "longitude": "-88.18065000",
    "wikiDataId": null
  },
  {
    "id": 111942,
    "name": "Bayfield County",
    "state_id": 1441,
    "state_code": "WI",
    "country_id": 233,
    "country_code": "US",
    "latitude": "46.63544000",
    "longitude": "-91.18068000",
    "wikiDataId": null
  },
  {
    "id": 111956,
    "name": "Bayside",
    "state_id": 1441,
    "state_code": "WI",
    "country_id": 233,
    "country_code": "US",
    "latitude": "43.18056000",
    "longitude": "-87.90064000",
    "wikiDataId": null
  },
  {
    "id": 112001,
    "name": "Beaver Dam",
    "state_id": 1441,
    "state_code": "WI",
    "country_id": 233,
    "country_code": "US",
    "latitude": "43.45777000",
    "longitude": "-88.83733000",
    "wikiDataId": null
  },
  {
    "id": 112060,
    "name": "Belgium",
    "state_id": 1441,
    "state_code": "WI",
    "country_id": 233,
    "country_code": "US",
    "latitude": "43.49972000",
    "longitude": "-87.85037000",
    "wikiDataId": null
  },
  {
    "id": 112091,
    "name": "Belle Plaine",
    "state_id": 1441,
    "state_code": "WI",
    "country_id": 233,
    "country_code": "US",
    "latitude": "44.71526000",
    "longitude": "-88.66621000",
    "wikiDataId": null
  },
  {
    "id": 112108,
    "name": "Belleville",
    "state_id": 1441,
    "state_code": "WI",
    "country_id": 233,
    "country_code": "US",
    "latitude": "42.85972000",
    "longitude": "-89.53818000",
    "wikiDataId": null
  },
  {
    "id": 112115,
    "name": "Bellevue",
    "state_id": 1441,
    "state_code": "WI",
    "country_id": 233,
    "country_code": "US",
    "latitude": "44.44416000",
    "longitude": "-87.92010000",
    "wikiDataId": null
  },
  {
    "id": 112146,
    "name": "Beloit",
    "state_id": 1441,
    "state_code": "WI",
    "country_id": 233,
    "country_code": "US",
    "latitude": "42.50835000",
    "longitude": "-89.03178000",
    "wikiDataId": null
  },
  {
    "id": 112239,
    "name": "Berlin",
    "state_id": 1441,
    "state_code": "WI",
    "country_id": 233,
    "country_code": "US",
    "latitude": "43.96804000",
    "longitude": "-88.94345000",
    "wikiDataId": null
  },
  {
    "id": 112298,
    "name": "Bevent",
    "state_id": 1441,
    "state_code": "WI",
    "country_id": 233,
    "country_code": "US",
    "latitude": "44.77053000",
    "longitude": "-89.38956000",
    "wikiDataId": null
  },
  {
    "id": 112318,
    "name": "Big Bend",
    "state_id": 1441,
    "state_code": "WI",
    "country_id": 233,
    "country_code": "US",
    "latitude": "42.88140000",
    "longitude": "-88.20676000",
    "wikiDataId": null
  },
  {
    "id": 112372,
    "name": "Black Creek",
    "state_id": 1441,
    "state_code": "WI",
    "country_id": 233,
    "country_code": "US",
    "latitude": "44.47749000",
    "longitude": "-88.45066000",
    "wikiDataId": null
  },
  {
    "id": 112375,
    "name": "Black Earth",
    "state_id": 1441,
    "state_code": "WI",
    "country_id": 233,
    "country_code": "US",
    "latitude": "43.13722000",
    "longitude": "-89.74679000",
    "wikiDataId": null
  },
  {
    "id": 112383,
    "name": "Black River Falls",
    "state_id": 1441,
    "state_code": "WI",
    "country_id": 233,
    "country_code": "US",
    "latitude": "44.29468000",
    "longitude": "-90.85153000",
    "wikiDataId": null
  },
  {
    "id": 112410,
    "name": "Blair",
    "state_id": 1441,
    "state_code": "WI",
    "country_id": 233,
    "country_code": "US",
    "latitude": "44.29440000",
    "longitude": "-91.23516000",
    "wikiDataId": null
  },
  {
    "id": 112432,
    "name": "Bloomer",
    "state_id": 1441,
    "state_code": "WI",
    "country_id": 233,
    "country_code": "US",
    "latitude": "45.10024000",
    "longitude": "-91.48877000",
    "wikiDataId": null
  },
  {
    "id": 112503,
    "name": "Bohners Lake",
    "state_id": 1441,
    "state_code": "WI",
    "country_id": 233,
    "country_code": "US",
    "latitude": "42.62307000",
    "longitude": "-88.28037000",
    "wikiDataId": null
  },
  {
    "id": 112533,
    "name": "Bonduel",
    "state_id": 1441,
    "state_code": "WI",
    "country_id": 233,
    "country_code": "US",
    "latitude": "44.74027000",
    "longitude": "-88.44482000",
    "wikiDataId": null
  },
  {
    "id": 112583,
    "name": "Boscobel",
    "state_id": 1441,
    "state_code": "WI",
    "country_id": 233,
    "country_code": "US",
    "latitude": "43.13443000",
    "longitude": "-90.70540000",
    "wikiDataId": null
  },
  {
    "id": 112640,
    "name": "Boyceville",
    "state_id": 1441,
    "state_code": "WI",
    "country_id": 233,
    "country_code": "US",
    "latitude": "45.04357000",
    "longitude": "-92.04101000",
    "wikiDataId": null
  },
  {
    "id": 112752,
    "name": "Brice Prairie",
    "state_id": 1441,
    "state_code": "WI",
    "country_id": 233,
    "country_code": "US",
    "latitude": "43.93857000",
    "longitude": "-91.29986000",
    "wikiDataId": null
  },
  {
    "id": 112796,
    "name": "Brillion",
    "state_id": 1441,
    "state_code": "WI",
    "country_id": 233,
    "country_code": "US",
    "latitude": "44.17721000",
    "longitude": "-88.06427000",
    "wikiDataId": null
  },
  {
    "id": 112811,
    "name": "Bristol",
    "state_id": 1441,
    "state_code": "WI",
    "country_id": 233,
    "country_code": "US",
    "latitude": "42.55891000",
    "longitude": "-88.04925000",
    "wikiDataId": null
  },
  {
    "id": 112838,
    "name": "Brodhead",
    "state_id": 1441,
    "state_code": "WI",
    "country_id": 233,
    "country_code": "US",
    "latitude": "42.61834000",
    "longitude": "-89.37623000",
    "wikiDataId": null
  },
  {
    "id": 112855,
    "name": "Brookfield",
    "state_id": 1441,
    "state_code": "WI",
    "country_id": 233,
    "country_code": "US",
    "latitude": "43.06057000",
    "longitude": "-88.10648000",
    "wikiDataId": null
  },
  {
    "id": 112873,
    "name": "Brooklyn",
    "state_id": 1441,
    "state_code": "WI",
    "country_id": 233,
    "country_code": "US",
    "latitude": "42.85361000",
    "longitude": "-89.37040000",
    "wikiDataId": null
  },
  {
    "id": 112902,
    "name": "Brothertown",
    "state_id": 1441,
    "state_code": "WI",
    "country_id": 233,
    "country_code": "US",
    "latitude": "43.96805000",
    "longitude": "-88.30899000",
    "wikiDataId": null
  },
  {
    "id": 112914,
    "name": "Brown County",
    "state_id": 1441,
    "state_code": "WI",
    "country_id": 233,
    "country_code": "US",
    "latitude": "44.47433000",
    "longitude": "-87.99287000",
    "wikiDataId": null
  },
  {
    "id": 112915,
    "name": "Brown Deer",
    "state_id": 1441,
    "state_code": "WI",
    "country_id": 233,
    "country_code": "US",
    "latitude": "43.16334000",
    "longitude": "-87.96453000",
    "wikiDataId": null
  },
  {
    "id": 112920,
    "name": "Browns Lake",
    "state_id": 1441,
    "state_code": "WI",
    "country_id": 233,
    "country_code": "US",
    "latitude": "42.69252000",
    "longitude": "-88.23120000",
    "wikiDataId": null
  },
  {
    "id": 112958,
    "name": "Brussels",
    "state_id": 1441,
    "state_code": "WI",
    "country_id": 233,
    "country_code": "US",
    "latitude": "44.73611000",
    "longitude": "-87.62093000",
    "wikiDataId": null
  },
  {
    "id": 113020,
    "name": "Buffalo County",
    "state_id": 1441,
    "state_code": "WI",
    "country_id": 233,
    "country_code": "US",
    "latitude": "44.37983000",
    "longitude": "-91.75447000",
    "wikiDataId": null
  },
  {
    "id": 113073,
    "name": "Burlington",
    "state_id": 1441,
    "state_code": "WI",
    "country_id": 233,
    "country_code": "US",
    "latitude": "42.67807000",
    "longitude": "-88.27620000",
    "wikiDataId": null
  },
  {
    "id": 113080,
    "name": "Burnett County",
    "state_id": 1441,
    "state_code": "WI",
    "country_id": 233,
    "country_code": "US",
    "latitude": "45.86272000",
    "longitude": "-92.36757000",
    "wikiDataId": null
  },
  {
    "id": 113112,
    "name": "Butler",
    "state_id": 1441,
    "state_code": "WI",
    "country_id": 233,
    "country_code": "US",
    "latitude": "43.10584000",
    "longitude": "-88.06953000",
    "wikiDataId": null
  },
  {
    "id": 113166,
    "name": "Cadott",
    "state_id": 1441,
    "state_code": "WI",
    "country_id": 233,
    "country_code": "US",
    "latitude": "44.94802000",
    "longitude": "-91.15070000",
    "wikiDataId": null
  },
  {
    "id": 113192,
    "name": "Caledonia",
    "state_id": 1441,
    "state_code": "WI",
    "country_id": 233,
    "country_code": "US",
    "latitude": "42.80780000",
    "longitude": "-87.92425000",
    "wikiDataId": null
  },
  {
    "id": 113231,
    "name": "Calumet County",
    "state_id": 1441,
    "state_code": "WI",
    "country_id": 233,
    "country_code": "US",
    "latitude": "44.08160000",
    "longitude": "-88.21806000",
    "wikiDataId": null
  },
  {
    "id": 113255,
    "name": "Cambridge",
    "state_id": 1441,
    "state_code": "WI",
    "country_id": 233,
    "country_code": "US",
    "latitude": "43.00361000",
    "longitude": "-89.01650000",
    "wikiDataId": null
  },
  {
    "id": 113276,
    "name": "Cameron",
    "state_id": 1441,
    "state_code": "WI",
    "country_id": 233,
    "country_code": "US",
    "latitude": "45.40857000",
    "longitude": "-91.74406000",
    "wikiDataId": null
  },
  {
    "id": 113288,
    "name": "Camp Lake",
    "state_id": 1441,
    "state_code": "WI",
    "country_id": 233,
    "country_code": "US",
    "latitude": "42.53474000",
    "longitude": "-88.14370000",
    "wikiDataId": null
  },
  {
    "id": 113304,
    "name": "Campbellsport",
    "state_id": 1441,
    "state_code": "WI",
    "country_id": 233,
    "country_code": "US",
    "latitude": "43.59777000",
    "longitude": "-88.27899000",
    "wikiDataId": null
  },
  {
    "id": 113523,
    "name": "Cashton",
    "state_id": 1441,
    "state_code": "WI",
    "country_id": 233,
    "country_code": "US",
    "latitude": "43.74191000",
    "longitude": "-90.77930000",
    "wikiDataId": null
  },
  {
    "id": 113574,
    "name": "Cato",
    "state_id": 1441,
    "state_code": "WI",
    "country_id": 233,
    "country_code": "US",
    "latitude": "44.14277000",
    "longitude": "-87.86120000",
    "wikiDataId": null
  },
  {
    "id": 113612,
    "name": "Cedar Grove",
    "state_id": 1441,
    "state_code": "WI",
    "country_id": 233,
    "country_code": "US",
    "latitude": "43.56972000",
    "longitude": "-87.82342000",
    "wikiDataId": null
  },
  {
    "id": 113624,
    "name": "Cedarburg",
    "state_id": 1441,
    "state_code": "WI",
    "country_id": 233,
    "country_code": "US",
    "latitude": "43.29667000",
    "longitude": "-87.98759000",
    "wikiDataId": null
  },
  {
    "id": 113915,
    "name": "Chetek",
    "state_id": 1441,
    "state_code": "WI",
    "country_id": 233,
    "country_code": "US",
    "latitude": "45.31413000",
    "longitude": "-91.65100000",
    "wikiDataId": null
  },
  {
    "id": 113956,
    "name": "Chilton",
    "state_id": 1441,
    "state_code": "WI",
    "country_id": 233,
    "country_code": "US",
    "latitude": "44.02888000",
    "longitude": "-88.16288000",
    "wikiDataId": null
  },
  {
    "id": 113975,
    "name": "Chippewa County",
    "state_id": 1441,
    "state_code": "WI",
    "country_id": 233,
    "country_code": "US",
    "latitude": "45.06940000",
    "longitude": "-91.27989000",
    "wikiDataId": null
  },
  {
    "id": 113976,
    "name": "Chippewa Falls",
    "state_id": 1441,
    "state_code": "WI",
    "country_id": 233,
    "country_code": "US",
    "latitude": "44.93691000",
    "longitude": "-91.39293000",
    "wikiDataId": null
  },
  {
    "id": 114128,
    "name": "Clark County",
    "state_id": 1441,
    "state_code": "WI",
    "country_id": 233,
    "country_code": "US",
    "latitude": "44.73471000",
    "longitude": "-90.61208000",
    "wikiDataId": null
  },
  {
    "id": 114211,
    "name": "Clear Lake",
    "state_id": 1441,
    "state_code": "WI",
    "country_id": 233,
    "country_code": "US",
    "latitude": "45.25191000",
    "longitude": "-92.27130000",
    "wikiDataId": null
  },
  {
    "id": 114247,
    "name": "Cleveland",
    "state_id": 1441,
    "state_code": "WI",
    "country_id": 233,
    "country_code": "US",
    "latitude": "43.91499000",
    "longitude": "-87.74731000",
    "wikiDataId": null
  },
  {
    "id": 114286,
    "name": "Clinton",
    "state_id": 1441,
    "state_code": "WI",
    "country_id": 233,
    "country_code": "US",
    "latitude": "42.55779000",
    "longitude": "-88.86511000",
    "wikiDataId": null
  },
  {
    "id": 114299,
    "name": "Clintonville",
    "state_id": 1441,
    "state_code": "WI",
    "country_id": 233,
    "country_code": "US",
    "latitude": "44.62053000",
    "longitude": "-88.76232000",
    "wikiDataId": null
  },
  {
    "id": 114380,
    "name": "Colby",
    "state_id": 1441,
    "state_code": "WI",
    "country_id": 233,
    "country_code": "US",
    "latitude": "44.90997000",
    "longitude": "-90.31569000",
    "wikiDataId": null
  },
  {
    "id": 114407,
    "name": "Colfax",
    "state_id": 1441,
    "state_code": "WI",
    "country_id": 233,
    "country_code": "US",
    "latitude": "44.99746000",
    "longitude": "-91.72712000",
    "wikiDataId": null
  },
  {
    "id": 114482,
    "name": "Columbia County",
    "state_id": 1441,
    "state_code": "WI",
    "country_id": 233,
    "country_code": "US",
    "latitude": "43.46660000",
    "longitude": "-89.33373000",
    "wikiDataId": null
  },
  {
    "id": 114497,
    "name": "Columbus",
    "state_id": 1441,
    "state_code": "WI",
    "country_id": 233,
    "country_code": "US",
    "latitude": "43.33805000",
    "longitude": "-89.01539000",
    "wikiDataId": null
  },
  {
    "id": 114518,
    "name": "Combined Locks",
    "state_id": 1441,
    "state_code": "WI",
    "country_id": 233,
    "country_code": "US",
    "latitude": "44.26582000",
    "longitude": "-88.31427000",
    "wikiDataId": null
  },
  {
    "id": 114528,
    "name": "Como",
    "state_id": 1441,
    "state_code": "WI",
    "country_id": 233,
    "country_code": "US",
    "latitude": "42.61224000",
    "longitude": "-88.48232000",
    "wikiDataId": null
  },
  {
    "id": 114542,
    "name": "Concord",
    "state_id": 1441,
    "state_code": "WI",
    "country_id": 233,
    "country_code": "US",
    "latitude": "43.06945000",
    "longitude": "-88.59871000",
    "wikiDataId": null
  },
  {
    "id": 114607,
    "name": "Cooperstown",
    "state_id": 1441,
    "state_code": "WI",
    "country_id": 233,
    "country_code": "US",
    "latitude": "44.31277000",
    "longitude": "-87.77453000",
    "wikiDataId": null
  },
  {
    "id": 114649,
    "name": "Cornell",
    "state_id": 1441,
    "state_code": "WI",
    "country_id": 233,
    "country_code": "US",
    "latitude": "45.16719000",
    "longitude": "-91.14931000",
    "wikiDataId": null
  },
  {
    "id": 114692,
    "name": "Cottage Grove",
    "state_id": 1441,
    "state_code": "WI",
    "country_id": 233,
    "country_code": "US",
    "latitude": "43.07611000",
    "longitude": "-89.19956000",
    "wikiDataId": null
  },
  {
    "id": 114766,
    "name": "Crandon",
    "state_id": 1441,
    "state_code": "WI",
    "country_id": 233,
    "country_code": "US",
    "latitude": "45.57191000",
    "longitude": "-88.90289000",
    "wikiDataId": null
  },
  {
    "id": 114783,
    "name": "Crawford County",
    "state_id": 1441,
    "state_code": "WI",
    "country_id": 233,
    "country_code": "US",
    "latitude": "43.23946000",
    "longitude": "-90.93105000",
    "wikiDataId": null
  },
  {
    "id": 114853,
    "name": "Cross Plains",
    "state_id": 1441,
    "state_code": "WI",
    "country_id": 233,
    "country_code": "US",
    "latitude": "43.11444000",
    "longitude": "-89.65568000",
    "wikiDataId": null
  },
  {
    "id": 114888,
    "name": "Cuba City",
    "state_id": 1441,
    "state_code": "WI",
    "country_id": 233,
    "country_code": "US",
    "latitude": "42.60555000",
    "longitude": "-90.42985000",
    "wikiDataId": null
  },
  {
    "id": 114889,
    "name": "Cudahy",
    "state_id": 1441,
    "state_code": "WI",
    "country_id": 233,
    "country_code": "US",
    "latitude": "42.95974000",
    "longitude": "-87.86147000",
    "wikiDataId": null
  },
  {
    "id": 114910,
    "name": "Cumberland",
    "state_id": 1441,
    "state_code": "WI",
    "country_id": 233,
    "country_code": "US",
    "latitude": "45.53218000",
    "longitude": "-92.01935000",
    "wikiDataId": null
  },
  {
    "id": 114973,
    "name": "Dakota",
    "state_id": 1441,
    "state_code": "WI",
    "country_id": 233,
    "country_code": "US",
    "latitude": "43.99025000",
    "longitude": "-89.35651000",
    "wikiDataId": null
  },
  {
    "id": 115019,
    "name": "Dane",
    "state_id": 1441,
    "state_code": "WI",
    "country_id": 233,
    "country_code": "US",
    "latitude": "43.25055000",
    "longitude": "-89.50151000",
    "wikiDataId": null
  },
  {
    "id": 115020,
    "name": "Dane County",
    "state_id": 1441,
    "state_code": "WI",
    "country_id": 233,
    "country_code": "US",
    "latitude": "43.06735000",
    "longitude": "-89.41832000",
    "wikiDataId": null
  },
  {
    "id": 115048,
    "name": "Darien",
    "state_id": 1441,
    "state_code": "WI",
    "country_id": 233,
    "country_code": "US",
    "latitude": "42.60168000",
    "longitude": "-88.70760000",
    "wikiDataId": null
  },
  {
    "id": 115050,
    "name": "Darlington",
    "state_id": 1441,
    "state_code": "WI",
    "country_id": 233,
    "country_code": "US",
    "latitude": "42.68306000",
    "longitude": "-90.11763000",
    "wikiDataId": null
  },
  {
    "id": 115105,
    "name": "De Forest",
    "state_id": 1441,
    "state_code": "WI",
    "country_id": 233,
    "country_code": "US",
    "latitude": "43.24777000",
    "longitude": "-89.34373000",
    "wikiDataId": null
  },
  {
    "id": 115112,
    "name": "De Pere",
    "state_id": 1441,
    "state_code": "WI",
    "country_id": 233,
    "country_code": "US",
    "latitude": "44.44888000",
    "longitude": "-88.06038000",
    "wikiDataId": null
  },
  {
    "id": 115158,
    "name": "Decatur",
    "state_id": 1441,
    "state_code": "WI",
    "country_id": 233,
    "country_code": "US",
    "latitude": "42.63433000",
    "longitude": "-89.41155000",
    "wikiDataId": null
  },
  {
    "id": 115183,
    "name": "Deerfield",
    "state_id": 1441,
    "state_code": "WI",
    "country_id": 233,
    "country_code": "US",
    "latitude": "43.05194000",
    "longitude": "-89.07567000",
    "wikiDataId": null
  },
  {
    "id": 115196,
    "name": "Delafield",
    "state_id": 1441,
    "state_code": "WI",
    "country_id": 233,
    "country_code": "US",
    "latitude": "43.06084000",
    "longitude": "-88.40371000",
    "wikiDataId": null
  },
  {
    "id": 115201,
    "name": "Delavan",
    "state_id": 1441,
    "state_code": "WI",
    "country_id": 233,
    "country_code": "US",
    "latitude": "42.63307000",
    "longitude": "-88.64371000",
    "wikiDataId": null
  },
  {
    "id": 115202,
    "name": "Delavan Lake",
    "state_id": 1441,
    "state_code": "WI",
    "country_id": 233,
    "country_code": "US",
    "latitude": "42.58418000",
    "longitude": "-88.63260000",
    "wikiDataId": null
  },
  {
    "id": 115241,
    "name": "Denmark",
    "state_id": 1441,
    "state_code": "WI",
    "country_id": 233,
    "country_code": "US",
    "latitude": "44.34777000",
    "longitude": "-87.82732000",
    "wikiDataId": null
  },
  {
    "id": 115324,
    "name": "Dickeyville",
    "state_id": 1441,
    "state_code": "WI",
    "country_id": 233,
    "country_code": "US",
    "latitude": "42.62722000",
    "longitude": "-90.59207000",
    "wikiDataId": null
  },
  {
    "id": 115380,
    "name": "Dodge County",
    "state_id": 1441,
    "state_code": "WI",
    "country_id": 233,
    "country_code": "US",
    "latitude": "43.41630000",
    "longitude": "-88.70752000",
    "wikiDataId": null
  },
  {
    "id": 115381,
    "name": "Dodgeville",
    "state_id": 1441,
    "state_code": "WI",
    "country_id": 233,
    "country_code": "US",
    "latitude": "42.96027000",
    "longitude": "-90.13012000",
    "wikiDataId": null
  },
  {
    "id": 115406,
    "name": "Door County",
    "state_id": 1441,
    "state_code": "WI",
    "country_id": 233,
    "country_code": "US",
    "latitude": "44.83834000",
    "longitude": "-87.35779000",
    "wikiDataId": null
  },
  {
    "id": 115432,
    "name": "Douglas County",
    "state_id": 1441,
    "state_code": "WI",
    "country_id": 233,
    "country_code": "US",
    "latitude": "46.46411000",
    "longitude": "-91.89940000",
    "wikiDataId": null
  },
  {
    "id": 115441,
    "name": "Dousman",
    "state_id": 1441,
    "state_code": "WI",
    "country_id": 233,
    "country_code": "US",
    "latitude": "43.01418000",
    "longitude": "-88.47260000",
    "wikiDataId": null
  },
  {
    "id": 115547,
    "name": "Dunn County",
    "state_id": 1441,
    "state_code": "WI",
    "country_id": 233,
    "country_code": "US",
    "latitude": "44.94659000",
    "longitude": "-91.89641000",
    "wikiDataId": null
  },
  {
    "id": 115564,
    "name": "Durand",
    "state_id": 1441,
    "state_code": "WI",
    "country_id": 233,
    "country_code": "US",
    "latitude": "44.62635000",
    "longitude": "-91.96573000",
    "wikiDataId": null
  },
  {
    "id": 115596,
    "name": "Eagle",
    "state_id": 1441,
    "state_code": "WI",
    "country_id": 233,
    "country_code": "US",
    "latitude": "42.87946000",
    "longitude": "-88.47427000",
    "wikiDataId": null
  },
  {
    "id": 115605,
    "name": "Eagle Lake",
    "state_id": 1441,
    "state_code": "WI",
    "country_id": 233,
    "country_code": "US",
    "latitude": "42.70696000",
    "longitude": "-88.12814000",
    "wikiDataId": null
  },
  {
    "id": 115611,
    "name": "Eagle River",
    "state_id": 1441,
    "state_code": "WI",
    "country_id": 233,
    "country_code": "US",
    "latitude": "45.91718000",
    "longitude": "-89.24430000",
    "wikiDataId": null
  },
  {
    "id": 115766,
    "name": "East Troy",
    "state_id": 1441,
    "state_code": "WI",
    "country_id": 233,
    "country_code": "US",
    "latitude": "42.78529000",
    "longitude": "-88.40510000",
    "wikiDataId": null
  },
  {
    "id": 115790,
    "name": "Easton",
    "state_id": 1441,
    "state_code": "WI",
    "country_id": 233,
    "country_code": "US",
    "latitude": "43.83803000",
    "longitude": "-89.80679000",
    "wikiDataId": null
  },
  {
    "id": 115810,
    "name": "Eau Claire",
    "state_id": 1441,
    "state_code": "WI",
    "country_id": 233,
    "country_code": "US",
    "latitude": "44.81135000",
    "longitude": "-91.49849000",
    "wikiDataId": null
  },
  {
    "id": 115811,
    "name": "Eau Claire County",
    "state_id": 1441,
    "state_code": "WI",
    "country_id": 233,
    "country_code": "US",
    "latitude": "44.72677000",
    "longitude": "-91.28600000",
    "wikiDataId": null
  },
  {
    "id": 115835,
    "name": "Edgar",
    "state_id": 1441,
    "state_code": "WI",
    "country_id": 233,
    "country_code": "US",
    "latitude": "44.92719000",
    "longitude": "-89.96346000",
    "wikiDataId": null
  },
  {
    "id": 115850,
    "name": "Edgerton",
    "state_id": 1441,
    "state_code": "WI",
    "country_id": 233,
    "country_code": "US",
    "latitude": "42.83528000",
    "longitude": "-89.06761000",
    "wikiDataId": null
  },
  {
    "id": 115953,
    "name": "Eldorado",
    "state_id": 1441,
    "state_code": "WI",
    "country_id": 233,
    "country_code": "US",
    "latitude": "43.82471000",
    "longitude": "-88.62178000",
    "wikiDataId": null
  },
  {
    "id": 116002,
    "name": "Elkhorn",
    "state_id": 1441,
    "state_code": "WI",
    "country_id": 233,
    "country_code": "US",
    "latitude": "42.67279000",
    "longitude": "-88.54454000",
    "wikiDataId": null
  },
  {
    "id": 116039,
    "name": "Ellsworth",
    "state_id": 1441,
    "state_code": "WI",
    "country_id": 233,
    "country_code": "US",
    "latitude": "44.73219000",
    "longitude": "-92.48741000",
    "wikiDataId": null
  },
  {
    "id": 116044,
    "name": "Elm Grove",
    "state_id": 1441,
    "state_code": "WI",
    "country_id": 233,
    "country_code": "US",
    "latitude": "43.04307000",
    "longitude": "-88.07898000",
    "wikiDataId": null
  },
  {
    "id": 116067,
    "name": "Elroy",
    "state_id": 1441,
    "state_code": "WI",
    "country_id": 233,
    "country_code": "US",
    "latitude": "43.74080000",
    "longitude": "-90.27235000",
    "wikiDataId": null
  },
  {
    "id": 116254,
    "name": "Evansville",
    "state_id": 1441,
    "state_code": "WI",
    "country_id": 233,
    "country_code": "US",
    "latitude": "42.78028000",
    "longitude": "-89.29928000",
    "wikiDataId": null
  },
  {
    "id": 116262,
    "name": "Evergreen",
    "state_id": 1441,
    "state_code": "WI",
    "country_id": 233,
    "country_code": "US",
    "latitude": "44.84247000",
    "longitude": "-89.63762000",
    "wikiDataId": null
  },
  {
    "id": 116372,
    "name": "Fall Creek",
    "state_id": 1441,
    "state_code": "WI",
    "country_id": 233,
    "country_code": "US",
    "latitude": "44.76357000",
    "longitude": "-91.27710000",
    "wikiDataId": null
  },
  {
    "id": 116374,
    "name": "Fall River",
    "state_id": 1441,
    "state_code": "WI",
    "country_id": 233,
    "country_code": "US",
    "latitude": "43.38443000",
    "longitude": "-89.04511000",
    "wikiDataId": null
  },
  {
    "id": 116472,
    "name": "Fennimore",
    "state_id": 1441,
    "state_code": "WI",
    "country_id": 233,
    "country_code": "US",
    "latitude": "42.98360000",
    "longitude": "-90.65540000",
    "wikiDataId": null
  },
  {
    "id": 116535,
    "name": "Fitchburg",
    "state_id": 1441,
    "state_code": "WI",
    "country_id": 233,
    "country_code": "US",
    "latitude": "42.96083000",
    "longitude": "-89.46984000",
    "wikiDataId": null
  },
  {
    "id": 116584,
    "name": "Florence",
    "state_id": 1441,
    "state_code": "WI",
    "country_id": 233,
    "country_code": "US",
    "latitude": "45.92218000",
    "longitude": "-88.25180000",
    "wikiDataId": null
  },
  {
    "id": 116588,
    "name": "Florence County",
    "state_id": 1441,
    "state_code": "WI",
    "country_id": 233,
    "country_code": "US",
    "latitude": "45.84845000",
    "longitude": "-88.39816000",
    "wikiDataId": null
  },
  {
    "id": 116627,
    "name": "Fond du Lac",
    "state_id": 1441,
    "state_code": "WI",
    "country_id": 233,
    "country_code": "US",
    "latitude": "43.77500000",
    "longitude": "-88.43883000",
    "wikiDataId": null
  },
  {
    "id": 116628,
    "name": "Fond du Lac County",
    "state_id": 1441,
    "state_code": "WI",
    "country_id": 233,
    "country_code": "US",
    "latitude": "43.75359000",
    "longitude": "-88.48826000",
    "wikiDataId": null
  },
  {
    "id": 116630,
    "name": "Fontana",
    "state_id": 1441,
    "state_code": "WI",
    "country_id": 233,
    "country_code": "US",
    "latitude": "42.55141000",
    "longitude": "-88.57510000",
    "wikiDataId": null
  },
  {
    "id": 116651,
    "name": "Forest County",
    "state_id": 1441,
    "state_code": "WI",
    "country_id": 233,
    "country_code": "US",
    "latitude": "45.66726000",
    "longitude": "-88.77038000",
    "wikiDataId": null
  },
  {
    "id": 116689,
    "name": "Fort Atkinson",
    "state_id": 1441,
    "state_code": "WI",
    "country_id": 233,
    "country_code": "US",
    "latitude": "42.92889000",
    "longitude": "-88.83705000",
    "wikiDataId": null
  },
  {
    "id": 116804,
    "name": "Fox Lake",
    "state_id": 1441,
    "state_code": "WI",
    "country_id": 233,
    "country_code": "US",
    "latitude": "43.56554000",
    "longitude": "-88.90650000",
    "wikiDataId": null
  },
  {
    "id": 116806,
    "name": "Fox Point",
    "state_id": 1441,
    "state_code": "WI",
    "country_id": 233,
    "country_code": "US",
    "latitude": "43.15751000",
    "longitude": "-87.90175000",
    "wikiDataId": null
  },
  {
    "id": 116841,
    "name": "Franklin",
    "state_id": 1441,
    "state_code": "WI",
    "country_id": 233,
    "country_code": "US",
    "latitude": "42.88863000",
    "longitude": "-88.03842000",
    "wikiDataId": null
  },
  {
    "id": 116878,
    "name": "Franksville",
    "state_id": 1441,
    "state_code": "WI",
    "country_id": 233,
    "country_code": "US",
    "latitude": "42.76002000",
    "longitude": "-87.91341000",
    "wikiDataId": null
  },
  {
    "id": 116884,
    "name": "Frederic",
    "state_id": 1441,
    "state_code": "WI",
    "country_id": 233,
    "country_code": "US",
    "latitude": "45.65912000",
    "longitude": "-92.46714000",
    "wikiDataId": null
  },
  {
    "id": 116897,
    "name": "Fredonia",
    "state_id": 1441,
    "state_code": "WI",
    "country_id": 233,
    "country_code": "US",
    "latitude": "43.47056000",
    "longitude": "-87.95065000",
    "wikiDataId": null
  },
  {
    "id": 116930,
    "name": "French Island",
    "state_id": 1441,
    "state_code": "WI",
    "country_id": 233,
    "country_code": "US",
    "latitude": "43.85830000",
    "longitude": "-91.26042000",
    "wikiDataId": null
  },
  {
    "id": 116950,
    "name": "Friendship",
    "state_id": 1441,
    "state_code": "WI",
    "country_id": 233,
    "country_code": "US",
    "latitude": "43.97053000",
    "longitude": "-89.81679000",
    "wikiDataId": null
  },
  {
    "id": 117029,
    "name": "Galesville",
    "state_id": 1441,
    "state_code": "WI",
    "country_id": 233,
    "country_code": "US",
    "latitude": "44.08163000",
    "longitude": "-91.34904000",
    "wikiDataId": null
  },
  {
    "id": 117148,
    "name": "Genoa City",
    "state_id": 1441,
    "state_code": "WI",
    "country_id": 233,
    "country_code": "US",
    "latitude": "42.49835000",
    "longitude": "-88.32815000",
    "wikiDataId": null
  },
  {
    "id": 117174,
    "name": "Germantown",
    "state_id": 1441,
    "state_code": "WI",
    "country_id": 233,
    "country_code": "US",
    "latitude": "43.22862000",
    "longitude": "-88.11037000",
    "wikiDataId": null
  },
  {
    "id": 117216,
    "name": "Gillett",
    "state_id": 1441,
    "state_code": "WI",
    "country_id": 233,
    "country_code": "US",
    "latitude": "44.88999000",
    "longitude": "-88.30732000",
    "wikiDataId": null
  },
  {
    "id": 117284,
    "name": "Glendale",
    "state_id": 1441,
    "state_code": "WI",
    "country_id": 233,
    "country_code": "US",
    "latitude": "43.13529000",
    "longitude": "-87.93564000",
    "wikiDataId": null
  },
  {
    "id": 117295,
    "name": "Glenmore",
    "state_id": 1441,
    "state_code": "WI",
    "country_id": 233,
    "country_code": "US",
    "latitude": "44.38583000",
    "longitude": "-87.92732000",
    "wikiDataId": null
  },
  {
    "id": 117316,
    "name": "Glenwood City",
    "state_id": 1441,
    "state_code": "WI",
    "country_id": 233,
    "country_code": "US",
    "latitude": "45.05857000",
    "longitude": "-92.17241000",
    "wikiDataId": null
  },
  {
    "id": 117432,
    "name": "Grafton",
    "state_id": 1441,
    "state_code": "WI",
    "country_id": 233,
    "country_code": "US",
    "latitude": "43.31973000",
    "longitude": "-87.95342000",
    "wikiDataId": null
  },
  {
    "id": 117515,
    "name": "Grant County",
    "state_id": 1441,
    "state_code": "WI",
    "country_id": 233,
    "country_code": "US",
    "latitude": "42.86749000",
    "longitude": "-90.70622000",
    "wikiDataId": null
  },
  {
    "id": 117529,
    "name": "Grantsburg",
    "state_id": 1441,
    "state_code": "WI",
    "country_id": 233,
    "country_code": "US",
    "latitude": "45.77634000",
    "longitude": "-92.68270000",
    "wikiDataId": null
  },
  {
    "id": 117591,
    "name": "Green Bay",
    "state_id": 1441,
    "state_code": "WI",
    "country_id": 233,
    "country_code": "US",
    "latitude": "44.51916000",
    "longitude": "-88.01983000",
    "wikiDataId": null
  },
  {
    "id": 117593,
    "name": "Green County",
    "state_id": 1441,
    "state_code": "WI",
    "country_id": 233,
    "country_code": "US",
    "latitude": "42.67999000",
    "longitude": "-89.60221000",
    "wikiDataId": null
  },
  {
    "id": 117601,
    "name": "Green Lake",
    "state_id": 1441,
    "state_code": "WI",
    "country_id": 233,
    "country_code": "US",
    "latitude": "43.84415000",
    "longitude": "-88.96011000",
    "wikiDataId": null
  },
  {
    "id": 117602,
    "name": "Green Lake County",
    "state_id": 1441,
    "state_code": "WI",
    "country_id": 233,
    "country_code": "US",
    "latitude": "43.80038000",
    "longitude": "-89.04486000",
    "wikiDataId": null
  },
  {
    "id": 117627,
    "name": "Greendale",
    "state_id": 1441,
    "state_code": "WI",
    "country_id": 233,
    "country_code": "US",
    "latitude": "42.94057000",
    "longitude": "-87.99592000",
    "wikiDataId": null
  },
  {
    "id": 117653,
    "name": "Greenfield",
    "state_id": 1441,
    "state_code": "WI",
    "country_id": 233,
    "country_code": "US",
    "latitude": "42.96140000",
    "longitude": "-88.01259000",
    "wikiDataId": null
  },
  {
    "id": 117708,
    "name": "Greenwood",
    "state_id": 1441,
    "state_code": "WI",
    "country_id": 233,
    "country_code": "US",
    "latitude": "44.77024000",
    "longitude": "-90.59931000",
    "wikiDataId": null
  },
  {
    "id": 117851,
    "name": "Hales Corners",
    "state_id": 1441,
    "state_code": "WI",
    "country_id": 233,
    "country_code": "US",
    "latitude": "42.93751000",
    "longitude": "-88.04870000",
    "wikiDataId": null
  },
  {
    "id": 117914,
    "name": "Hammond",
    "state_id": 1441,
    "state_code": "WI",
    "country_id": 233,
    "country_code": "US",
    "latitude": "44.97886000",
    "longitude": "-92.43575000",
    "wikiDataId": null
  },
  {
    "id": 118061,
    "name": "Harrison",
    "state_id": 1441,
    "state_code": "WI",
    "country_id": 233,
    "country_code": "US",
    "latitude": "44.22776000",
    "longitude": "-88.33591000",
    "wikiDataId": null
  },
  {
    "id": 118091,
    "name": "Hartford",
    "state_id": 1441,
    "state_code": "WI",
    "country_id": 233,
    "country_code": "US",
    "latitude": "43.31778000",
    "longitude": "-88.37899000",
    "wikiDataId": null
  },
  {
    "id": 118097,
    "name": "Hartland",
    "state_id": 1441,
    "state_code": "WI",
    "country_id": 233,
    "country_code": "US",
    "latitude": "43.10501000",
    "longitude": "-88.34204000",
    "wikiDataId": null
  },
  {
    "id": 118196,
    "name": "Hayward",
    "state_id": 1441,
    "state_code": "WI",
    "country_id": 233,
    "country_code": "US",
    "latitude": "46.01301000",
    "longitude": "-91.48462000",
    "wikiDataId": null
  },
  {
    "id": 118205,
    "name": "Hazel Green",
    "state_id": 1441,
    "state_code": "WI",
    "country_id": 233,
    "country_code": "US",
    "latitude": "42.53278000",
    "longitude": "-90.43457000",
    "wikiDataId": null
  },
  {
    "id": 118428,
    "name": "Hilbert",
    "state_id": 1441,
    "state_code": "WI",
    "country_id": 233,
    "country_code": "US",
    "latitude": "44.14027000",
    "longitude": "-88.16399000",
    "wikiDataId": null
  },
  {
    "id": 118451,
    "name": "Hillsboro",
    "state_id": 1441,
    "state_code": "WI",
    "country_id": 233,
    "country_code": "US",
    "latitude": "43.65220000",
    "longitude": "-90.34402000",
    "wikiDataId": null
  },
  {
    "id": 118499,
    "name": "Hobart",
    "state_id": 1441,
    "state_code": "WI",
    "country_id": 233,
    "country_code": "US",
    "latitude": "44.49925000",
    "longitude": "-88.14986000",
    "wikiDataId": null
  },
  {
    "id": 118569,
    "name": "Holmen",
    "state_id": 1441,
    "state_code": "WI",
    "country_id": 233,
    "country_code": "US",
    "latitude": "43.96330000",
    "longitude": "-91.25625000",
    "wikiDataId": null
  },
  {
    "id": 118663,
    "name": "Horicon",
    "state_id": 1441,
    "state_code": "WI",
    "country_id": 233,
    "country_code": "US",
    "latitude": "43.45138000",
    "longitude": "-88.63121000",
    "wikiDataId": null
  },
  {
    "id": 118679,
    "name": "Hortonville",
    "state_id": 1441,
    "state_code": "WI",
    "country_id": 233,
    "country_code": "US",
    "latitude": "44.33470000",
    "longitude": "-88.63816000",
    "wikiDataId": null
  },
  {
    "id": 118708,
    "name": "Howard",
    "state_id": 1441,
    "state_code": "WI",
    "country_id": 233,
    "country_code": "US",
    "latitude": "44.54360000",
    "longitude": "-88.08816000",
    "wikiDataId": null
  },
  {
    "id": 118720,
    "name": "Howards Grove",
    "state_id": 1441,
    "state_code": "WI",
    "country_id": 233,
    "country_code": "US",
    "latitude": "43.83388000",
    "longitude": "-87.82009000",
    "wikiDataId": null
  },
  {
    "id": 118746,
    "name": "Hudson",
    "state_id": 1441,
    "state_code": "WI",
    "country_id": 233,
    "country_code": "US",
    "latitude": "44.97469000",
    "longitude": "-92.75687000",
    "wikiDataId": null
  },
  {
    "id": 118821,
    "name": "Hurley",
    "state_id": 1441,
    "state_code": "WI",
    "country_id": 233,
    "country_code": "US",
    "latitude": "46.44967000",
    "longitude": "-90.18656000",
    "wikiDataId": null
  },
  {
    "id": 118833,
    "name": "Hustisford",
    "state_id": 1441,
    "state_code": "WI",
    "country_id": 233,
    "country_code": "US",
    "latitude": "43.34611000",
    "longitude": "-88.60066000",
    "wikiDataId": null
  },
  {
    "id": 118896,
    "name": "Independence",
    "state_id": 1441,
    "state_code": "WI",
    "country_id": 233,
    "country_code": "US",
    "latitude": "44.35691000",
    "longitude": "-91.42043000",
    "wikiDataId": null
  },
  {
    "id": 118967,
    "name": "Iola",
    "state_id": 1441,
    "state_code": "WI",
    "country_id": 233,
    "country_code": "US",
    "latitude": "44.50803000",
    "longitude": "-89.13067000",
    "wikiDataId": null
  },
  {
    "id": 118979,
    "name": "Iowa County",
    "state_id": 1441,
    "state_code": "WI",
    "country_id": 233,
    "country_code": "US",
    "latitude": "43.00048000",
    "longitude": "-90.13543000",
    "wikiDataId": null
  },
  {
    "id": 118990,
    "name": "Iron County",
    "state_id": 1441,
    "state_code": "WI",
    "country_id": 233,
    "country_code": "US",
    "latitude": "46.31706000",
    "longitude": "-90.26445000",
    "wikiDataId": null
  },
  {
    "id": 119053,
    "name": "Ixonia",
    "state_id": 1441,
    "state_code": "WI",
    "country_id": 233,
    "country_code": "US",
    "latitude": "43.14389000",
    "longitude": "-88.59732000",
    "wikiDataId": null
  },
  {
    "id": 119072,
    "name": "Jackson",
    "state_id": 1441,
    "state_code": "WI",
    "country_id": 233,
    "country_code": "US",
    "latitude": "43.32389000",
    "longitude": "-88.16676000",
    "wikiDataId": null
  },
  {
    "id": 119093,
    "name": "Jackson County",
    "state_id": 1441,
    "state_code": "WI",
    "country_id": 233,
    "country_code": "US",
    "latitude": "44.31913000",
    "longitude": "-90.80518000",
    "wikiDataId": null
  },
  {
    "id": 119131,
    "name": "Janesville",
    "state_id": 1441,
    "state_code": "WI",
    "country_id": 233,
    "country_code": "US",
    "latitude": "42.68279000",
    "longitude": "-89.01872000",
    "wikiDataId": null
  },
  {
    "id": 119171,
    "name": "Jefferson",
    "state_id": 1441,
    "state_code": "WI",
    "country_id": 233,
    "country_code": "US",
    "latitude": "43.00556000",
    "longitude": "-88.80733000",
    "wikiDataId": null
  },
  {
    "id": 119193,
    "name": "Jefferson County",
    "state_id": 1441,
    "state_code": "WI",
    "country_id": 233,
    "country_code": "US",
    "latitude": "43.02082000",
    "longitude": "-88.77587000",
    "wikiDataId": null
  },
  {
    "id": 119272,
    "name": "Johnson Creek",
    "state_id": 1441,
    "state_code": "WI",
    "country_id": 233,
    "country_code": "US",
    "latitude": "43.07611000",
    "longitude": "-88.77427000",
    "wikiDataId": null
  },
  {
    "id": 119337,
    "name": "Juneau",
    "state_id": 1441,
    "state_code": "WI",
    "country_id": 233,
    "country_code": "US",
    "latitude": "43.40555000",
    "longitude": "-88.70510000",
    "wikiDataId": null
  },
  {
    "id": 119339,
    "name": "Juneau County",
    "state_id": 1441,
    "state_code": "WI",
    "country_id": 233,
    "country_code": "US",
    "latitude": "43.92444000",
    "longitude": "-90.11402000",
    "wikiDataId": null
  },
  {
    "id": 119399,
    "name": "Kaukauna",
    "state_id": 1441,
    "state_code": "WI",
    "country_id": 233,
    "country_code": "US",
    "latitude": "44.27804000",
    "longitude": "-88.27205000",
    "wikiDataId": null
  },
  {
    "id": 119476,
    "name": "Kenosha",
    "state_id": 1441,
    "state_code": "WI",
    "country_id": 233,
    "country_code": "US",
    "latitude": "42.58474000",
    "longitude": "-87.82119000",
    "wikiDataId": null
  },
  {
    "id": 119477,
    "name": "Kenosha County",
    "state_id": 1441,
    "state_code": "WI",
    "country_id": 233,
    "country_code": "US",
    "latitude": "42.57280000",
    "longitude": "-87.83981000",
    "wikiDataId": null
  },
  {
    "id": 119522,
    "name": "Keshena",
    "state_id": 1441,
    "state_code": "WI",
    "country_id": 233,
    "country_code": "US",
    "latitude": "44.88387000",
    "longitude": "-88.63372000",
    "wikiDataId": null
  },
  {
    "id": 119533,
    "name": "Kewaskum",
    "state_id": 1441,
    "state_code": "WI",
    "country_id": 233,
    "country_code": "US",
    "latitude": "43.52083000",
    "longitude": "-88.22899000",
    "wikiDataId": null
  },
  {
    "id": 119534,
    "name": "Kewaunee",
    "state_id": 1441,
    "state_code": "WI",
    "country_id": 233,
    "country_code": "US",
    "latitude": "44.45833000",
    "longitude": "-87.50314000",
    "wikiDataId": null
  },
  {
    "id": 119535,
    "name": "Kewaunee County",
    "state_id": 1441,
    "state_code": "WI",
    "country_id": 233,
    "country_code": "US",
    "latitude": "44.48279000",
    "longitude": "-87.51434000",
    "wikiDataId": null
  },
  {
    "id": 119554,
    "name": "Kiel",
    "state_id": 1441,
    "state_code": "WI",
    "country_id": 233,
    "country_code": "US",
    "latitude": "43.91249000",
    "longitude": "-88.03565000",
    "wikiDataId": null
  },
  {
    "id": 119570,
    "name": "Kimberly",
    "state_id": 1441,
    "state_code": "WI",
    "country_id": 233,
    "country_code": "US",
    "latitude": "44.27221000",
    "longitude": "-88.33900000",
    "wikiDataId": null
  },
  {
    "id": 119577,
    "name": "King",
    "state_id": 1441,
    "state_code": "WI",
    "country_id": 233,
    "country_code": "US",
    "latitude": "44.33748000",
    "longitude": "-89.14178000",
    "wikiDataId": null
  },
  {
    "id": 119701,
    "name": "Kohler",
    "state_id": 1441,
    "state_code": "WI",
    "country_id": 233,
    "country_code": "US",
    "latitude": "43.73916000",
    "longitude": "-87.78175000",
    "wikiDataId": null
  },
  {
    "id": 119717,
    "name": "Kronenwetter",
    "state_id": 1441,
    "state_code": "WI",
    "country_id": 233,
    "country_code": "US",
    "latitude": "44.82219000",
    "longitude": "-89.59040000",
    "wikiDataId": null
  },
  {
    "id": 119744,
    "name": "La Crosse",
    "state_id": 1441,
    "state_code": "WI",
    "country_id": 233,
    "country_code": "US",
    "latitude": "43.80136000",
    "longitude": "-91.23958000",
    "wikiDataId": null
  },
  {
    "id": 119745,
    "name": "La Crosse County",
    "state_id": 1441,
    "state_code": "WI",
    "country_id": 233,
    "country_code": "US",
    "latitude": "43.90653000",
    "longitude": "-91.11522000",
    "wikiDataId": null
  },
  {
    "id": 119810,
    "name": "Lac du Flambeau",
    "state_id": 1441,
    "state_code": "WI",
    "country_id": 233,
    "country_code": "US",
    "latitude": "45.96967000",
    "longitude": "-89.89210000",
    "wikiDataId": null
  },
  {
    "id": 119830,
    "name": "Ladysmith",
    "state_id": 1441,
    "state_code": "WI",
    "country_id": 233,
    "country_code": "US",
    "latitude": "45.46302000",
    "longitude": "-91.10404000",
    "wikiDataId": null
  },
  {
    "id": 119842,
    "name": "Lafayette County",
    "state_id": 1441,
    "state_code": "WI",
    "country_id": 233,
    "country_code": "US",
    "latitude": "42.66050000",
    "longitude": "-90.13172000",
    "wikiDataId": null
  },
  {
    "id": 119903,
    "name": "Lake Delton",
    "state_id": 1441,
    "state_code": "WI",
    "country_id": 233,
    "country_code": "US",
    "latitude": "43.60109000",
    "longitude": "-89.79374000",
    "wikiDataId": null
  },
  {
    "id": 119913,
    "name": "Lake Geneva",
    "state_id": 1441,
    "state_code": "WI",
    "country_id": 233,
    "country_code": "US",
    "latitude": "42.59168000",
    "longitude": "-88.43343000",
    "wikiDataId": null
  },
  {
    "id": 119915,
    "name": "Lake Hallie",
    "state_id": 1441,
    "state_code": "WI",
    "country_id": 233,
    "country_code": "US",
    "latitude": "44.87579000",
    "longitude": "-91.44071000",
    "wikiDataId": null
  },
  {
    "id": 119928,
    "name": "Lake Koshkonong",
    "state_id": 1441,
    "state_code": "WI",
    "country_id": 233,
    "country_code": "US",
    "latitude": "42.90973000",
    "longitude": "-88.91955000",
    "wikiDataId": null
  },
  {
    "id": 119943,
    "name": "Lake Mills",
    "state_id": 1441,
    "state_code": "WI",
    "country_id": 233,
    "country_code": "US",
    "latitude": "43.08139000",
    "longitude": "-88.91177000",
    "wikiDataId": null
  },
  {
    "id": 119951,
    "name": "Lake Nebagamon",
    "state_id": 1441,
    "state_code": "WI",
    "country_id": 233,
    "country_code": "US",
    "latitude": "46.51494000",
    "longitude": "-91.69991000",
    "wikiDataId": null
  },
  {
    "id": 119969,
    "name": "Lake Ripley",
    "state_id": 1441,
    "state_code": "WI",
    "country_id": 233,
    "country_code": "US",
    "latitude": "43.00583000",
    "longitude": "-88.98622000",
    "wikiDataId": null
  },
  {
    "id": 119992,
    "name": "Lake Wazeecha",
    "state_id": 1441,
    "state_code": "WI",
    "country_id": 233,
    "country_code": "US",
    "latitude": "44.37108000",
    "longitude": "-89.75651000",
    "wikiDataId": null
  },
  {
    "id": 119995,
    "name": "Lake Wisconsin",
    "state_id": 1441,
    "state_code": "WI",
    "country_id": 233,
    "country_code": "US",
    "latitude": "43.37360000",
    "longitude": "-89.57568000",
    "wikiDataId": null
  },
  {
    "id": 119996,
    "name": "Lake Wissota",
    "state_id": 1441,
    "state_code": "WI",
    "country_id": 233,
    "country_code": "US",
    "latitude": "44.92635000",
    "longitude": "-91.30099000",
    "wikiDataId": null
  },
  {
    "id": 120065,
    "name": "Lamartine",
    "state_id": 1441,
    "state_code": "WI",
    "country_id": 233,
    "country_code": "US",
    "latitude": "43.73332000",
    "longitude": "-88.56872000",
    "wikiDataId": null
  },
  {
    "id": 120088,
    "name": "Lancaster",
    "state_id": 1441,
    "state_code": "WI",
    "country_id": 233,
    "country_code": "US",
    "latitude": "42.84749000",
    "longitude": "-90.71068000",
    "wikiDataId": null
  },
  {
    "id": 120112,
    "name": "Langlade County",
    "state_id": 1441,
    "state_code": "WI",
    "country_id": 233,
    "country_code": "US",
    "latitude": "45.26236000",
    "longitude": "-89.07191000",
    "wikiDataId": null
  },
  {
    "id": 120120,
    "name": "Lannon",
    "state_id": 1441,
    "state_code": "WI",
    "country_id": 233,
    "country_code": "US",
    "latitude": "43.14612000",
    "longitude": "-88.16620000",
    "wikiDataId": null
  },
  {
    "id": 120332,
    "name": "Legend Lake",
    "state_id": 1441,
    "state_code": "WI",
    "country_id": 233,
    "country_code": "US",
    "latitude": "44.89095000",
    "longitude": "-88.54406000",
    "wikiDataId": null
  },
  {
    "id": 120529,
    "name": "Lincoln County",
    "state_id": 1441,
    "state_code": "WI",
    "country_id": 233,
    "country_code": "US",
    "latitude": "45.33746000",
    "longitude": "-89.73461000",
    "wikiDataId": null
  },
  {
    "id": 120614,
    "name": "Little Chute",
    "state_id": 1441,
    "state_code": "WI",
    "country_id": 233,
    "country_code": "US",
    "latitude": "44.27999000",
    "longitude": "-88.31844000",
    "wikiDataId": null
  },
  {
    "id": 120629,
    "name": "Little Round Lake",
    "state_id": 1441,
    "state_code": "WI",
    "country_id": 233,
    "country_code": "US",
    "latitude": "45.96495000",
    "longitude": "-91.36795000",
    "wikiDataId": null
  },
  {
    "id": 120690,
    "name": "Lodi",
    "state_id": 1441,
    "state_code": "WI",
    "country_id": 233,
    "country_code": "US",
    "latitude": "43.31388000",
    "longitude": "-89.52651000",
    "wikiDataId": null
  },
  {
    "id": 120715,
    "name": "Lomira",
    "state_id": 1441,
    "state_code": "WI",
    "country_id": 233,
    "country_code": "US",
    "latitude": "43.59138000",
    "longitude": "-88.44371000",
    "wikiDataId": null
  },
  {
    "id": 120853,
    "name": "Loyal",
    "state_id": 1441,
    "state_code": "WI",
    "country_id": 233,
    "country_code": "US",
    "latitude": "44.73691000",
    "longitude": "-90.49597000",
    "wikiDataId": null
  },
  {
    "id": 120867,
    "name": "Luck",
    "state_id": 1441,
    "state_code": "WI",
    "country_id": 233,
    "country_code": "US",
    "latitude": "45.57607000",
    "longitude": "-92.48270000",
    "wikiDataId": null
  },
  {
    "id": 120901,
    "name": "Luxemburg",
    "state_id": 1441,
    "state_code": "WI",
    "country_id": 233,
    "country_code": "US",
    "latitude": "44.53861000",
    "longitude": "-87.70398000",
    "wikiDataId": null
  },
  {
    "id": 120999,
    "name": "Madison",
    "state_id": 1441,
    "state_code": "WI",
    "country_id": 233,
    "country_code": "US",
    "latitude": "43.07305000",
    "longitude": "-89.40123000",
    "wikiDataId": null
  },
  {
    "id": 121050,
    "name": "Maine",
    "state_id": 1441,
    "state_code": "WI",
    "country_id": 233,
    "country_code": "US",
    "latitude": "45.02716000",
    "longitude": "-89.69039000",
    "wikiDataId": null
  },
  {
    "id": 121086,
    "name": "Manawa",
    "state_id": 1441,
    "state_code": "WI",
    "country_id": 233,
    "country_code": "US",
    "latitude": "44.46443000",
    "longitude": "-88.91983000",
    "wikiDataId": null
  },
  {
    "id": 121101,
    "name": "Manchester",
    "state_id": 1441,
    "state_code": "WI",
    "country_id": 233,
    "country_code": "US",
    "latitude": "43.69054000",
    "longitude": "-89.04845000",
    "wikiDataId": null
  },
  {
    "id": 121127,
    "name": "Manitowoc",
    "state_id": 1441,
    "state_code": "WI",
    "country_id": 233,
    "country_code": "US",
    "latitude": "44.08861000",
    "longitude": "-87.65758000",
    "wikiDataId": null
  },
  {
    "id": 121128,
    "name": "Manitowoc County",
    "state_id": 1441,
    "state_code": "WI",
    "country_id": 233,
    "country_code": "US",
    "latitude": "44.09054000",
    "longitude": "-87.69974000",
    "wikiDataId": null
  },
  {
    "id": 121165,
    "name": "Maple Bluff",
    "state_id": 1441,
    "state_code": "WI",
    "country_id": 233,
    "country_code": "US",
    "latitude": "43.11833000",
    "longitude": "-89.37956000",
    "wikiDataId": null
  },
  {
    "id": 121185,
    "name": "Marathon",
    "state_id": 1441,
    "state_code": "WI",
    "country_id": 233,
    "country_code": "US",
    "latitude": "44.92913000",
    "longitude": "-89.84040000",
    "wikiDataId": null
  },
  {
    "id": 121186,
    "name": "Marathon County",
    "state_id": 1441,
    "state_code": "WI",
    "country_id": 233,
    "country_code": "US",
    "latitude": "44.89829000",
    "longitude": "-89.75906000",
    "wikiDataId": null
  },
  {
    "id": 121228,
    "name": "Marinette",
    "state_id": 1441,
    "state_code": "WI",
    "country_id": 233,
    "country_code": "US",
    "latitude": "45.09998000",
    "longitude": "-87.63066000",
    "wikiDataId": null
  },
  {
    "id": 121229,
    "name": "Marinette County",
    "state_id": 1441,
    "state_code": "WI",
    "country_id": 233,
    "country_code": "US",
    "latitude": "45.35090000",
    "longitude": "-88.00222000",
    "wikiDataId": null
  },
  {
    "id": 121245,
    "name": "Marion",
    "state_id": 1441,
    "state_code": "WI",
    "country_id": 233,
    "country_code": "US",
    "latitude": "44.67081000",
    "longitude": "-88.88927000",
    "wikiDataId": null
  },
  {
    "id": 121268,
    "name": "Markesan",
    "state_id": 1441,
    "state_code": "WI",
    "country_id": 233,
    "country_code": "US",
    "latitude": "43.70720000",
    "longitude": "-88.99011000",
    "wikiDataId": null
  },
  {
    "id": 121294,
    "name": "Marquette County",
    "state_id": 1441,
    "state_code": "WI",
    "country_id": 233,
    "country_code": "US",
    "latitude": "43.81958000",
    "longitude": "-89.39875000",
    "wikiDataId": null
  },
  {
    "id": 121309,
    "name": "Marshall",
    "state_id": 1441,
    "state_code": "WI",
    "country_id": 233,
    "country_code": "US",
    "latitude": "43.16833000",
    "longitude": "-89.06678000",
    "wikiDataId": null
  },
  {
    "id": 121327,
    "name": "Marshfield",
    "state_id": 1441,
    "state_code": "WI",
    "country_id": 233,
    "country_code": "US",
    "latitude": "44.66885000",
    "longitude": "-90.17180000",
    "wikiDataId": null
  },
  {
    "id": 121427,
    "name": "Mauston",
    "state_id": 1441,
    "state_code": "WI",
    "country_id": 233,
    "country_code": "US",
    "latitude": "43.79719000",
    "longitude": "-90.07735000",
    "wikiDataId": null
  },
  {
    "id": 121456,
    "name": "Mayville",
    "state_id": 1441,
    "state_code": "WI",
    "country_id": 233,
    "country_code": "US",
    "latitude": "43.49416000",
    "longitude": "-88.54482000",
    "wikiDataId": null
  },
  {
    "id": 121460,
    "name": "Mazomanie",
    "state_id": 1441,
    "state_code": "WI",
    "country_id": 233,
    "country_code": "US",
    "latitude": "43.17666000",
    "longitude": "-89.79485000",
    "wikiDataId": null
  },
  {
    "id": 121499,
    "name": "McFarland",
    "state_id": 1441,
    "state_code": "WI",
    "country_id": 233,
    "country_code": "US",
    "latitude": "43.01250000",
    "longitude": "-89.28984000",
    "wikiDataId": null
  },
  {
    "id": 121595,
    "name": "Medford",
    "state_id": 1441,
    "state_code": "WI",
    "country_id": 233,
    "country_code": "US",
    "latitude": "45.13858000",
    "longitude": "-90.34014000",
    "wikiDataId": null
  },
  {
    "id": 121649,
    "name": "Menasha",
    "state_id": 1441,
    "state_code": "WI",
    "country_id": 233,
    "country_code": "US",
    "latitude": "44.20221000",
    "longitude": "-88.44650000",
    "wikiDataId": null
  },
  {
    "id": 121664,
    "name": "Menominee County",
    "state_id": 1441,
    "state_code": "WI",
    "country_id": 233,
    "country_code": "US",
    "latitude": "45.00437000",
    "longitude": "-88.71001000",
    "wikiDataId": null
  },
  {
    "id": 121665,
    "name": "Menomonee Falls",
    "state_id": 1441,
    "state_code": "WI",
    "country_id": 233,
    "country_code": "US",
    "latitude": "43.17890000",
    "longitude": "-88.11731000",
    "wikiDataId": null
  },
  {
    "id": 121666,
    "name": "Menomonie",
    "state_id": 1441,
    "state_code": "WI",
    "country_id": 233,
    "country_code": "US",
    "latitude": "44.87552000",
    "longitude": "-91.91934000",
    "wikiDataId": null
  },
  {
    "id": 121669,
    "name": "Mequon",
    "state_id": 1441,
    "state_code": "WI",
    "country_id": 233,
    "country_code": "US",
    "latitude": "43.21555000",
    "longitude": "-88.03001000",
    "wikiDataId": null
  },
  {
    "id": 121707,
    "name": "Merrill",
    "state_id": 1441,
    "state_code": "WI",
    "country_id": 233,
    "country_code": "US",
    "latitude": "45.18052000",
    "longitude": "-89.68346000",
    "wikiDataId": null
  },
  {
    "id": 121718,
    "name": "Merton",
    "state_id": 1441,
    "state_code": "WI",
    "country_id": 233,
    "country_code": "US",
    "latitude": "43.14667000",
    "longitude": "-88.30676000",
    "wikiDataId": null
  },
  {
    "id": 121783,
    "name": "Middleton",
    "state_id": 1441,
    "state_code": "WI",
    "country_id": 233,
    "country_code": "US",
    "latitude": "43.09722000",
    "longitude": "-89.50429000",
    "wikiDataId": null
  },
  {
    "id": 121858,
    "name": "Milford",
    "state_id": 1441,
    "state_code": "WI",
    "country_id": 233,
    "country_code": "US",
    "latitude": "43.10083000",
    "longitude": "-88.84677000",
    "wikiDataId": null
  },
  {
    "id": 121918,
    "name": "Milton",
    "state_id": 1441,
    "state_code": "WI",
    "country_id": 233,
    "country_code": "US",
    "latitude": "42.77556000",
    "longitude": "-88.94400000",
    "wikiDataId": null
  },
  {
    "id": 121923,
    "name": "Milwaukee",
    "state_id": 1441,
    "state_code": "WI",
    "country_id": 233,
    "country_code": "US",
    "latitude": "43.03890000",
    "longitude": "-87.90647000",
    "wikiDataId": null
  },
  {
    "id": 121924,
    "name": "Milwaukee County",
    "state_id": 1441,
    "state_code": "WI",
    "country_id": 233,
    "country_code": "US",
    "latitude": "43.02172000",
    "longitude": "-87.92908000",
    "wikiDataId": null
  },
  {
    "id": 121938,
    "name": "Mineral Point",
    "state_id": 1441,
    "state_code": "WI",
    "country_id": 233,
    "country_code": "US",
    "latitude": "42.86000000",
    "longitude": "-90.17985000",
    "wikiDataId": null
  },
  {
    "id": 121977,
    "name": "Mishicot",
    "state_id": 1441,
    "state_code": "WI",
    "country_id": 233,
    "country_code": "US",
    "latitude": "44.23916000",
    "longitude": "-87.64119000",
    "wikiDataId": null
  },
  {
    "id": 122036,
    "name": "Mondovi",
    "state_id": 1441,
    "state_code": "WI",
    "country_id": 233,
    "country_code": "US",
    "latitude": "44.56774000",
    "longitude": "-91.67099000",
    "wikiDataId": null
  },
  {
    "id": 122052,
    "name": "Monona",
    "state_id": 1441,
    "state_code": "WI",
    "country_id": 233,
    "country_code": "US",
    "latitude": "43.06222000",
    "longitude": "-89.33401000",
    "wikiDataId": null
  },
  {
    "id": 122063,
    "name": "Monroe",
    "state_id": 1441,
    "state_code": "WI",
    "country_id": 233,
    "country_code": "US",
    "latitude": "42.60112000",
    "longitude": "-89.63845000",
    "wikiDataId": null
  },
  {
    "id": 122082,
    "name": "Monroe County",
    "state_id": 1441,
    "state_code": "WI",
    "country_id": 233,
    "country_code": "US",
    "latitude": "43.94575000",
    "longitude": "-90.61787000",
    "wikiDataId": null
  },
  {
    "id": 122117,
    "name": "Montello",
    "state_id": 1441,
    "state_code": "WI",
    "country_id": 233,
    "country_code": "US",
    "latitude": "43.79137000",
    "longitude": "-89.31984000",
    "wikiDataId": null
  },
  {
    "id": 122170,
    "name": "Monticello",
    "state_id": 1441,
    "state_code": "WI",
    "country_id": 233,
    "country_code": "US",
    "latitude": "42.74556000",
    "longitude": "-89.59484000",
    "wikiDataId": null
  },
  {
    "id": 122305,
    "name": "Mosinee",
    "state_id": 1441,
    "state_code": "WI",
    "country_id": 233,
    "country_code": "US",
    "latitude": "44.79302000",
    "longitude": "-89.70318000",
    "wikiDataId": null
  },
  {
    "id": 122354,
    "name": "Mount Horeb",
    "state_id": 1441,
    "state_code": "WI",
    "country_id": 233,
    "country_code": "US",
    "latitude": "43.00861000",
    "longitude": "-89.73846000",
    "wikiDataId": null
  },
  {
    "id": 122366,
    "name": "Mount Morris",
    "state_id": 1441,
    "state_code": "WI",
    "country_id": 233,
    "country_code": "US",
    "latitude": "44.11442000",
    "longitude": "-89.19067000",
    "wikiDataId": null
  },
  {
    "id": 122382,
    "name": "Mount Pleasant",
    "state_id": 1441,
    "state_code": "WI",
    "country_id": 233,
    "country_code": "US",
    "latitude": "42.69743000",
    "longitude": "-87.85577000",
    "wikiDataId": null
  },
  {
    "id": 122451,
    "name": "Mukwonago",
    "state_id": 1441,
    "state_code": "WI",
    "country_id": 233,
    "country_code": "US",
    "latitude": "42.86668000",
    "longitude": "-88.33343000",
    "wikiDataId": null
  },
  {
    "id": 122504,
    "name": "Muscoda",
    "state_id": 1441,
    "state_code": "WI",
    "country_id": 233,
    "country_code": "US",
    "latitude": "43.18499000",
    "longitude": "-90.44318000",
    "wikiDataId": null
  },
  {
    "id": 122508,
    "name": "Muskego",
    "state_id": 1441,
    "state_code": "WI",
    "country_id": 233,
    "country_code": "US",
    "latitude": "42.90585000",
    "longitude": "-88.13898000",
    "wikiDataId": null
  },
  {
    "id": 122569,
    "name": "Nashotah",
    "state_id": 1441,
    "state_code": "WI",
    "country_id": 233,
    "country_code": "US",
    "latitude": "43.09779000",
    "longitude": "-88.40232000",
    "wikiDataId": null
  },
  {
    "id": 122579,
    "name": "Nashville",
    "state_id": 1441,
    "state_code": "WI",
    "country_id": 233,
    "country_code": "US",
    "latitude": "45.52274000",
    "longitude": "-89.02484000",
    "wikiDataId": null
  },
  {
    "id": 122616,
    "name": "Neenah",
    "state_id": 1441,
    "state_code": "WI",
    "country_id": 233,
    "country_code": "US",
    "latitude": "44.18582000",
    "longitude": "-88.46261000",
    "wikiDataId": null
  },
  {
    "id": 122618,
    "name": "Neillsville",
    "state_id": 1441,
    "state_code": "WI",
    "country_id": 233,
    "country_code": "US",
    "latitude": "44.55996000",
    "longitude": "-90.59625000",
    "wikiDataId": null
  },
  {
    "id": 122619,
    "name": "Nekoosa",
    "state_id": 1441,
    "state_code": "WI",
    "country_id": 233,
    "country_code": "US",
    "latitude": "44.31246000",
    "longitude": "-89.90429000",
    "wikiDataId": null
  },
  {
    "id": 122664,
    "name": "New Berlin",
    "state_id": 1441,
    "state_code": "WI",
    "country_id": 233,
    "country_code": "US",
    "latitude": "42.97640000",
    "longitude": "-88.10842000",
    "wikiDataId": null
  },
  {
    "id": 122708,
    "name": "New Glarus",
    "state_id": 1441,
    "state_code": "WI",
    "country_id": 233,
    "country_code": "US",
    "latitude": "42.81445000",
    "longitude": "-89.63512000",
    "wikiDataId": null
  },
  {
    "id": 122722,
    "name": "New Holstein",
    "state_id": 1441,
    "state_code": "WI",
    "country_id": 233,
    "country_code": "US",
    "latitude": "43.94999000",
    "longitude": "-88.08426000",
    "wikiDataId": null
  },
  {
    "id": 122738,
    "name": "New Lisbon",
    "state_id": 1441,
    "state_code": "WI",
    "country_id": 233,
    "country_code": "US",
    "latitude": "43.87914000",
    "longitude": "-90.16541000",
    "wikiDataId": null
  },
  {
    "id": 122745,
    "name": "New London",
    "state_id": 1441,
    "state_code": "WI",
    "country_id": 233,
    "country_code": "US",
    "latitude": "44.39276000",
    "longitude": "-88.73983000",
    "wikiDataId": null
  },
  {
    "id": 122770,
    "name": "New Richmond",
    "state_id": 1441,
    "state_code": "WI",
    "country_id": 233,
    "country_code": "US",
    "latitude": "45.12302000",
    "longitude": "-92.53659000",
    "wikiDataId": null
  },
  {
    "id": 122815,
    "name": "Newburg",
    "state_id": 1441,
    "state_code": "WI",
    "country_id": 233,
    "country_code": "US",
    "latitude": "43.43167000",
    "longitude": "-88.04648000",
    "wikiDataId": null
  },
  {
    "id": 122880,
    "name": "Niagara",
    "state_id": 1441,
    "state_code": "WI",
    "country_id": 233,
    "country_code": "US",
    "latitude": "45.77135000",
    "longitude": "-87.99485000",
    "wikiDataId": null
  },
  {
    "id": 123026,
    "name": "North Fond du Lac",
    "state_id": 1441,
    "state_code": "WI",
    "country_id": 233,
    "country_code": "US",
    "latitude": "43.81138000",
    "longitude": "-88.48344000",
    "wikiDataId": null
  },
  {
    "id": 123043,
    "name": "North Hudson",
    "state_id": 1441,
    "state_code": "WI",
    "country_id": 233,
    "country_code": "US",
    "latitude": "44.99302000",
    "longitude": "-92.75687000",
    "wikiDataId": null
  },
  {
    "id": 123049,
    "name": "North La Crosse",
    "state_id": 1441,
    "state_code": "WI",
    "country_id": 233,
    "country_code": "US",
    "latitude": "43.84635000",
    "longitude": "-91.24819000",
    "wikiDataId": null
  },
  {
    "id": 123088,
    "name": "North Prairie",
    "state_id": 1441,
    "state_code": "WI",
    "country_id": 233,
    "country_code": "US",
    "latitude": "42.93446000",
    "longitude": "-88.40537000",
    "wikiDataId": null
  },
  {
    "id": 123232,
    "name": "Oak Creek",
    "state_id": 1441,
    "state_code": "WI",
    "country_id": 233,
    "country_code": "US",
    "latitude": "42.88585000",
    "longitude": "-87.86314000",
    "wikiDataId": null
  },
  {
    "id": 123277,
    "name": "Oakfield",
    "state_id": 1441,
    "state_code": "WI",
    "country_id": 233,
    "country_code": "US",
    "latitude": "43.68610000",
    "longitude": "-88.54650000",
    "wikiDataId": null
  },
  {
    "id": 123350,
    "name": "Oconomowoc",
    "state_id": 1441,
    "state_code": "WI",
    "country_id": 233,
    "country_code": "US",
    "latitude": "43.11167000",
    "longitude": "-88.49927000",
    "wikiDataId": null
  },
  {
    "id": 123351,
    "name": "Oconto",
    "state_id": 1441,
    "state_code": "WI",
    "country_id": 233,
    "country_code": "US",
    "latitude": "44.88721000",
    "longitude": "-87.86455000",
    "wikiDataId": null
  },
  {
    "id": 123352,
    "name": "Oconto County",
    "state_id": 1441,
    "state_code": "WI",
    "country_id": 233,
    "country_code": "US",
    "latitude": "44.99851000",
    "longitude": "-88.22056000",
    "wikiDataId": null
  },
  {
    "id": 123353,
    "name": "Oconto Falls",
    "state_id": 1441,
    "state_code": "WI",
    "country_id": 233,
    "country_code": "US",
    "latitude": "44.87388000",
    "longitude": "-88.14288000",
    "wikiDataId": null
  },
  {
    "id": 123396,
    "name": "Okauchee Lake",
    "state_id": 1441,
    "state_code": "WI",
    "country_id": 233,
    "country_code": "US",
    "latitude": "43.12334000",
    "longitude": "-88.44065000",
    "wikiDataId": null
  },
  {
    "id": 123466,
    "name": "Omro",
    "state_id": 1441,
    "state_code": "WI",
    "country_id": 233,
    "country_code": "US",
    "latitude": "44.03943000",
    "longitude": "-88.74428000",
    "wikiDataId": null
  },
  {
    "id": 123468,
    "name": "Onalaska",
    "state_id": 1441,
    "state_code": "WI",
    "country_id": 233,
    "country_code": "US",
    "latitude": "43.88441000",
    "longitude": "-91.23514000",
    "wikiDataId": null
  },
  {
    "id": 123474,
    "name": "Oneida",
    "state_id": 1441,
    "state_code": "WI",
    "country_id": 233,
    "country_code": "US",
    "latitude": "44.49860000",
    "longitude": "-88.18288000",
    "wikiDataId": null
  },
  {
    "id": 123476,
    "name": "Oneida County",
    "state_id": 1441,
    "state_code": "WI",
    "country_id": 233,
    "country_code": "US",
    "latitude": "45.70559000",
    "longitude": "-89.52171000",
    "wikiDataId": null
  },
  {
    "id": 123493,
    "name": "Oostburg",
    "state_id": 1441,
    "state_code": "WI",
    "country_id": 233,
    "country_code": "US",
    "latitude": "43.62277000",
    "longitude": "-87.79453000",
    "wikiDataId": null
  },
  {
    "id": 123547,
    "name": "Oregon",
    "state_id": 1441,
    "state_code": "WI",
    "country_id": 233,
    "country_code": "US",
    "latitude": "42.92611000",
    "longitude": "-89.38456000",
    "wikiDataId": null
  },
  {
    "id": 123553,
    "name": "Orfordville",
    "state_id": 1441,
    "state_code": "WI",
    "country_id": 233,
    "country_code": "US",
    "latitude": "42.62751000",
    "longitude": "-89.25317000",
    "wikiDataId": null
  },
  {
    "id": 123602,
    "name": "Osceola",
    "state_id": 1441,
    "state_code": "WI",
    "country_id": 233,
    "country_code": "US",
    "latitude": "45.32052000",
    "longitude": "-92.70493000",
    "wikiDataId": null
  },
  {
    "id": 123609,
    "name": "Oshkosh",
    "state_id": 1441,
    "state_code": "WI",
    "country_id": 233,
    "country_code": "US",
    "latitude": "44.02471000",
    "longitude": "-88.54261000",
    "wikiDataId": null
  },
  {
    "id": 123615,
    "name": "Osseo",
    "state_id": 1441,
    "state_code": "WI",
    "country_id": 233,
    "country_code": "US",
    "latitude": "44.57218000",
    "longitude": "-91.22738000",
    "wikiDataId": null
  },
  {
    "id": 123648,
    "name": "Outagamie County",
    "state_id": 1441,
    "state_code": "WI",
    "country_id": 233,
    "country_code": "US",
    "latitude": "44.41609000",
    "longitude": "-88.46493000",
    "wikiDataId": null
  },
  {
    "id": 123700,
    "name": "Ozaukee County",
    "state_id": 1441,
    "state_code": "WI",
    "country_id": 233,
    "country_code": "US",
    "latitude": "43.40305000",
    "longitude": "-87.89063000",
    "wikiDataId": null
  },
  {
    "id": 123713,
    "name": "Paddock Lake",
    "state_id": 1441,
    "state_code": "WI",
    "country_id": 233,
    "country_code": "US",
    "latitude": "42.57752000",
    "longitude": "-88.10509000",
    "wikiDataId": null
  },
  {
    "id": 123778,
    "name": "Palmyra",
    "state_id": 1441,
    "state_code": "WI",
    "country_id": 233,
    "country_code": "US",
    "latitude": "42.87779000",
    "longitude": "-88.58621000",
    "wikiDataId": null
  },
  {
    "id": 123828,
    "name": "Pardeeville",
    "state_id": 1441,
    "state_code": "WI",
    "country_id": 233,
    "country_code": "US",
    "latitude": "43.53776000",
    "longitude": "-89.30012000",
    "wikiDataId": null
  },
  {
    "id": 123844,
    "name": "Park Falls",
    "state_id": 1441,
    "state_code": "WI",
    "country_id": 233,
    "country_code": "US",
    "latitude": "45.93440000",
    "longitude": "-90.44155000",
    "wikiDataId": null
  },
  {
    "id": 123998,
    "name": "Pell Lake",
    "state_id": 1441,
    "state_code": "WI",
    "country_id": 233,
    "country_code": "US",
    "latitude": "42.53807000",
    "longitude": "-88.35093000",
    "wikiDataId": null
  },
  {
    "id": 124053,
    "name": "Pepin County",
    "state_id": 1441,
    "state_code": "WI",
    "country_id": 233,
    "country_code": "US",
    "latitude": "44.48265000",
    "longitude": "-92.14969000",
    "wikiDataId": null
  },
  {
    "id": 124099,
    "name": "Peshtigo",
    "state_id": 1441,
    "state_code": "WI",
    "country_id": 233,
    "country_code": "US",
    "latitude": "45.05443000",
    "longitude": "-87.74927000",
    "wikiDataId": null
  },
  {
    "id": 124115,
    "name": "Pewaukee",
    "state_id": 1441,
    "state_code": "WI",
    "country_id": 233,
    "country_code": "US",
    "latitude": "43.08057000",
    "longitude": "-88.26120000",
    "wikiDataId": null
  },
  {
    "id": 124134,
    "name": "Phillips",
    "state_id": 1441,
    "state_code": "WI",
    "country_id": 233,
    "country_code": "US",
    "latitude": "45.69663000",
    "longitude": "-90.40043000",
    "wikiDataId": null
  },
  {
    "id": 124173,
    "name": "Pierce County",
    "state_id": 1441,
    "state_code": "WI",
    "country_id": 233,
    "country_code": "US",
    "latitude": "44.71963000",
    "longitude": "-92.42249000",
    "wikiDataId": null
  },
  {
    "id": 124301,
    "name": "Pittsfield",
    "state_id": 1441,
    "state_code": "WI",
    "country_id": 233,
    "country_code": "US",
    "latitude": "44.59944000",
    "longitude": "-88.24510000",
    "wikiDataId": null
  },
  {
    "id": 124357,
    "name": "Platteville",
    "state_id": 1441,
    "state_code": "WI",
    "country_id": 233,
    "country_code": "US",
    "latitude": "42.73416000",
    "longitude": "-90.47846000",
    "wikiDataId": null
  },
  {
    "id": 124375,
    "name": "Pleasant Prairie",
    "state_id": 1441,
    "state_code": "WI",
    "country_id": 233,
    "country_code": "US",
    "latitude": "42.55308000",
    "longitude": "-87.93341000",
    "wikiDataId": null
  },
  {
    "id": 124391,
    "name": "Plover",
    "state_id": 1441,
    "state_code": "WI",
    "country_id": 233,
    "country_code": "US",
    "latitude": "44.45636000",
    "longitude": "-89.54401000",
    "wikiDataId": null
  },
  {
    "id": 124408,
    "name": "Plymouth",
    "state_id": 1441,
    "state_code": "WI",
    "country_id": 233,
    "country_code": "US",
    "latitude": "43.74861000",
    "longitude": "-87.97704000",
    "wikiDataId": null
  },
  {
    "id": 124450,
    "name": "Polk County",
    "state_id": 1441,
    "state_code": "WI",
    "country_id": 233,
    "country_code": "US",
    "latitude": "45.46142000",
    "longitude": "-92.44139000",
    "wikiDataId": null
  },
  {
    "id": 124505,
    "name": "Port Edwards",
    "state_id": 1441,
    "state_code": "WI",
    "country_id": 233,
    "country_code": "US",
    "latitude": "44.35080000",
    "longitude": "-89.86540000",
    "wikiDataId": null
  },
  {
    "id": 124540,
    "name": "Port Washington",
    "state_id": 1441,
    "state_code": "WI",
    "country_id": 233,
    "country_code": "US",
    "latitude": "43.38722000",
    "longitude": "-87.87564000",
    "wikiDataId": null
  },
  {
    "id": 124546,
    "name": "Portage",
    "state_id": 1441,
    "state_code": "WI",
    "country_id": 233,
    "country_code": "US",
    "latitude": "43.53915000",
    "longitude": "-89.46262000",
    "wikiDataId": null
  },
  {
    "id": 124547,
    "name": "Portage County",
    "state_id": 1441,
    "state_code": "WI",
    "country_id": 233,
    "country_code": "US",
    "latitude": "44.47604000",
    "longitude": "-89.50142000",
    "wikiDataId": null
  },
  {
    "id": 124564,
    "name": "Portland",
    "state_id": 1441,
    "state_code": "WI",
    "country_id": 233,
    "country_code": "US",
    "latitude": "43.76886000",
    "longitude": "-90.85819000",
    "wikiDataId": null
  },
  {
    "id": 124595,
    "name": "Potter Lake",
    "state_id": 1441,
    "state_code": "WI",
    "country_id": 233,
    "country_code": "US",
    "latitude": "42.82168000",
    "longitude": "-88.34898000",
    "wikiDataId": null
  },
  {
    "id": 124616,
    "name": "Powers Lake",
    "state_id": 1441,
    "state_code": "WI",
    "country_id": 233,
    "country_code": "US",
    "latitude": "42.55363000",
    "longitude": "-88.29454000",
    "wikiDataId": null
  },
  {
    "id": 124621,
    "name": "Poynette",
    "state_id": 1441,
    "state_code": "WI",
    "country_id": 233,
    "country_code": "US",
    "latitude": "43.39026000",
    "longitude": "-89.40290000",
    "wikiDataId": null
  },
  {
    "id": 124633,
    "name": "Prairie du Chien",
    "state_id": 1441,
    "state_code": "WI",
    "country_id": 233,
    "country_code": "US",
    "latitude": "43.05165000",
    "longitude": "-91.14124000",
    "wikiDataId": null
  },
  {
    "id": 124634,
    "name": "Prairie du Sac",
    "state_id": 1441,
    "state_code": "WI",
    "country_id": 233,
    "country_code": "US",
    "latitude": "43.28693000",
    "longitude": "-89.72401000",
    "wikiDataId": null
  },
  {
    "id": 124644,
    "name": "Prescott",
    "state_id": 1441,
    "state_code": "WI",
    "country_id": 233,
    "country_code": "US",
    "latitude": "44.74886000",
    "longitude": "-92.80215000",
    "wikiDataId": null
  },
  {
    "id": 124664,
    "name": "Price County",
    "state_id": 1441,
    "state_code": "WI",
    "country_id": 233,
    "country_code": "US",
    "latitude": "45.68038000",
    "longitude": "-90.36137000",
    "wikiDataId": null
  },
  {
    "id": 124691,
    "name": "Princeton",
    "state_id": 1441,
    "state_code": "WI",
    "country_id": 233,
    "country_code": "US",
    "latitude": "43.85081000",
    "longitude": "-89.12178000",
    "wikiDataId": null
  },
  {
    "id": 124736,
    "name": "Pulaski",
    "state_id": 1441,
    "state_code": "WI",
    "country_id": 233,
    "country_code": "US",
    "latitude": "44.67222000",
    "longitude": "-88.24260000",
    "wikiDataId": null
  },
  {
    "id": 124813,
    "name": "Racine",
    "state_id": 1441,
    "state_code": "WI",
    "country_id": 233,
    "country_code": "US",
    "latitude": "42.72613000",
    "longitude": "-87.78285000",
    "wikiDataId": null
  },
  {
    "id": 124814,
    "name": "Racine County",
    "state_id": 1441,
    "state_code": "WI",
    "country_id": 233,
    "country_code": "US",
    "latitude": "42.72987000",
    "longitude": "-87.81235000",
    "wikiDataId": null
  },
  {
    "id": 124869,
    "name": "Randolph",
    "state_id": 1441,
    "state_code": "WI",
    "country_id": 233,
    "country_code": "US",
    "latitude": "43.53915000",
    "longitude": "-89.00678000",
    "wikiDataId": null
  },
  {
    "id": 124880,
    "name": "Random Lake",
    "state_id": 1441,
    "state_code": "WI",
    "country_id": 233,
    "country_code": "US",
    "latitude": "43.55222000",
    "longitude": "-87.96176000",
    "wikiDataId": null
  },
  {
    "id": 124970,
    "name": "Redgranite",
    "state_id": 1441,
    "state_code": "WI",
    "country_id": 233,
    "country_code": "US",
    "latitude": "44.04192000",
    "longitude": "-89.09845000",
    "wikiDataId": null
  },
  {
    "id": 124994,
    "name": "Reedsburg",
    "state_id": 1441,
    "state_code": "WI",
    "country_id": 233,
    "country_code": "US",
    "latitude": "43.53248000",
    "longitude": "-90.00263000",
    "wikiDataId": null
  },
  {
    "id": 124996,
    "name": "Reedsville",
    "state_id": 1441,
    "state_code": "WI",
    "country_id": 233,
    "country_code": "US",
    "latitude": "44.15360000",
    "longitude": "-87.95676000",
    "wikiDataId": null
  },
  {
    "id": 125046,
    "name": "Rhinelander",
    "state_id": 1441,
    "state_code": "WI",
    "country_id": 233,
    "country_code": "US",
    "latitude": "45.63662000",
    "longitude": "-89.41208000",
    "wikiDataId": null
  },
  {
    "id": 125050,
    "name": "Rib Mountain",
    "state_id": 1441,
    "state_code": "WI",
    "country_id": 233,
    "country_code": "US",
    "latitude": "44.91275000",
    "longitude": "-89.67540000",
    "wikiDataId": null
  },
  {
    "id": 125055,
    "name": "Rice Lake",
    "state_id": 1441,
    "state_code": "WI",
    "country_id": 233,
    "country_code": "US",
    "latitude": "45.50607000",
    "longitude": "-91.73823000",
    "wikiDataId": null
  },
  {
    "id": 125062,
    "name": "Richfield",
    "state_id": 1441,
    "state_code": "WI",
    "country_id": 233,
    "country_code": "US",
    "latitude": "43.25612000",
    "longitude": "-88.19398000",
    "wikiDataId": null
  },
  {
    "id": 125073,
    "name": "Richland Center",
    "state_id": 1441,
    "state_code": "WI",
    "country_id": 233,
    "country_code": "US",
    "latitude": "43.33471000",
    "longitude": "-90.38679000",
    "wikiDataId": null
  },
  {
    "id": 125077,
    "name": "Richland County",
    "state_id": 1441,
    "state_code": "WI",
    "country_id": 233,
    "country_code": "US",
    "latitude": "43.37564000",
    "longitude": "-90.42948000",
    "wikiDataId": null
  },
  {
    "id": 125095,
    "name": "Richmond",
    "state_id": 1441,
    "state_code": "WI",
    "country_id": 233,
    "country_code": "US",
    "latitude": "42.71473000",
    "longitude": "-88.74927000",
    "wikiDataId": null
  },
  {
    "id": 125146,
    "name": "Rio",
    "state_id": 1441,
    "state_code": "WI",
    "country_id": 233,
    "country_code": "US",
    "latitude": "43.44776000",
    "longitude": "-89.23984000",
    "wikiDataId": null
  },
  {
    "id": 125167,
    "name": "Ripon",
    "state_id": 1441,
    "state_code": "WI",
    "country_id": 233,
    "country_code": "US",
    "latitude": "43.84220000",
    "longitude": "-88.83594000",
    "wikiDataId": null
  },
  {
    "id": 125178,
    "name": "River Falls",
    "state_id": 1441,
    "state_code": "WI",
    "country_id": 233,
    "country_code": "US",
    "latitude": "44.86136000",
    "longitude": "-92.62381000",
    "wikiDataId": null
  },
  {
    "id": 125182,
    "name": "River Hills",
    "state_id": 1441,
    "state_code": "WI",
    "country_id": 233,
    "country_code": "US",
    "latitude": "43.17418000",
    "longitude": "-87.92425000",
    "wikiDataId": null
  },
  {
    "id": 125241,
    "name": "Roberts",
    "state_id": 1441,
    "state_code": "WI",
    "country_id": 233,
    "country_code": "US",
    "latitude": "44.98386000",
    "longitude": "-92.55603000",
    "wikiDataId": null
  },
  {
    "id": 125269,
    "name": "Rochester",
    "state_id": 1441,
    "state_code": "WI",
    "country_id": 233,
    "country_code": "US",
    "latitude": "42.74141000",
    "longitude": "-88.22426000",
    "wikiDataId": null
  },
  {
    "id": 125274,
    "name": "Rock County",
    "state_id": 1441,
    "state_code": "WI",
    "country_id": 233,
    "country_code": "US",
    "latitude": "42.67122000",
    "longitude": "-89.07158000",
    "wikiDataId": null
  },
  {
    "id": 125379,
    "name": "Rome",
    "state_id": 1441,
    "state_code": "WI",
    "country_id": 233,
    "country_code": "US",
    "latitude": "44.22060000",
    "longitude": "-89.80843000",
    "wikiDataId": null
  },
  {
    "id": 125434,
    "name": "Rosendale",
    "state_id": 1441,
    "state_code": "WI",
    "country_id": 233,
    "country_code": "US",
    "latitude": "43.80776000",
    "longitude": "-88.67483000",
    "wikiDataId": null
  },
  {
    "id": 125465,
    "name": "Rothschild",
    "state_id": 1441,
    "state_code": "WI",
    "country_id": 233,
    "country_code": "US",
    "latitude": "44.88719000",
    "longitude": "-89.62012000",
    "wikiDataId": null
  },
  {
    "id": 125486,
    "name": "Roxbury",
    "state_id": 1441,
    "state_code": "WI",
    "country_id": 233,
    "country_code": "US",
    "latitude": "43.24943000",
    "longitude": "-89.67540000",
    "wikiDataId": null
  },
  {
    "id": 125530,
    "name": "Rusk County",
    "state_id": 1441,
    "state_code": "WI",
    "country_id": 233,
    "country_code": "US",
    "latitude": "45.47513000",
    "longitude": "-91.13312000",
    "wikiDataId": null
  },
  {
    "id": 125556,
    "name": "Rutland",
    "state_id": 1441,
    "state_code": "WI",
    "country_id": 233,
    "country_code": "US",
    "latitude": "42.87889000",
    "longitude": "-89.35012000",
    "wikiDataId": null
  },
  {
    "id": 125628,
    "name": "Saint Croix County",
    "state_id": 1441,
    "state_code": "WI",
    "country_id": 233,
    "country_code": "US",
    "latitude": "45.03407000",
    "longitude": "-92.45278000",
    "wikiDataId": null
  },
  {
    "id": 125629,
    "name": "Saint Croix Falls",
    "state_id": 1441,
    "state_code": "WI",
    "country_id": 233,
    "country_code": "US",
    "latitude": "45.40996000",
    "longitude": "-92.63965000",
    "wikiDataId": null
  },
  {
    "id": 125634,
    "name": "Saint Francis",
    "state_id": 1441,
    "state_code": "WI",
    "country_id": 233,
    "country_code": "US",
    "latitude": "42.96752000",
    "longitude": "-87.87758000",
    "wikiDataId": null
  },
  {
    "id": 125709,
    "name": "Saint Peter",
    "state_id": 1441,
    "state_code": "WI",
    "country_id": 233,
    "country_code": "US",
    "latitude": "43.83638000",
    "longitude": "-88.34149000",
    "wikiDataId": null
  },
  {
    "id": 125738,
    "name": "Salem",
    "state_id": 1441,
    "state_code": "WI",
    "country_id": 233,
    "country_code": "US",
    "latitude": "42.55474000",
    "longitude": "-88.11092000",
    "wikiDataId": null
  },
  {
    "id": 125963,
    "name": "Sauk City",
    "state_id": 1441,
    "state_code": "WI",
    "country_id": 233,
    "country_code": "US",
    "latitude": "43.27082000",
    "longitude": "-89.72207000",
    "wikiDataId": null
  },
  {
    "id": 125964,
    "name": "Sauk County",
    "state_id": 1441,
    "state_code": "WI",
    "country_id": 233,
    "country_code": "US",
    "latitude": "43.42678000",
    "longitude": "-89.94837000",
    "wikiDataId": null
  },
  {
    "id": 125967,
    "name": "Saukville",
    "state_id": 1441,
    "state_code": "WI",
    "country_id": 233,
    "country_code": "US",
    "latitude": "43.38167000",
    "longitude": "-87.94065000",
    "wikiDataId": null
  },
  {
    "id": 125982,
    "name": "Sawyer County",
    "state_id": 1441,
    "state_code": "WI",
    "country_id": 233,
    "country_code": "US",
    "latitude": "45.87997000",
    "longitude": "-91.14467000",
    "wikiDataId": null
  },
  {
    "id": 126013,
    "name": "Schofield",
    "state_id": 1441,
    "state_code": "WI",
    "country_id": 233,
    "country_code": "US",
    "latitude": "44.90969000",
    "longitude": "-89.60457000",
    "wikiDataId": null
  },
  {
    "id": 126197,
    "name": "Seymour",
    "state_id": 1441,
    "state_code": "WI",
    "country_id": 233,
    "country_code": "US",
    "latitude": "44.51499000",
    "longitude": "-88.33038000",
    "wikiDataId": null
  },
  {
    "id": 126230,
    "name": "Sharon",
    "state_id": 1441,
    "state_code": "WI",
    "country_id": 233,
    "country_code": "US",
    "latitude": "42.50252000",
    "longitude": "-88.72899000",
    "wikiDataId": null
  },
  {
    "id": 126247,
    "name": "Shawano",
    "state_id": 1441,
    "state_code": "WI",
    "country_id": 233,
    "country_code": "US",
    "latitude": "44.78221000",
    "longitude": "-88.60899000",
    "wikiDataId": null
  },
  {
    "id": 126248,
    "name": "Shawano County",
    "state_id": 1441,
    "state_code": "WI",
    "country_id": 233,
    "country_code": "US",
    "latitude": "44.78915000",
    "longitude": "-88.76544000",
    "wikiDataId": null
  },
  {
    "id": 126255,
    "name": "Sheboygan",
    "state_id": 1441,
    "state_code": "WI",
    "country_id": 233,
    "country_code": "US",
    "latitude": "43.75083000",
    "longitude": "-87.71453000",
    "wikiDataId": null
  },
  {
    "id": 126256,
    "name": "Sheboygan County",
    "state_id": 1441,
    "state_code": "WI",
    "country_id": 233,
    "country_code": "US",
    "latitude": "43.75622000",
    "longitude": "-87.79999000",
    "wikiDataId": null
  },
  {
    "id": 126257,
    "name": "Sheboygan Falls",
    "state_id": 1441,
    "state_code": "WI",
    "country_id": 233,
    "country_code": "US",
    "latitude": "43.73197000",
    "longitude": "-87.82213000",
    "wikiDataId": null
  },
  {
    "id": 126290,
    "name": "Shell Lake",
    "state_id": 1441,
    "state_code": "WI",
    "country_id": 233,
    "country_code": "US",
    "latitude": "45.73939000",
    "longitude": "-91.92545000",
    "wikiDataId": null
  },
  {
    "id": 126341,
    "name": "Sherwood",
    "state_id": 1441,
    "state_code": "WI",
    "country_id": 233,
    "country_code": "US",
    "latitude": "44.17360000",
    "longitude": "-88.25983000",
    "wikiDataId": null
  },
  {
    "id": 126372,
    "name": "Shorewood",
    "state_id": 1441,
    "state_code": "WI",
    "country_id": 233,
    "country_code": "US",
    "latitude": "43.08918000",
    "longitude": "-87.88758000",
    "wikiDataId": null
  },
  {
    "id": 126374,
    "name": "Shorewood Hills",
    "state_id": 1441,
    "state_code": "WI",
    "country_id": 233,
    "country_code": "US",
    "latitude": "43.07750000",
    "longitude": "-89.44568000",
    "wikiDataId": null
  },
  {
    "id": 126388,
    "name": "Shullsburg",
    "state_id": 1441,
    "state_code": "WI",
    "country_id": 233,
    "country_code": "US",
    "latitude": "42.57334000",
    "longitude": "-90.23096000",
    "wikiDataId": null
  },
  {
    "id": 126430,
    "name": "Silver Lake",
    "state_id": 1441,
    "state_code": "WI",
    "country_id": 233,
    "country_code": "US",
    "latitude": "44.05526000",
    "longitude": "-89.22623000",
    "wikiDataId": null
  },
  {
    "id": 126463,
    "name": "Siren",
    "state_id": 1441,
    "state_code": "WI",
    "country_id": 233,
    "country_code": "US",
    "latitude": "45.78578000",
    "longitude": "-92.38103000",
    "wikiDataId": null
  },
  {
    "id": 126502,
    "name": "Slinger",
    "state_id": 1441,
    "state_code": "WI",
    "country_id": 233,
    "country_code": "US",
    "latitude": "43.33361000",
    "longitude": "-88.28621000",
    "wikiDataId": null
  },
  {
    "id": 126576,
    "name": "Somers",
    "state_id": 1441,
    "state_code": "WI",
    "country_id": 233,
    "country_code": "US",
    "latitude": "42.64030000",
    "longitude": "-87.91036000",
    "wikiDataId": null
  },
  {
    "id": 126585,
    "name": "Somerset",
    "state_id": 1441,
    "state_code": "WI",
    "country_id": 233,
    "country_code": "US",
    "latitude": "45.12441000",
    "longitude": "-92.67354000",
    "wikiDataId": null
  },
  {
    "id": 126693,
    "name": "South Milwaukee",
    "state_id": 1441,
    "state_code": "WI",
    "country_id": 233,
    "country_code": "US",
    "latitude": "42.91057000",
    "longitude": "-87.86064000",
    "wikiDataId": null
  },
  {
    "id": 126813,
    "name": "Sparta",
    "state_id": 1441,
    "state_code": "WI",
    "country_id": 233,
    "country_code": "US",
    "latitude": "43.94413000",
    "longitude": "-90.81291000",
    "wikiDataId": null
  },
  {
    "id": 126827,
    "name": "Spencer",
    "state_id": 1441,
    "state_code": "WI",
    "country_id": 233,
    "country_code": "US",
    "latitude": "44.75774000",
    "longitude": "-90.29680000",
    "wikiDataId": null
  },
  {
    "id": 126845,
    "name": "Spooner",
    "state_id": 1441,
    "state_code": "WI",
    "country_id": 233,
    "country_code": "US",
    "latitude": "45.82245000",
    "longitude": "-91.88934000",
    "wikiDataId": null
  },
  {
    "id": 126856,
    "name": "Spring Green",
    "state_id": 1441,
    "state_code": "WI",
    "country_id": 233,
    "country_code": "US",
    "latitude": "43.17527000",
    "longitude": "-90.06790000",
    "wikiDataId": null
  },
  {
    "id": 126879,
    "name": "Spring Valley",
    "state_id": 1441,
    "state_code": "WI",
    "country_id": 233,
    "country_code": "US",
    "latitude": "44.84524000",
    "longitude": "-92.23880000",
    "wikiDataId": null
  },
  {
    "id": 126960,
    "name": "Stanley",
    "state_id": 1441,
    "state_code": "WI",
    "country_id": 233,
    "country_code": "US",
    "latitude": "44.95997000",
    "longitude": "-90.93708000",
    "wikiDataId": null
  },
  {
    "id": 127043,
    "name": "Stevens Point",
    "state_id": 1441,
    "state_code": "WI",
    "country_id": 233,
    "country_code": "US",
    "latitude": "44.52358000",
    "longitude": "-89.57456000",
    "wikiDataId": null
  },
  {
    "id": 127110,
    "name": "Stoughton",
    "state_id": 1441,
    "state_code": "WI",
    "country_id": 233,
    "country_code": "US",
    "latitude": "42.91695000",
    "longitude": "-89.21789000",
    "wikiDataId": null
  },
  {
    "id": 127126,
    "name": "Stratford",
    "state_id": 1441,
    "state_code": "WI",
    "country_id": 233,
    "country_code": "US",
    "latitude": "44.80108000",
    "longitude": "-90.07930000",
    "wikiDataId": null
  },
  {
    "id": 127141,
    "name": "Strum",
    "state_id": 1441,
    "state_code": "WI",
    "country_id": 233,
    "country_code": "US",
    "latitude": "44.54969000",
    "longitude": "-91.39266000",
    "wikiDataId": null
  },
  {
    "id": 127149,
    "name": "Sturgeon Bay",
    "state_id": 1441,
    "state_code": "WI",
    "country_id": 233,
    "country_code": "US",
    "latitude": "44.83416000",
    "longitude": "-87.37704000",
    "wikiDataId": null
  },
  {
    "id": 127153,
    "name": "Sturtevant",
    "state_id": 1441,
    "state_code": "WI",
    "country_id": 233,
    "country_code": "US",
    "latitude": "42.69807000",
    "longitude": "-87.89452000",
    "wikiDataId": null
  },