[
  {
    "id": 97504,
    "name": "Admiralteisky",
    "state_id": 1879,
    "state_code": "SPE",
    "country_id": 182,
    "country_code": "RU",
    "latitude": "59.90839000",
    "longitude": "30.28484000",
    "wikiDataId": null
  },
  {
    "id": 97570,
    "name": "Aleksandrovskaya",
    "state_id": 1879,
    "state_code": "SPE",
    "country_id": 182,
    "country_code": "RU",
    "latitude": "59.73083000",
    "longitude": "30.33222000",
    "wikiDataId": null
  },
  {
    "id": 97724,
    "name": "Avtovo",
    "state_id": 1879,
    "state_code": "SPE",
    "country_id": 182,
    "country_code": "RU",
    "latitude": "59.87167000",
    "longitude": "30.26583000",
    "wikiDataId": null
  },
  {
    "id": 97859,
    "name": "Beloostrov",
    "state_id": 1879,
    "state_code": "SPE",
    "country_id": 182,
    "country_code": "RU",
    "latitude": "60.15118000",
    "longitude": "30.00151000",
    "wikiDataId": null
  },
  {
    "id": 98105,
    "name": "Centralniy",
    "state_id": 1879,
    "state_code": "SPE",
    "country_id": 182,
    "country_code": "RU",
    "latitude": "59.93111000",
    "longitude": "30.36072000",
    "wikiDataId": null
  },
  {
    "id": 98231,
    "name": "Dachnoye",
    "state_id": 1879,
    "state_code": "SPE",
    "country_id": 182,
    "country_code": "RU",
    "latitude": "59.84167000",
    "longitude": "30.25583000",
    "wikiDataId": null
  },
  {
    "id": 98438,
    "name": "Frunzenskiy Rayon",
    "state_id": 1879,
    "state_code": "SPE",
    "country_id": 182,
    "country_code": "RU",
    "latitude": "59.87190000",
    "longitude": "30.37891000",
    "wikiDataId": null
  },
  {
    "id": 98523,
    "name": "Gorelovo",
    "state_id": 1879,
    "state_code": "SPE",
    "country_id": 182,
    "country_code": "RU",
    "latitude": "59.77234000",
    "longitude": "30.13455000",
    "wikiDataId": null
  },
  {
    "id": 98579,
    "name": "Grazhdanka",
    "state_id": 1879,
    "state_code": "SPE",
    "country_id": 182,
    "country_code": "RU",
    "latitude": "60.03587000",
    "longitude": "30.40518000",
    "wikiDataId": null
  },
  {
    "id": 99144,
    "name": "Kolomyagi",
    "state_id": 1879,
    "state_code": "SPE",
    "country_id": 182,
    "country_code": "RU",
    "latitude": "60.02427000",
    "longitude": "30.28491000",
    "wikiDataId": null
  },
  {
    "id": 99147,
    "name": "Kolpino",
    "state_id": 1879,
    "state_code": "SPE",
    "country_id": 182,
    "country_code": "RU",
    "latitude": "59.75069000",
    "longitude": "30.58856000",
    "wikiDataId": null
  },
  {
    "id": 99161,
    "name": "Komarovo",
    "state_id": 1879,
    "state_code": "SPE",
    "country_id": 182,
    "country_code": "RU",
    "latitude": "60.18660000",
    "longitude": "29.80865000",
    "wikiDataId": null
  },
  {
    "id": 99162,
    "name": "Komendantsky aerodrom",
    "state_id": 1879,
    "state_code": "SPE",
    "country_id": 182,
    "country_code": "RU",
    "latitude": "60.00448000",
    "longitude": "30.27523000",
    "wikiDataId": null
  },
  {
    "id": 99319,
    "name": "Krasnogvargeisky",
    "state_id": 1879,
    "state_code": "SPE",
    "country_id": 182,
    "country_code": "RU",
    "latitude": "59.97305000",
    "longitude": "30.47607000",
    "wikiDataId": null
  },
  {
    "id": 99353,
    "name": "Krasnoye Selo",
    "state_id": 1879,
    "state_code": "SPE",
    "country_id": 182,
    "country_code": "RU",
    "latitude": "59.73833000",
    "longitude": "30.08944000",
    "wikiDataId": null
  },
  {
    "id": 99397,
    "name": "Kronshtadt",
    "state_id": 1879,
    "state_code": "SPE",
    "country_id": 182,
    "country_code": "RU",
    "latitude": "59.99541000",
    "longitude": "29.76668000",
    "wikiDataId": null
  },
  {
    "id": 99450,
    "name": "Kupchino",
    "state_id": 1879,
    "state_code": "SPE",
    "country_id": 182,
    "country_code": "RU",
    "latitude": "59.85278000",
    "longitude": "30.35667000",
    "wikiDataId": null
  },
  {
    "id": 99470,
    "name": "Kurortnyy Rayon",
    "state_id": 1879,
    "state_code": "SPE",
    "country_id": 182,
    "country_code": "RU",
    "latitude": "60.17601000",
    "longitude": "29.87389000",
    "wikiDataId": null
  },
  {
    "id": 99486,
    "name": "Kushelevka",
    "state_id": 1879,
    "state_code": "SPE",
    "country_id": 182,
    "country_code": "RU",
    "latitude": "59.99333000",
    "longitude": "30.36389000",
    "wikiDataId": null
  },
  {
    "id": 99539,
    "name": "Lakhtinskiy",
    "state_id": 1879,
    "state_code": "SPE",
    "country_id": 182,
    "country_code": "RU",
    "latitude": "59.99521000",
    "longitude": "30.14717000",
    "wikiDataId": null
  },
  {
    "id": 99614,
    "name": "Levashovo",
    "state_id": 1879,
    "state_code": "SPE",
    "country_id": 182,
    "country_code": "RU",
    "latitude": "60.10369000",
    "longitude": "30.20683000",
    "wikiDataId": null
  },
  {
    "id": 99636,
    "name": "Lisiy Nos",
    "state_id": 1879,
    "state_code": "SPE",
    "country_id": 182,
    "country_code": "RU",
    "latitude": "60.01686000",
    "longitude": "30.02008000",
    "wikiDataId": null
  },
  {
    "id": 99657,
    "name": "Lomonosov",
    "state_id": 1879,
    "state_code": "SPE",
    "country_id": 182,
    "country_code": "RU",
    "latitude": "59.90612000",
    "longitude": "29.77253000",
    "wikiDataId": null
  },
  {
    "id": 99873,
    "name": "Metallostroy",
    "state_id": 1879,
    "state_code": "SPE",
    "country_id": 182,
    "country_code": "RU",
    "latitude": "59.80083000",
    "longitude": "30.54778000",
    "wikiDataId": null
  },
  {
    "id": 99951,
    "name": "Molodezhnoye",
    "state_id": 1879,
    "state_code": "SPE",
    "country_id": 182,
    "country_code": "RU",
    "latitude": "60.19803000",
    "longitude": "29.51597000",
    "wikiDataId": null
  },
  {
    "id": 100203,
    "name": "Novaya Derevnya",
    "state_id": 1879,
    "state_code": "SPE",
    "country_id": 182,
    "country_code": "RU",
    "latitude": "59.98748000",
    "longitude": "30.28682000",
    "wikiDataId": null
  },
  {
    "id": 100392,
    "name": "Obukhovo",
    "state_id": 1879,
    "state_code": "SPE",
    "country_id": 182,
    "country_code": "RU",
    "latitude": "59.84389000",
    "longitude": "30.45111000",
    "wikiDataId": null
  },
  {
    "id": 100433,
    "name": "Ol’gino",
    "state_id": 1879,
    "state_code": "SPE",
    "country_id": 182,
    "country_code": "RU",
    "latitude": "60.00928000",
    "longitude": "30.11559000",
    "wikiDataId": null
  },
  {
    "id": 100517,
    "name": "Ozerki",
    "state_id": 1879,
    "state_code": "SPE",
    "country_id": 182,
    "country_code": "RU",
    "latitude": "60.03947000",
    "longitude": "30.31128000",
    "wikiDataId": null
  },
  {
    "id": 100549,
    "name": "Pargolovo",
    "state_id": 1879,
    "state_code": "SPE",
    "country_id": 182,
    "country_code": "RU",
    "latitude": "60.08120000",
    "longitude": "30.27626000",
    "wikiDataId": null
  },
  {
    "id": 100571,
    "name": "Pavlovsk",
    "state_id": 1879,
    "state_code": "SPE",
    "country_id": 182,
    "country_code": "RU",
    "latitude": "59.68333000",
    "longitude": "30.43472000",
    "wikiDataId": null
  },
  {
    "id": 100637,
    "name": "Pesochnyy",
    "state_id": 1879,
    "state_code": "SPE",
    "country_id": 182,
    "country_code": "RU",
    "latitude": "60.12295000",
    "longitude": "30.16404000",
    "wikiDataId": null
  },
  {
    "id": 100645,
    "name": "Peterhof",
    "state_id": 1879,
    "state_code": "SPE",
    "country_id": 182,
    "country_code": "RU",
    "latitude": "59.88333000",
    "longitude": "29.90000000",
    "wikiDataId": null
  },
  {
    "id": 100647,
    "name": "Petro-Slavyanka",
    "state_id": 1879,
    "state_code": "SPE",
    "country_id": 182,
    "country_code": "RU",
    "latitude": "59.80222000",
    "longitude": "30.50694000",
    "wikiDataId": null
  },
  {
    "id": 100648,
    "name": "Petrodvorets",
    "state_id": 1879,
    "state_code": "SPE",
    "country_id": 182,
    "country_code": "RU",
    "latitude": "59.89565000",
    "longitude": "29.80145000",
    "wikiDataId": null
  },
  {
    "id": 100649,
    "name": "Petrogradka",
    "state_id": 1879,
    "state_code": "SPE",
    "country_id": 182,
    "country_code": "RU",
    "latitude": "59.96567000",
    "longitude": "30.31154000",
    "wikiDataId": null
  },
  {
    "id": 100769,
    "name": "Pontonnyy",
    "state_id": 1879,
    "state_code": "SPE",
    "country_id": 182,
    "country_code": "RU",
    "latitude": "59.78667000",
    "longitude": "30.61528000",
    "wikiDataId": null
  },
  {
    "id": 100833,
    "name": "Primorskiy Rayon",
    "state_id": 1879,
    "state_code": "SPE",
    "country_id": 182,
    "country_code": "RU",
    "latitude": "59.99624000",
    "longitude": "30.24090000",
    "wikiDataId": null
  },
  {
    "id": 100896,
    "name": "Pushkin",
    "state_id": 1879,
    "state_code": "SPE",
    "country_id": 182,
    "country_code": "RU",
    "latitude": "59.71417000",
    "longitude": "30.39642000",
    "wikiDataId": null
  },
  {
    "id": 100951,
    "name": "Razliv",
    "state_id": 1879,
    "state_code": "SPE",
    "country_id": 182,
    "country_code": "RU",
    "latitude": "60.07919000",
    "longitude": "29.97206000",
    "wikiDataId": null
  },
  {
    "id": 100961,
    "name": "Repino",
    "state_id": 1879,
    "state_code": "SPE",
    "country_id": 182,
    "country_code": "RU",
    "latitude": "60.17217000",
    "longitude": "29.86908000",
    "wikiDataId": null
  },
  {
    "id": 101074,
    "name": "Saint Petersburg",
    "state_id": 1879,
    "state_code": "SPE",
    "country_id": 182,
    "country_code": "RU",
    "latitude": "59.93863000",
    "longitude": "30.31413000",
    "wikiDataId": null
  },
  {
    "id": 101104,
    "name": "Sapërnyy",
    "state_id": 1879,
    "state_code": "SPE",
    "country_id": 182,
    "country_code": "RU",
    "latitude": "59.77611000",
    "longitude": "30.66139000",
    "wikiDataId": null
  },
  {
    "id": 101199,
    "name": "Sestroretsk",
    "state_id": 1879,
    "state_code": "SPE",
    "country_id": 182,
    "country_code": "RU",
    "latitude": "60.09801000",
    "longitude": "29.96378000",
    "wikiDataId": null
  },
  {
    "id": 101355,
    "name": "Shushary",
    "state_id": 1879,
    "state_code": "SPE",
    "country_id": 182,
    "country_code": "RU",
    "latitude": "59.80917000",
    "longitude": "30.38167000",
    "wikiDataId": null
  },
  {
    "id": 101359,
    "name": "Shuvalovo",
    "state_id": 1879,
    "state_code": "SPE",
    "country_id": 182,
    "country_code": "RU",
    "latitude": "60.04903000",
    "longitude": "30.29360000",
    "wikiDataId": null
  },
  {
    "id": 101455,
    "name": "Solnechnoye",
    "state_id": 1879,
    "state_code": "SPE",
    "country_id": 182,
    "country_code": "RU",
    "latitude": "60.15612000",
    "longitude": "29.94753000",
    "wikiDataId": null
  },
  {
    "id": 101485,
    "name": "Sosnovaya Polyana",
    "state_id": 1879,
    "state_code": "SPE",
    "country_id": 182,
    "country_code": "RU",
    "latitude": "59.83528000",
    "longitude": "30.14667000",
    "wikiDataId": null
  },
  {
    "id": 101486,
    "name": "Sosnovka",
    "state_id": 1879,
    "state_code": "SPE",
    "country_id": 182,
    "country_code": "RU",
    "latitude": "60.01667000",
    "longitude": "30.35000000",
    "wikiDataId": null
  },
  {
    "id": 101558,
    "name": "Staraya Derevnya",
    "state_id": 1879,
    "state_code": "SPE",
    "country_id": 182,
    "country_code": "RU",
    "latitude": "59.98834000",
    "longitude": "30.24296000",
    "wikiDataId": null
  },
  {
    "id": 101624,
    "name": "Strel'na",
    "state_id": 1879,
    "state_code": "SPE",
    "country_id": 182,
    "country_code": "RU",
    "latitude": "59.85189000",
    "longitude": "30.03611000",
    "wikiDataId": null
  },
  {
    "id": 101774,
    "name": "Tarkhovka",
    "state_id": 1879,
    "state_code": "SPE",
    "country_id": 182,
    "country_code": "RU",
    "latitude": "60.06687000",
    "longitude": "29.97435000",
    "wikiDataId": null
  },
  {
    "id": 101989,
    "name": "Tyarlevo",
    "state_id": 1879,
    "state_code": "SPE",
    "country_id": 182,
    "country_code": "RU",
    "latitude": "59.70777000",
    "longitude": "30.44543000",
    "wikiDataId": null
  },
  {
    "id": 102077,
    "name": "Uritsk",
    "state_id": 1879,
    "state_code": "SPE",
    "country_id": 182,
    "country_code": "RU",
    "latitude": "59.83889000",
    "longitude": "30.17528000",
    "wikiDataId": null
  },
  {
    "id": 102122,
    "name": "Ust’-Izhora",
    "state_id": 1879,
    "state_code": "SPE",
    "country_id": 182,
    "country_code": "RU",
    "latitude": "59.81194000",
    "longitude": "30.58139000",
    "wikiDataId": null
  },
  {
    "id": 102196,
    "name": "Vasileostrovskiy Rayon",
    "state_id": 1879,
    "state_code": "SPE",
    "country_id": 182,
    "country_code": "RU",
    "latitude": "59.93971000",
    "longitude": "30.26115000",
    "wikiDataId": null
  },
  {
    "id": 102201,
    "name": "Vasyl'evsky Ostrov",
    "state_id": 1879,
    "state_code": "SPE",
    "country_id": 182,
    "country_code": "RU",
    "latitude": "59.94091000",
    "longitude": "30.25377000",
    "wikiDataId": null
  },
  {
    "id": 102695,
    "name": "Zelenogorsk",
    "state_id": 1879,
    "state_code": "SPE",
    "country_id": 182,
    "country_code": "RU",
    "latitude": "60.19968000",
    "longitude": "29.70183000",
    "wikiDataId": null
  }
]