[
  {
    "id": 154670,
    "name": "Amai Manabilang",
    "state_id": 1333,
    "state_code": "LAS",
    "country_id": 174,
    "country_code": "PH",
    "latitude": "7.72220020",
    "longitude": "124.55045300",
    "wikiDataId": null
  },
  {
    "id": 144615,
    "name": "Bacolod-Kalawi",
    "state_id": 1333,
    "state_code": "LAS",
    "country_id": 174,
    "country_code": "PH",
    "latitude": "7.87428350",
    "longitude": "124.08564780",
    "wikiDataId": null
  },
  {
    "id": 144630,
    "name": "Balabagan",
    "state_id": 1333,
    "state_code": "LAS",
    "country_id": 174,
    "country_code": "PH",
    "latitude": "7.54228570",
    "longitude": "124.07091690",
    "wikiDataId": null
  },
  {
    "id": 144632,
    "name": "Balindong",
    "state_id": 1333,
    "state_code": "LAS",
    "country_id": 174,
    "country_code": "PH",
    "latitude": "7.91275830",
    "longitude": "124.14299000",
    "wikiDataId": null
  },
  {
    "id": 144642,
    "name": "Bayang",
    "state_id": 1333,
    "state_code": "LAS",
    "country_id": 174,
    "country_code": "PH",
    "latitude": "7.74270960",
    "longitude": "124.16501190",
    "wikiDataId": null
  },
  {
    "id": 144645,
    "name": "Binidayan",
    "state_id": 1333,
    "state_code": "LAS",
    "country_id": 174,
    "country_code": "PH",
    "latitude": "7.76266890",
    "longitude": "124.08278030",
    "wikiDataId": null
  },
  {
    "id": 144650,
    "name": "Buadiposo-Buntong",
    "state_id": 1333,
    "state_code": "LAS",
    "country_id": 174,
    "country_code": "PH",
    "latitude": "7.97198490",
    "longitude": "124.35835360",
    "wikiDataId": null
  },
  {
    "id": 144656,
    "name": "Bubong",
    "state_id": 1333,
    "state_code": "LAS",
    "country_id": 174,
    "country_code": "PH",
    "latitude": "8.01573730",
    "longitude": "124.31535060",
    "wikiDataId": null
  },
  {
    "id": 144673,
    "name": "Butig",
    "state_id": 1333,
    "state_code": "LAS",
    "country_id": 174,
    "country_code": "PH",
    "latitude": "7.71148710",
    "longitude": "124.22717170",
    "wikiDataId": null
  },
  {
    "id": 144675,
    "name": "Calanogas",
    "state_id": 1333,
    "state_code": "LAS",
    "country_id": 174,
    "country_code": "PH",
    "latitude": "7.73390150",
    "longitude": "123.95843590",
    "wikiDataId": null
  },
  {
    "id": 144691,
    "name": "Ditsaan-Ramain",
    "state_id": 1333,
    "state_code": "LAS",
    "country_id": 174,
    "country_code": "PH",
    "latitude": "7.99082140",
    "longitude": "124.32476490",
    "wikiDataId": null
  },
  {
    "id": 144694,
    "name": "Ganassi",
    "state_id": 1333,
    "state_code": "LAS",
    "country_id": 174,
    "country_code": "PH",
    "latitude": "7.81282460",
    "longitude": "124.01825440",
    "wikiDataId": null
  },
  {
    "id": 144542,
    "name": "Kapai",
    "state_id": 1333,
    "state_code": "LAS",
    "country_id": 174,
    "country_code": "PH",
    "latitude": "8.12362070",
    "longitude": "124.26616290",
    "wikiDataId": null
  },
  {
    "id": 154671,
    "name": "Kapatagan",
    "state_id": 1333,
    "state_code": "LAS",
    "country_id": 174,
    "country_code": "PH",
    "latitude": "7.46722750",
    "longitude": "124.09951990",
    "wikiDataId": null
  },
  {
    "id": 154672,
    "name": "Lumba-Bayabao",
    "state_id": 1333,
    "state_code": "LAS",
    "country_id": 174,
    "country_code": "PH",
    "latitude": "7.73006720",
    "longitude": "124.33015630",
    "wikiDataId": null
  },
  {
    "id": 154673,
    "name": "Lumbaca-Unayan",
    "state_id": 1333,
    "state_code": "LAS",
    "country_id": 174,
    "country_code": "PH",
    "latitude": "7.72727810",
    "longitude": "124.21670400",
    "wikiDataId": null
  },
  {
    "id": 144572,
    "name": "Lumbatan",
    "state_id": 1333,
    "state_code": "LAS",
    "country_id": 174,
    "country_code": "PH",
    "latitude": "7.75540590",
    "longitude": "124.20624810",
    "wikiDataId": null
  },
  {
    "id": 144573,
    "name": "Lumbayanague",
    "state_id": 1333,
    "state_code": "LAS",
    "country_id": 174,
    "country_code": "PH",
    "latitude": "7.76695110",
    "longitude": "124.25281660",
    "wikiDataId": null
  },
  {
    "id": 144577,
    "name": "Madalum",
    "state_id": 1333,
    "state_code": "LAS",
    "country_id": 174,
    "country_code": "PH",
    "latitude": "7.87007460",
    "longitude": "124.05955540",
    "wikiDataId": null
  },
  {
    "id": 144578,
    "name": "Madamba",
    "state_id": 1333,
    "state_code": "LAS",
    "country_id": 174,
    "country_code": "PH",
    "latitude": "7.86208910",
    "longitude": "123.99116950",
    "wikiDataId": null
  },
  {
    "id": 144579,
    "name": "Maguing",
    "state_id": 1333,
    "state_code": "LAS",
    "country_id": 174,
    "country_code": "PH",
    "latitude": "7.90378650",
    "longitude": "124.34994040",
    "wikiDataId": null
  },
  {
    "id": 144583,
    "name": "Malabang",
    "state_id": 1333,
    "state_code": "LAS",
    "country_id": 174,
    "country_code": "PH",
    "latitude": "7.60898590",
    "longitude": "124.00551390",
    "wikiDataId": null
  },
  {
    "id": 144587,
    "name": "Marantao",
    "state_id": 1333,
    "state_code": "LAS",
    "country_id": 174,
    "country_code": "PH",
    "latitude": "7.96583130",
    "longitude": "124.11820950",
    "wikiDataId": null
  },
  {
    "id": 144588,
    "name": "Marawi",
    "state_id": 1333,
    "state_code": "LAS",
    "country_id": 174,
    "country_code": "PH",
    "latitude": "8.02352470",
    "longitude": "124.21549870",
    "wikiDataId": null
  },
  {
    "id": 144589,
    "name": "Marogong",
    "state_id": 1333,
    "state_code": "LAS",
    "country_id": 174,
    "country_code": "PH",
    "latitude": "7.60759410",
    "longitude": "124.09250340",
    "wikiDataId": null
  },
  {
    "id": 144592,
    "name": "Masiu",
    "state_id": 1333,
    "state_code": "LAS",
    "country_id": 174,
    "country_code": "PH",
    "latitude": "7.81157590",
    "longitude": "124.29411320",
    "wikiDataId": null
  },
  {
    "id": 154674,
    "name": "Mulondo",
    "state_id": 1333,
    "state_code": "LAS",
    "country_id": 174,
    "country_code": "PH",
    "latitude": "7.93011120",
    "longitude": "124.30881380",
    "wikiDataId": null
  },
  {
    "id": 144620,
    "name": "Pagayawan",
    "state_id": 1333,
    "state_code": "LAS",
    "country_id": 174,
    "country_code": "PH",
    "latitude": "7.74404140",
    "longitude": "124.06860260",
    "wikiDataId": null
  },
  {
    "id": 144700,
    "name": "Piagapo",
    "state_id": 1333,
    "state_code": "LAS",
    "country_id": 174,
    "country_code": "PH",
    "latitude": "8.01240620",
    "longitude": "124.14396190",
    "wikiDataId": null
  },
  {
    "id": 154675,
    "name": "Picong",
    "state_id": 1333,
    "state_code": "LAS",
    "country_id": 174,
    "country_code": "PH",
    "latitude": "7.68254660",
    "longitude": "123.75968260",
    "wikiDataId": null
  },
  {
    "id": 154676,
    "name": "Poona Bayabao",
    "state_id": 1333,
    "state_code": "LAS",
    "country_id": 174,
    "country_code": "PH",
    "latitude": "7.83156130",
    "longitude": "124.32980780",
    "wikiDataId": null
  },
  {
    "id": 144705,
    "name": "Pualas",
    "state_id": 1333,
    "state_code": "LAS",
    "country_id": 174,
    "country_code": "PH",
    "latitude": "7.81180770",
    "longitude": "124.01118180",
    "wikiDataId": null
  },
  {
    "id": 144710,
    "name": "Saguiaran",
    "state_id": 1333,
    "state_code": "LAS",
    "country_id": 174,
    "country_code": "PH",
    "latitude": "8.03458660",
    "longitude": "124.22018750",
    "wikiDataId": null
  },
  {
    "id": 154677,
    "name": "Sultan Dumalondong",
    "state_id": 1333,
    "state_code": "LAS",
    "country_id": 174,
    "country_code": "PH",
    "latitude": "7.63611670",
    "longitude": "124.21193670",
    "wikiDataId": null
  },
  {
    "id": 154678,
    "name": "Tagoloan",
    "state_id": 1333,
    "state_code": "LAS",
    "country_id": 174,
    "country_code": "PH",
    "latitude": "8.09907450",
    "longitude": "124.37269760",
    "wikiDataId": null
  },
  {
    "id": 144740,
    "name": "Tamparan",
    "state_id": 1333,
    "state_code": "LAS",
    "country_id": 174,
    "country_code": "PH",
    "latitude": "7.87209600",
    "longitude": "124.31913830",
    "wikiDataId": null
  },
  {
    "id": 144746,
    "name": "Taraka",
    "state_id": 1333,
    "state_code": "LAS",
    "country_id": 174,
    "country_code": "PH",
    "latitude": "7.89423090",
    "longitude": "124.31130600",
    "wikiDataId": null
  },
  {
    "id": 144752,
    "name": "Tubaran",
    "state_id": 1333,
    "state_code": "LAS",
    "country_id": 174,
    "country_code": "PH",
    "latitude": "7.69150350",
    "longitude": "124.02401050",
    "wikiDataId": null
  },
  {
    "id": 144755,
    "name": "Tugaya",
    "state_id": 1333,
    "state_code": "LAS",
    "country_id": 174,
    "country_code": "PH",
    "latitude": "7.90035410",
    "longitude": "124.10923530",
    "wikiDataId": null
  },
  {
    "id": 144763,
    "name": "Wao",
    "state_id": 1333,
    "state_code": "LAS",
    "country_id": 174,
    "country_code": "PH",
    "latitude": "7.67316710",
    "longitude": "124.63898730",
    "wikiDataId": null
  }
]