[
  {
    "id": 155104,
    "name": "Altagène",
    "state_id": 4996,
    "state_code": "2A",
    "country_id": 75,
    "country_code": "FR",
    "latitude": "41.70979980",
    "longitude": "9.03244740",
    "wikiDataId": null
  },
  {
    "id": 155105,
    "name": "Ambiegna",
    "state_id": 4996,
    "state_code": "2A",
    "country_id": 75,
    "country_code": "FR",
    "latitude": "42.08997100",
    "longitude": "8.68572790",
    "wikiDataId": null
  },
  {
    "id": 155106,
    "name": "Arbellara",
    "state_id": 4996,
    "state_code": "2A",
    "country_id": 75,
    "country_code": "FR",
    "latitude": "41.67053860",
    "longitude": "8.95143510",
    "wikiDataId": null
  },
  {
    "id": 155107,
    "name": "Arbori",
    "state_id": 4996,
    "state_code": "2A",
    "country_id": 75,
    "country_code": "FR",
    "latitude": "42.12313760",
    "longitude": "8.71342620",
    "wikiDataId": null
  },
  {
    "id": 155108,
    "name": "Argiusta-Moriccio",
    "state_id": 4996,
    "state_code": "2A",
    "country_id": 75,
    "country_code": "FR",
    "latitude": "41.81382430",
    "longitude": "8.99131010",
    "wikiDataId": null
  },
  {
    "id": 155109,
    "name": "Arro",
    "state_id": 4996,
    "state_code": "2A",
    "country_id": 75,
    "country_code": "FR",
    "latitude": "42.09798010",
    "longitude": "8.75989740",
    "wikiDataId": null
  },
  {
    "id": 155110,
    "name": "Aullène",
    "state_id": 4996,
    "state_code": "2A",
    "country_id": 75,
    "country_code": "FR",
    "latitude": "41.81112980",
    "longitude": "9.01049070",
    "wikiDataId": null
  },
  {
    "id": 155111,
    "name": "Azilone-Ampaza",
    "state_id": 4996,
    "state_code": "2A",
    "country_id": 75,
    "country_code": "FR",
    "latitude": "41.87187550",
    "longitude": "8.97319630",
    "wikiDataId": null
  },
  {
    "id": 155112,
    "name": "Azzana",
    "state_id": 4996,
    "state_code": "2A",
    "country_id": 75,
    "country_code": "FR",
    "latitude": "42.11721370",
    "longitude": "8.89190240",
    "wikiDataId": null
  },
  {
    "id": 155113,
    "name": "Balogna",
    "state_id": 4996,
    "state_code": "2A",
    "country_id": 75,
    "country_code": "FR",
    "latitude": "42.18551330",
    "longitude": "8.66814750",
    "wikiDataId": null
  },
  {
    "id": 155114,
    "name": "Bastelica",
    "state_id": 4996,
    "state_code": "2A",
    "country_id": 75,
    "country_code": "FR",
    "latitude": "41.97827930",
    "longitude": "8.89046980",
    "wikiDataId": null
  },
  {
    "id": 155115,
    "name": "Bastelicaccia",
    "state_id": 4996,
    "state_code": "2A",
    "country_id": 75,
    "country_code": "FR",
    "latitude": "41.93275190",
    "longitude": "8.75474200",
    "wikiDataId": null
  },
  {
    "id": 155116,
    "name": "Belvédère-Campomoro",
    "state_id": 4996,
    "state_code": "2A",
    "country_id": 75,
    "country_code": "FR",
    "latitude": "41.61786410",
    "longitude": "8.73961960",
    "wikiDataId": null
  },
  {
    "id": 155117,
    "name": "Bilia",
    "state_id": 4996,
    "state_code": "2A",
    "country_id": 75,
    "country_code": "FR",
    "latitude": "41.62228620",
    "longitude": "8.86361220",
    "wikiDataId": null
  },
  {
    "id": 155118,
    "name": "Bocognano",
    "state_id": 4996,
    "state_code": "2A",
    "country_id": 75,
    "country_code": "FR",
    "latitude": "42.08725430",
    "longitude": "8.89984080",
    "wikiDataId": null
  },
  {
    "id": 155119,
    "name": "Calcatoggio",
    "state_id": 4996,
    "state_code": "2A",
    "country_id": 75,
    "country_code": "FR",
    "latitude": "42.03062800",
    "longitude": "8.56586910",
    "wikiDataId": null
  },
  {
    "id": 155120,
    "name": "Cannelle",
    "state_id": 4996,
    "state_code": "2A",
    "country_id": 75,
    "country_code": "FR",
    "latitude": "42.04763110",
    "longitude": "8.77278640",
    "wikiDataId": null
  },
  {
    "id": 155121,
    "name": "Carbini",
    "state_id": 4996,
    "state_code": "2A",
    "country_id": 75,
    "country_code": "FR",
    "latitude": "41.67797340",
    "longitude": "9.07766470",
    "wikiDataId": null
  },
  {
    "id": 155122,
    "name": "Carbuccia",
    "state_id": 4996,
    "state_code": "2A",
    "country_id": 75,
    "country_code": "FR",
    "latitude": "42.03444050",
    "longitude": "8.84777130",
    "wikiDataId": null
  },
  {
    "id": 155123,
    "name": "Cardo-Torgia",
    "state_id": 4996,
    "state_code": "2A",
    "country_id": 75,
    "country_code": "FR",
    "latitude": "41.85339560",
    "longitude": "8.93231920",
    "wikiDataId": null
  },
  {
    "id": 155124,
    "name": "Cargiaca",
    "state_id": 4996,
    "state_code": "2A",
    "country_id": 75,
    "country_code": "FR",
    "latitude": "41.73027600",
    "longitude": "8.99726850",
    "wikiDataId": null
  },
  {
    "id": 155125,
    "name": "Casaglione",
    "state_id": 4996,
    "state_code": "2A",
    "country_id": 75,
    "country_code": "FR",
    "latitude": "42.07010930",
    "longitude": "8.67561920",
    "wikiDataId": null
  },
  {
    "id": 155126,
    "name": "Casalabriva",
    "state_id": 4996,
    "state_code": "2A",
    "country_id": 75,
    "country_code": "FR",
    "latitude": "41.75839120",
    "longitude": "8.83503960",
    "wikiDataId": null
  },
  {
    "id": 155127,
    "name": "Ciamannacce",
    "state_id": 4996,
    "state_code": "2A",
    "country_id": 75,
    "country_code": "FR",
    "latitude": "41.96956260",
    "longitude": "9.04943790",
    "wikiDataId": null
  },
  {
    "id": 155128,
    "name": "Coggia",
    "state_id": 4996,
    "state_code": "2A",
    "country_id": 75,
    "country_code": "FR",
    "latitude": "42.10969630",
    "longitude": "8.65699370",
    "wikiDataId": null
  },
  {
    "id": 155129,
    "name": "Cognocoli-Monticchi",
    "state_id": 4996,
    "state_code": "2A",
    "country_id": 75,
    "country_code": "FR",
    "latitude": "41.80533000",
    "longitude": "8.78603500",
    "wikiDataId": null
  },
  {
    "id": 155130,
    "name": "Conca",
    "state_id": 4996,
    "state_code": "2A",
    "country_id": 75,
    "country_code": "FR",
    "latitude": "41.75493440",
    "longitude": "9.15518920",
    "wikiDataId": null
  },
  {
    "id": 155131,
    "name": "Corrano",
    "state_id": 4996,
    "state_code": "2A",
    "country_id": 75,
    "country_code": "FR",
    "latitude": "41.88294090",
    "longitude": "9.03204830",
    "wikiDataId": null
  },
  {
    "id": 155132,
    "name": "Coti-Chiavari",
    "state_id": 4996,
    "state_code": "2A",
    "country_id": 75,
    "country_code": "FR",
    "latitude": "41.76753510",
    "longitude": "8.57629580",
    "wikiDataId": null
  },
  {
    "id": 155133,
    "name": "Cozzano",
    "state_id": 4996,
    "state_code": "2A",
    "country_id": 75,
    "country_code": "FR",
    "latitude": "41.93212380",
    "longitude": "9.10243500",
    "wikiDataId": null
  },
  {
    "id": 155134,
    "name": "Cristinacce",
    "state_id": 4996,
    "state_code": "2A",
    "country_id": 75,
    "country_code": "FR",
    "latitude": "42.24591620",
    "longitude": "8.77513950",
    "wikiDataId": null
  },
  {
    "id": 155135,
    "name": "Eccica-Suarella",
    "state_id": 4996,
    "state_code": "2A",
    "country_id": 75,
    "country_code": "FR",
    "latitude": "41.92055190",
    "longitude": "8.81319530",
    "wikiDataId": null
  },
  {
    "id": 155136,
    "name": "Évisa",
    "state_id": 4996,
    "state_code": "2A",
    "country_id": 75,
    "country_code": "FR",
    "latitude": "42.28469150",
    "longitude": "8.66170890",
    "wikiDataId": null
  },
  {
    "id": 155137,
    "name": "Foce",
    "state_id": 4996,
    "state_code": "2A",
    "country_id": 75,
    "country_code": "FR",
    "latitude": "41.62405620",
    "longitude": "8.95304970",
    "wikiDataId": null
  },
  {
    "id": 155138,
    "name": "Forciolo",
    "state_id": 4996,
    "state_code": "2A",
    "country_id": 75,
    "country_code": "FR",
    "latitude": "41.84636790",
    "longitude": "8.97427010",
    "wikiDataId": null
  },
  {
    "id": 155139,
    "name": "Fozzano",
    "state_id": 4996,
    "state_code": "2A",
    "country_id": 75,
    "country_code": "FR",
    "latitude": "41.70147190",
    "longitude": "8.90848330",
    "wikiDataId": null
  },
  {
    "id": 155140,
    "name": "Frasseto",
    "state_id": 4996,
    "state_code": "2A",
    "country_id": 75,
    "country_code": "FR",
    "latitude": "41.91991920",
    "longitude": "8.99497150",
    "wikiDataId": null
  },
  {
    "id": 155141,
    "name": "Giuncheto",
    "state_id": 4996,
    "state_code": "2A",
    "country_id": 75,
    "country_code": "FR",
    "latitude": "41.58632120",
    "longitude": "8.91700060",
    "wikiDataId": null
  },
  {
    "id": 155142,
    "name": "Granace",
    "state_id": 4996,
    "state_code": "2A",
    "country_id": 75,
    "country_code": "FR",
    "latitude": "41.64000060",
    "longitude": "8.97112880",
    "wikiDataId": null
  },
  {
    "id": 155143,
    "name": "Grossa",
    "state_id": 4996,
    "state_code": "2A",
    "country_id": 75,
    "country_code": "FR",
    "latitude": "41.60507370",
    "longitude": "8.77524570",
    "wikiDataId": null
  },
  {
    "id": 155144,
    "name": "Guagno",
    "state_id": 4996,
    "state_code": "2A",
    "country_id": 75,
    "country_code": "FR",
    "latitude": "42.17729320",
    "longitude": "8.81646350",
    "wikiDataId": null
  },
  {
    "id": 155145,
    "name": "Guargualé",
    "state_id": 4996,
    "state_code": "2A",
    "country_id": 75,
    "country_code": "FR",
    "latitude": "41.82511790",
    "longitude": "8.88582590",
    "wikiDataId": null
  },
  {
    "id": 155146,
    "name": "Guitera-les-Bains",
    "state_id": 4996,
    "state_code": "2A",
    "country_id": 75,
    "country_code": "FR",
    "latitude": "41.92678350",
    "longitude": "9.03851880",
    "wikiDataId": null
  },
  {
    "id": 155147,
    "name": "Lecci",
    "state_id": 4996,
    "state_code": "2A",
    "country_id": 75,
    "country_code": "FR",
    "latitude": "41.65827700",
    "longitude": "9.21834790",
    "wikiDataId": null
  },
  {
    "id": 155148,
    "name": "Letia",
    "state_id": 4996,
    "state_code": "2A",
    "country_id": 75,
    "country_code": "FR",
    "latitude": "42.21674990",
    "longitude": "8.71109770",
    "wikiDataId": null
  },
  {
    "id": 155149,
    "name": "Levie",
    "state_id": 4996,
    "state_code": "2A",
    "country_id": 75,
    "country_code": "FR",
    "latitude": "41.66132060",
    "longitude": "8.94347470",
    "wikiDataId": null
  },
  {
    "id": 155150,
    "name": "Lopigna",
    "state_id": 4996,
    "state_code": "2A",
    "country_id": 75,
    "country_code": "FR",
    "latitude": "42.08887400",
    "longitude": "8.77072880",
    "wikiDataId": null
  },
  {
    "id": 155151,
    "name": "Loreto-di-Tallano",
    "state_id": 4996,
    "state_code": "2A",
    "country_id": 75,
    "country_code": "FR",
    "latitude": "41.69599080",
    "longitude": "8.98955210",
    "wikiDataId": null
  },
  {
    "id": 155152,
    "name": "Marignana",
    "state_id": 4996,
    "state_code": "2A",
    "country_id": 75,
    "country_code": "FR",
    "latitude": "42.20910440",
    "longitude": "8.55450840",
    "wikiDataId": null
  },
  {
    "id": 155153,
    "name": "Mela",
    "state_id": 4996,
    "state_code": "2A",
    "country_id": 75,
    "country_code": "FR",
    "latitude": "41.68271320",
    "longitude": "9.07114460",
    "wikiDataId": null
  },
  {
    "id": 155154,
    "name": "Moca-Croce",
    "state_id": 4996,
    "state_code": "2A",
    "country_id": 75,
    "country_code": "FR",
    "latitude": "41.77770220",
    "longitude": "8.92262750",
    "wikiDataId": null
  },
  {
    "id": 155155,
    "name": "Monacia-d'Aullène",
    "state_id": 4996,
    "state_code": "2A",
    "country_id": 75,
    "country_code": "FR",
    "latitude": "41.52339080",
    "longitude": "8.84344610",
    "wikiDataId": null
  },
  {
    "id": 155156,
    "name": "Murzo",
    "state_id": 4996,
    "state_code": "2A",
    "country_id": 75,
    "country_code": "FR",
    "latitude": "42.15567260",
    "longitude": "8.76666600",
    "wikiDataId": null
  },
  {
    "id": 155157,
    "name": "Ocana",
    "state_id": 4996,
    "state_code": "2A",
    "country_id": 75,
    "country_code": "FR",
    "latitude": "41.95479460",
    "longitude": "8.82095560",
    "wikiDataId": null
  },
  {
    "id": 155158,
    "name": "Olivese",
    "state_id": 4996,
    "state_code": "2A",
    "country_id": 75,
    "country_code": "FR",
    "latitude": "41.83663330",
    "longitude": "8.98826630",
    "wikiDataId": null
  },
  {
    "id": 155159,
    "name": "Olmiccia",
    "state_id": 4996,
    "state_code": "2A",
    "country_id": 75,
    "country_code": "FR",
    "latitude": "41.67014450",
    "longitude": "8.94867300",
    "wikiDataId": null
  },
  {
    "id": 155160,
    "name": "Orto",
    "state_id": 4996,
    "state_code": "2A",
    "country_id": 75,
    "country_code": "FR",
    "latitude": "42.19844630",
    "longitude": "8.88015900",
    "wikiDataId": null
  },
  {
    "id": 155161,
    "name": "Osani",
    "state_id": 4996,
    "state_code": "2A",
    "country_id": 75,
    "country_code": "FR",
    "latitude": "42.34054810",
    "longitude": "8.44433550",
    "wikiDataId": null
  },
  {
    "id": 155162,
    "name": "Ota",
    "state_id": 4996,
    "state_code": "2A",
    "country_id": 75,
    "country_code": "FR",
    "latitude": "42.25380700",
    "longitude": "8.65379700",
    "wikiDataId": null
  },
  {
    "id": 155163,
    "name": "Palneca",
    "state_id": 4996,
    "state_code": "2A",
    "country_id": 75,
    "country_code": "FR",
    "latitude": "41.99059270",
    "longitude": "9.10442300",
    "wikiDataId": null
  },
  {
    "id": 155164,
    "name": "Partinello",
    "state_id": 4996,
    "state_code": "2A",
    "country_id": 75,
    "country_code": "FR",
    "latitude": "42.31514250",
    "longitude": "8.60972210",
    "wikiDataId": null
  },
  {
    "id": 155165,
    "name": "Pastricciola",
    "state_id": 4996,
    "state_code": "2A",
    "country_id": 75,
    "country_code": "FR",
    "latitude": "42.14458360",
    "longitude": "8.85004000",
    "wikiDataId": null
  },
  {
    "id": 155166,
    "name": "Petreto-Bicchisano",
    "state_id": 4996,
    "state_code": "2A",
    "country_id": 75,
    "country_code": "FR",
    "latitude": "41.76580760",
    "longitude": "8.88051210",
    "wikiDataId": null
  },
  {
    "id": 155167,
    "name": "Piana",
    "state_id": 4996,
    "state_code": "2A",
    "country_id": 75,
    "country_code": "FR",
    "latitude": "42.22348930",
    "longitude": "8.45594130",
    "wikiDataId": null
  },
  {
    "id": 155168,
    "name": "Pianottoli-Caldarello",
    "state_id": 4996,
    "state_code": "2A",
    "country_id": 75,
    "country_code": "FR",
    "latitude": "41.52095720",
    "longitude": "8.96324230",
    "wikiDataId": null
  },
  {
    "id": 155169,
    "name": "Pila-Canale",
    "state_id": 4996,
    "state_code": "2A",
    "country_id": 75,
    "country_code": "FR",
    "latitude": "41.79176200",
    "longitude": "8.81261900",
    "wikiDataId": null
  },
  {
    "id": 155170,
    "name": "Poggiolo",
    "state_id": 4996,
    "state_code": "2A",
    "country_id": 75,
    "country_code": "FR",
    "latitude": "42.16168570",
    "longitude": "8.85729650",
    "wikiDataId": null
  },
  {
    "id": 155171,
    "name": "Quasquara",
    "state_id": 4996,
    "state_code": "2A",
    "country_id": 75,
    "country_code": "FR",
    "latitude": "41.91209200",
    "longitude": "8.96589210",
    "wikiDataId": null
  },
  {
    "id": 155172,
    "name": "Quenza",
    "state_id": 4996,
    "state_code": "2A",
    "country_id": 75,
    "country_code": "FR",
    "latitude": "41.79490800",
    "longitude": "9.05083610",
    "wikiDataId": null
  },
  {
    "id": 155173,
    "name": "Renno",
    "state_id": 4996,
    "state_code": "2A",
    "country_id": 75,
    "country_code": "FR",
    "latitude": "42.20534630",
    "longitude": "8.77953290",
    "wikiDataId": null
  },
  {
    "id": 155174,
    "name": "Rezza",
    "state_id": 4996,
    "state_code": "2A",
    "country_id": 75,
    "country_code": "FR",
    "latitude": "42.12551330",
    "longitude": "8.91451210",
    "wikiDataId": null
  },
  {
    "id": 155175,
    "name": "Rosazia",
    "state_id": 4996,
    "state_code": "2A",
    "country_id": 75,
    "country_code": "FR",
    "latitude": "42.12356710",
    "longitude": "8.77574290",
    "wikiDataId": null
  },
  {
    "id": 155176,
    "name": "Sainte-Lucie-de-Tallano",
    "state_id": 4996,
    "state_code": "2A",
    "country_id": 75,
    "country_code": "FR",
    "latitude": "41.67306690",
    "longitude": "8.97894540",
    "wikiDataId": null
  },
  {
    "id": 155177,
    "name": "Salice",
    "state_id": 4996,
    "state_code": "2A",
    "country_id": 75,
    "country_code": "FR",
    "latitude": "42.10720980",
    "longitude": "8.81793860",
    "wikiDataId": null
  },
  {
    "id": 155178,
    "name": "Sampolo",
    "state_id": 4996,
    "state_code": "2A",
    "country_id": 75,
    "country_code": "FR",
    "latitude": "41.94881470",
    "longitude": "9.10113750",
    "wikiDataId": null
  },
  {
    "id": 155179,
    "name": "San-Gavino-di-Carbini",
    "state_id": 4996,
    "state_code": "2A",
    "country_id": 75,
    "country_code": "FR",
    "latitude": "41.68609470",
    "longitude": "9.06496120",
    "wikiDataId": null
  },
  {
    "id": 155182,
    "name": "Sant'Andréa-d'Orcino",
    "state_id": 4996,
    "state_code": "2A",
    "country_id": 75,
    "country_code": "FR",
    "latitude": "42.04525520",
    "longitude": "8.70199430",
    "wikiDataId": null
  },
  {
    "id": 155180,
    "name": "Santa-Maria-Figaniella",
    "state_id": 4996,
    "state_code": "2A",
    "country_id": 75,
    "country_code": "FR",
    "latitude": "41.72890300",
    "longitude": "8.96815770",
    "wikiDataId": null
  },
  {
    "id": 155181,
    "name": "Santa-Maria-Siché",
    "state_id": 4996,
    "state_code": "2A",
    "country_id": 75,
    "country_code": "FR",
    "latitude": "41.88386590",
    "longitude": "8.94073540",
    "wikiDataId": null
  },
  {
    "id": 155183,
    "name": "Sari-d'Orcino",
    "state_id": 4996,
    "state_code": "2A",
    "country_id": 75,
    "country_code": "FR",
    "latitude": "42.06410360",
    "longitude": "8.75449250",
    "wikiDataId": null
  },
  {
    "id": 155184,
    "name": "Sarrola-Carcopino",
    "state_id": 4996,
    "state_code": "2A",
    "country_id": 75,
    "country_code": "FR",
    "latitude": "41.99819430",
    "longitude": "8.74521320",
    "wikiDataId": null
  },
  {
    "id": 155185,
    "name": "Serra-di-Ferro",
    "state_id": 4996,
    "state_code": "2A",
    "country_id": 75,
    "country_code": "FR",
    "latitude": "41.74441690",
    "longitude": "8.73185340",
    "wikiDataId": null
  },
  {
    "id": 155186,
    "name": "Serra-di-Scopamène",
    "state_id": 4996,
    "state_code": "2A",
    "country_id": 75,
    "country_code": "FR",
    "latitude": "41.78278420",
    "longitude": "9.03631850",
    "wikiDataId": null
  },
  {
    "id": 155187,
    "name": "Serriera",
    "state_id": 4996,
    "state_code": "2A",
    "country_id": 75,
    "country_code": "FR",
    "latitude": "42.30848100",
    "longitude": "8.64718220",
    "wikiDataId": null
  },
  {
    "id": 155188,
    "name": "Soccia",
    "state_id": 4996,
    "state_code": "2A",
    "country_id": 75,
    "country_code": "FR",
    "latitude": "42.20663760",
    "longitude": "8.84852820",
    "wikiDataId": null
  },
  {
    "id": 155189,
    "name": "Sollacaro",
    "state_id": 4996,
    "state_code": "2A",
    "country_id": 75,
    "country_code": "FR",
    "latitude": "41.74211740",
    "longitude": "8.79357890",
    "wikiDataId": null
  },
  {
    "id": 155190,
    "name": "Sorbollano",
    "state_id": 4996,
    "state_code": "2A",
    "country_id": 75,
    "country_code": "FR",
    "latitude": "41.75214510",
    "longitude": "9.07076950",
    "wikiDataId": null
  },
  {
    "id": 155191,
    "name": "Sotta",
    "state_id": 4996,
    "state_code": "2A",
    "country_id": 75,
    "country_code": "FR",
    "latitude": "41.55589090",
    "longitude": "9.01187780",
    "wikiDataId": null
  },
  {
    "id": 155192,
    "name": "Tasso",
    "state_id": 4996,
    "state_code": "2A",
    "country_id": 75,
    "country_code": "FR",
    "latitude": "41.94768210",
    "longitude": "9.04918930",
    "wikiDataId": null
  },
  {
    "id": 155193,
    "name": "Tavaco",
    "state_id": 4996,
    "state_code": "2A",
    "country_id": 75,
    "country_code": "FR",
    "latitude": "42.03272730",
    "longitude": "8.84606610",
    "wikiDataId": null
  },
  {
    "id": 155194,
    "name": "Tavera",
    "state_id": 4996,
    "state_code": "2A",
    "country_id": 75,
    "country_code": "FR",
    "latitude": "42.07299640",
    "longitude": "8.86480670",
    "wikiDataId": null
  },
  {
    "id": 155195,
    "name": "Tolla",
    "state_id": 4996,
    "state_code": "2A",
    "country_id": 75,
    "country_code": "FR",
    "latitude": "41.96787260",
    "longitude": "8.88503090",
    "wikiDataId": null
  },
  {
    "id": 155196,
    "name": "Ucciani",
    "state_id": 4996,
    "state_code": "2A",
    "country_id": 75,
    "country_code": "FR",
    "latitude": "42.05153310",
    "longitude": "8.90293770",
    "wikiDataId": null
  },
  {
    "id": 155197,
    "name": "Urbalacone",
    "state_id": 4996,
    "state_code": "2A",
    "country_id": 75,
    "country_code": "FR",
    "latitude": "41.82347630",
    "longitude": "8.90763450",
    "wikiDataId": null
  },
  {
    "id": 155198,
    "name": "Valle-di-Mezzana",
    "state_id": 4996,
    "state_code": "2A",
    "country_id": 75,
    "country_code": "FR",
    "latitude": "42.02532520",
    "longitude": "8.77545390",
    "wikiDataId": null
  },
  {
    "id": 155199,
    "name": "Vero",
    "state_id": 4996,
    "state_code": "2A",
    "country_id": 75,
    "country_code": "FR",
    "latitude": "42.05769310",
    "longitude": "8.83737700",
    "wikiDataId": null
  },
  {
    "id": 155200,
    "name": "Vico",
    "state_id": 4996,
    "state_code": "2A",
    "country_id": 75,
    "country_code": "FR",
    "latitude": "42.14633020",
    "longitude": "8.57127000",
    "wikiDataId": null
  },
  {
    "id": 155201,
    "name": "Viggianello",
    "state_id": 4996,
    "state_code": "2A",
    "country_id": 75,
    "country_code": "FR",
    "latitude": "41.67158340",
    "longitude": "8.90493080",
    "wikiDataId": null
  },
  {
    "id": 155202,
    "name": "Villanova",
    "state_id": 4996,
    "state_code": "2A",
    "country_id": 75,
    "country_code": "FR",
    "latitude": "41.96415850",
    "longitude": "8.57898450",
    "wikiDataId": null
  },
  {
    "id": 155203,
    "name": "Zérubia",
    "state_id": 4996,
    "state_code": "2A",
    "country_id": 75,
    "country_code": "FR",
    "latitude": "41.74596790",
    "longitude": "8.97213510",
    "wikiDataId": null
  },
  {
    "id": 155204,
    "name": "Zévaco",
    "state_id": 4996,
    "state_code": "2A",
    "country_id": 75,
    "country_code": "FR",
    "latitude": "41.88906400",
    "longitude": "9.00460850",
    "wikiDataId": null
  },
  {
    "id": 155205,
    "name": "Zicavo",
    "state_id": 4996,
    "state_code": "2A",
    "country_id": 75,
    "country_code": "FR",
    "latitude": "41.88412060",
    "longitude": "9.00447510",
    "wikiDataId": null
  },
  {
    "id": 155206,
    "name": "Zigliara",
    "state_id": 4996,
    "state_code": "2A",
    "country_id": 75,
    "country_code": "FR",
    "latitude": "41.83614310",
    "longitude": "8.94211810",
    "wikiDataId": null
  },
  {
    "id": 155207,
    "name": "Zoza",
    "state_id": 4996,
    "state_code": "2A",
    "country_id": 75,
    "country_code": "FR",
    "latitude": "41.72266780",
    "longitude": "9.02871580",
    "wikiDataId": null
  }
]