[
  {
    "id": 97176,
    "name": "Biljača",
    "state_id": 3721,
    "state_code": "24",
    "country_id": 196,
    "country_code": "RS",
    "latitude": "42.35518000",
    "longitude": "21.74781000",
    "wikiDataId": null
  },
  {
    "id": 155065,
    "name": "Bosilegrad",
    "state_id": 3721,
    "state_code": "24",
    "country_id": 196,
    "country_code": "RS",
    "latitude": "42.50233740",
    "longitude": "22.41940440",
    "wikiDataId": null
  },
  {
    "id": 155066,
    "name": "Bujanovac",
    "state_id": 3721,
    "state_code": "24",
    "country_id": 196,
    "country_code": "RS",
    "latitude": "42.45675480",
    "longitude": "21.74726470",
    "wikiDataId": null
  },
  {
    "id": 97295,
    "name": "Miratovac",
    "state_id": 3721,
    "state_code": "24",
    "country_id": 196,
    "country_code": "RS",
    "latitude": "42.25846000",
    "longitude": "21.66456000",
    "wikiDataId": null
  },
  {
    "id": 155068,
    "name": "Preševo",
    "state_id": 3721,
    "state_code": "24",
    "country_id": 196,
    "country_code": "RS",
    "latitude": "42.31581340",
    "longitude": "21.57144860",
    "wikiDataId": null
  },
  {
    "id": 97355,
    "name": "Radovnica",
    "state_id": 3721,
    "state_code": "24",
    "country_id": 196,
    "country_code": "RS",
    "latitude": "42.43364000",
    "longitude": "22.22861000",
    "wikiDataId": null
  },
  {
    "id": 97356,
    "name": "Rajince",
    "state_id": 3721,
    "state_code": "24",
    "country_id": 196,
    "country_code": "RS",
    "latitude": "42.37870000",
    "longitude": "21.69591000",
    "wikiDataId": null
  },
  {
    "id": 97373,
    "name": "Samoljica",
    "state_id": 3721,
    "state_code": "24",
    "country_id": 196,
    "country_code": "RS",
    "latitude": "42.38445000",
    "longitude": "21.73708000",
    "wikiDataId": null
  },
  {
    "id": 155069,
    "name": "Surdulica",
    "state_id": 3721,
    "state_code": "24",
    "country_id": 196,
    "country_code": "RS",
    "latitude": "42.69008190",
    "longitude": "22.15599050",
    "wikiDataId": null
  },
  {
    "id": 155070,
    "name": "Trgovište",
    "state_id": 3721,
    "state_code": "24",
    "country_id": 196,
    "country_code": "RS",
    "latitude": "42.35659850",
    "longitude": "22.02351020",
    "wikiDataId": null
  },
  {
    "id": 155067,
    "name": "Vladičin Han",
    "state_id": 3721,
    "state_code": "24",
    "country_id": 196,
    "country_code": "RS",
    "latitude": "42.70738320",
    "longitude": "22.04413920",
    "wikiDataId": null
  },
  {
    "id": 97440,
    "name": "Vranje",
    "state_id": 3721,
    "state_code": "24",
    "country_id": 196,
    "country_code": "RS",
    "latitude": "42.55139000",
    "longitude": "21.90028000",
    "wikiDataId": null
  },
  {
    "id": 97475,
    "name": "Žujince",
    "state_id": 3721,
    "state_code": "24",
    "country_id": 196,
    "country_code": "RS",
    "latitude": "42.31568000",
    "longitude": "21.70212000",
    "wikiDataId": null
  }
]