[
  {
    "id": 58064,
    "name": "Bishnupur",
    "state_id": 4010,
    "state_code": "MN",
    "country_id": 101,
    "country_code": "IN",
    "latitude": "24.60769000",
    "longitude": "93.77998000",
    "wikiDataId": null
  },
  {
    "id": 153522,
    "name": "Chandel",
    "state_id": 4010,
    "state_code": "MN",
    "country_id": 101,
    "country_code": "IN",
    "latitude": "24.57390000",
    "longitude": "94.29130000",
    "wikiDataId": null
  },
  {
    "id": 131585,
    "name": "Churachandpur",
    "state_id": 4010,
    "state_code": "MN",
    "country_id": 101,
    "country_code": "IN",
    "latitude": "24.33333000",
    "longitude": "93.68333000",
    "wikiDataId": null
  },
  {
    "id": 132162,
    "name": "Imphal East",
    "state_id": 4010,
    "state_code": "MN",
    "country_id": 101,
    "country_code": "IN",
    "latitude": "24.79110000",
    "longitude": "93.93480000",
    "wikiDataId": null
  },
  {
    "id": 132953,
    "name": "Imphal West",
    "state_id": 4010,
    "state_code": "MN",
    "country_id": 101,
    "country_code": "IN",
    "latitude": "24.60998000",
    "longitude": "93.88873000",
    "wikiDataId": null
  },
  {
    "id": 153527,
    "name": "Jiribam",
    "state_id": 4010,
    "state_code": "MN",
    "country_id": 101,
    "country_code": "IN",
    "latitude": "24.79410040",
    "longitude": "93.11709860",
    "wikiDataId": null
  },
  {
    "id": 132341,
    "name": "Kakching",
    "state_id": 4010,
    "state_code": "MN",
    "country_id": 101,
    "country_code": "IN",
    "latitude": "24.49820000",
    "longitude": "93.98126000",
    "wikiDataId": null
  },
  {
    "id": 153526,
    "name": "Kamjong",
    "state_id": 4010,
    "state_code": "MN",
    "country_id": 101,
    "country_code": "IN",
    "latitude": "24.85996860",
    "longitude": "94.50586430",
    "wikiDataId": null
  },
  {
    "id": 153523,
    "name": "Kangpokpi",
    "state_id": 4010,
    "state_code": "MN",
    "country_id": 101,
    "country_code": "IN",
    "latitude": "24.08950000",
    "longitude": "93.99010000",
    "wikiDataId": null
  },
  {
    "id": 153528,
    "name": "Noney",
    "state_id": 4010,
    "state_code": "MN",
    "country_id": 101,
    "country_code": "IN",
    "latitude": "24.84911310",
    "longitude": "93.59673660",
    "wikiDataId": null
  },
  {
    "id": 153525,
    "name": "Pherzawl",
    "state_id": 4010,
    "state_code": "MN",
    "country_id": 101,
    "country_code": "IN",
    "latitude": "24.14370000",
    "longitude": "93.52700000",
    "wikiDataId": null
  },
  {
    "id": 133837,
    "name": "Senapati",
    "state_id": 4010,
    "state_code": "MN",
    "country_id": 101,
    "country_code": "IN",
    "latitude": "25.26705000",
    "longitude": "94.02237000",
    "wikiDataId": null
  },
  {
    "id": 134109,
    "name": "Tamenglong",
    "state_id": 4010,
    "state_code": "MN",
    "country_id": 101,
    "country_code": "IN",
    "latitude": "24.97548000",
    "longitude": "93.51563000",
    "wikiDataId": null
  },
  {
    "id": 153524,
    "name": "Tengnoupal",
    "state_id": 4010,
    "state_code": "MN",
    "country_id": 101,
    "country_code": "IN",
    "latitude": "24.39450000",
    "longitude": "94.10530000",
    "wikiDataId": null
  },
  {
    "id": 134159,
    "name": "Thoubal",
    "state_id": 4010,
    "state_code": "MN",
    "country_id": 101,
    "country_code": "IN",
    "latitude": "24.62205000",
    "longitude": "94.01001000",
    "wikiDataId": null
  },
  {
    "id": 134264,
    "name": "Ukhrul",
    "state_id": 4010,
    "state_code": "MN",
    "country_id": 101,
    "country_code": "IN",
    "latitude": "25.04828000",
    "longitude": "94.35883000",
    "wikiDataId": null
  }
]