[
  {
    "id": 153350,
    "name": "Adra",
    "state_id": 4853,
    "state_code": "WB",
    "country_id": 101,
    "country_code": "IN",
    "latitude": "23.49601500",
    "longitude": "86.67249000",
    "wikiDataId": null
  },
  {
    "id": 141852,
    "name": "Ahmedpur",
    "state_id": 4853,
    "state_code": "WB",
    "country_id": 101,
    "country_code": "IN",
    "latitude": "23.83009000",
    "longitude": "87.68661000",
    "wikiDataId": null
  },
  {
    "id": 141854,
    "name": "Aknapur",
    "state_id": 4853,
    "state_code": "WB",
    "country_id": 101,
    "country_code": "IN",
    "latitude": "18.38576389",
    "longitude": "77.27225278",
    "wikiDataId": null
  },
  {
    "id": 141855,
    "name": "Alipurduar",
    "state_id": 4853,
    "state_code": "WB",
    "country_id": 101,
    "country_code": "IN",
    "latitude": "26.49136000",
    "longitude": "89.52796000",
    "wikiDataId": null
  },
  {
    "id": 142112,
    "name": "Amlagora",
    "state_id": 4853,
    "state_code": "WB",
    "country_id": 101,
    "country_code": "IN",
    "latitude": "22.84616000",
    "longitude": "87.33559000",
    "wikiDataId": null
  },
  {
    "id": 141857,
    "name": "Amta",
    "state_id": 4853,
    "state_code": "WB",
    "country_id": 101,
    "country_code": "IN",
    "latitude": "22.57333333",
    "longitude": "88.01611111",
    "wikiDataId": null
  },
  {
    "id": 141858,
    "name": "Amtala",
    "state_id": 4853,
    "state_code": "WB",
    "country_id": 101,
    "country_code": "IN",
    "latitude": "22.22000000",
    "longitude": "88.17000000",
    "wikiDataId": null
  },
  {
    "id": 141859,
    "name": "Andal",
    "state_id": 4853,
    "state_code": "WB",
    "country_id": 101,
    "country_code": "IN",
    "latitude": "23.57430190",
    "longitude": "87.18532360",
    "wikiDataId": null
  },
  {
    "id": 141860,
    "name": "Arambagh community development block",
    "state_id": 4853,
    "state_code": "WB",
    "country_id": 101,
    "country_code": "IN",
    "latitude": "22.88000000",
    "longitude": "87.78000000",
    "wikiDataId": null
  },
  {
    "id": 141861,
    "name": "Asansol",
    "state_id": 4853,
    "state_code": "WB",
    "country_id": 101,
    "country_code": "IN",
    "latitude": "23.68333333",
    "longitude": "86.96666667",
    "wikiDataId": null
  },
  {
    "id": 141862,
    "name": "Ashoknagar Kalyangarh",
    "state_id": 4853,
    "state_code": "WB",
    "country_id": 101,
    "country_code": "IN",
    "latitude": "22.83300000",
    "longitude": "88.63300000",
    "wikiDataId": null
  },
  {
    "id": 141863,
    "name": "Badkulla",
    "state_id": 4853,
    "state_code": "WB",
    "country_id": 101,
    "country_code": "IN",
    "latitude": "23.28000000",
    "longitude": "88.53000000",
    "wikiDataId": null
  },
  {
    "id": 141864,
    "name": "Baduria",
    "state_id": 4853,
    "state_code": "WB",
    "country_id": 101,
    "country_code": "IN",
    "latitude": "22.74000000",
    "longitude": "88.79000000",
    "wikiDataId": null
  },
  {
    "id": 141865,
    "name": "Bagdogra",
    "state_id": 4853,
    "state_code": "WB",
    "country_id": 101,
    "country_code": "IN",
    "latitude": "26.69980400",
    "longitude": "88.31939200",
    "wikiDataId": null
  },
  {
    "id": 141866,
    "name": "Bagnan",
    "state_id": 4853,
    "state_code": "WB",
    "country_id": 101,
    "country_code": "IN",
    "latitude": "22.47000000",
    "longitude": "87.97000000",
    "wikiDataId": null
  },
  {
    "id": 141867,
    "name": "Bagula",
    "state_id": 4853,
    "state_code": "WB",
    "country_id": 101,
    "country_code": "IN",
    "latitude": "23.33500000",
    "longitude": "88.64400000",
    "wikiDataId": null
  },
  {
    "id": 141868,
    "name": "Bahula",
    "state_id": 4853,
    "state_code": "WB",
    "country_id": 101,
    "country_code": "IN",
    "latitude": "23.65741900",
    "longitude": "87.19597400",
    "wikiDataId": null
  },
  {
    "id": 141869,
    "name": "Baidyabati",
    "state_id": 4853,
    "state_code": "WB",
    "country_id": 101,
    "country_code": "IN",
    "latitude": "22.79000000",
    "longitude": "88.32000000",
    "wikiDataId": null
  },
  {
    "id": 141870,
    "name": "Bakreswar",
    "state_id": 4853,
    "state_code": "WB",
    "country_id": 101,
    "country_code": "IN",
    "latitude": "23.88320000",
    "longitude": "87.37265000",
    "wikiDataId": null
  },
  {
    "id": 141871,
    "name": "Balarampur",
    "state_id": 4853,
    "state_code": "WB",
    "country_id": 101,
    "country_code": "IN",
    "latitude": "23.09714000",
    "longitude": "86.22292000",
    "wikiDataId": null
  },
  {
    "id": 141903,
    "name": "Bali Chak",
    "state_id": 4853,
    "state_code": "WB",
    "country_id": 101,
    "country_code": "IN",
    "latitude": "22.36482000",
    "longitude": "87.55304000",
    "wikiDataId": null
  },
  {
    "id": 141872,
    "name": "Bally",
    "state_id": 4853,
    "state_code": "WB",
    "country_id": 101,
    "country_code": "IN",
    "latitude": "22.65000000",
    "longitude": "88.34000000",
    "wikiDataId": null
  },
  {
    "id": 141873,
    "name": "Balurghat",
    "state_id": 4853,
    "state_code": "WB",
    "country_id": 101,
    "country_code": "IN",
    "latitude": "25.21666667",
    "longitude": "88.76666667",
    "wikiDataId": null
  },
  {
    "id": 141874,
    "name": "Bamangola community development block",
    "state_id": 4853,
    "state_code": "WB",
    "country_id": 101,
    "country_code": "IN",
    "latitude": "25.17000000",
    "longitude": "88.33500000",
    "wikiDataId": null
  },
  {
    "id": 141875,
    "name": "Baneswar",
    "state_id": 4853,
    "state_code": "WB",
    "country_id": 101,
    "country_code": "IN",
    "latitude": "26.65000000",
    "longitude": "89.81666667",
    "wikiDataId": null
  },
  {
    "id": 141876,
    "name": "Bangaon",
    "state_id": 4853,
    "state_code": "WB",
    "country_id": 101,
    "country_code": "IN",
    "latitude": "23.07000000",
    "longitude": "88.82000000",
    "wikiDataId": null
  },
  {
    "id": 141877,
    "name": "Bankra",
    "state_id": 4853,
    "state_code": "WB",
    "country_id": 101,
    "country_code": "IN",
    "latitude": "22.63000000",
    "longitude": "88.30000000",
    "wikiDataId": null
  },
  {
    "id": 141878,
    "name": "Bankura",
    "state_id": 4853,
    "state_code": "WB",
    "country_id": 101,
    "country_code": "IN",
    "latitude": "23.25000000",
    "longitude": "87.06666667",
    "wikiDataId": null
  },
  {
    "id": 141879,
    "name": "Bansberia",
    "state_id": 4853,
    "state_code": "WB",
    "country_id": 101,
    "country_code": "IN",
    "latitude": "22.97000000",
    "longitude": "88.40000000",
    "wikiDataId": null
  },
  {
    "id": 141880,
    "name": "Bansihari community development block",
    "state_id": 4853,
    "state_code": "WB",
    "country_id": 101,
    "country_code": "IN",
    "latitude": "25.40000000",
    "longitude": "88.41670000",
    "wikiDataId": null
  },
  {
    "id": 141881,
    "name": "Barabazar",
    "state_id": 4853,
    "state_code": "WB",
    "country_id": 101,
    "country_code": "IN",
    "latitude": "23.36000000",
    "longitude": "86.65000000",
    "wikiDataId": null
  },
  {
    "id": 141882,
    "name": "Baranagar",
    "state_id": 4853,
    "state_code": "WB",
    "country_id": 101,
    "country_code": "IN",
    "latitude": "22.64000000",
    "longitude": "88.37000000",
    "wikiDataId": null
  },
  {
    "id": 141883,
    "name": "Barasat",
    "state_id": 4853,
    "state_code": "WB",
    "country_id": 101,
    "country_code": "IN",
    "latitude": "22.23333333",
    "longitude": "88.45000000",
    "wikiDataId": null
  },
  {
    "id": 141884,
    "name": "Bardhaman",
    "state_id": 4853,
    "state_code": "WB",
    "country_id": 101,
    "country_code": "IN",
    "latitude": "23.25000000",
    "longitude": "87.85000000",
    "wikiDataId": null
  },
  {
    "id": 141885,
    "name": "Barjora",
    "state_id": 4853,
    "state_code": "WB",
    "country_id": 101,
    "country_code": "IN",
    "latitude": "23.43333333",
    "longitude": "87.28333333",
    "wikiDataId": null
  },
  {
    "id": 141886,
    "name": "Barrackpore",
    "state_id": 4853,
    "state_code": "WB",
    "country_id": 101,
    "country_code": "IN",
    "latitude": "22.75000000",
    "longitude": "88.36666667",
    "wikiDataId": null
  },
  {
    "id": 141887,
    "name": "Baruipur",
    "state_id": 4853,
    "state_code": "WB",
    "country_id": 101,
    "country_code": "IN",
    "latitude": "22.35000000",
    "longitude": "88.44000000",
    "wikiDataId": null
  },
  {
    "id": 141888,
    "name": "Basanti",
    "state_id": 4853,
    "state_code": "WB",
    "country_id": 101,
    "country_code": "IN",
    "latitude": "22.18915340",
    "longitude": "88.67056850",
    "wikiDataId": null
  },
  {
    "id": 141889,
    "name": "Basirhat",
    "state_id": 4853,
    "state_code": "WB",
    "country_id": 101,
    "country_code": "IN",
    "latitude": "22.65722222",
    "longitude": "88.89416667",
    "wikiDataId": null
  },
  {
    "id": 141904,
    "name": "Bawali",
    "state_id": 4853,
    "state_code": "WB",
    "country_id": 101,
    "country_code": "IN",
    "latitude": "22.42563000",
    "longitude": "88.19336000",
    "wikiDataId": null
  },
  {
    "id": 141890,
    "name": "Begampur",
    "state_id": 4853,
    "state_code": "WB",
    "country_id": 101,
    "country_code": "IN",
    "latitude": "22.74000000",
    "longitude": "88.24000000",
    "wikiDataId": null
  },
  {
    "id": 141891,
    "name": "Belda",
    "state_id": 4853,
    "state_code": "WB",
    "country_id": 101,
    "country_code": "IN",
    "latitude": "22.08000000",
    "longitude": "87.35000000",
    "wikiDataId": null
  },
  {
    "id": 141892,
    "name": "Beldanga",
    "state_id": 4853,
    "state_code": "WB",
    "country_id": 101,
    "country_code": "IN",
    "latitude": "23.93000000",
    "longitude": "88.25000000",
    "wikiDataId": null
  },
  {
    "id": 141893,
    "name": "Beliatore",
    "state_id": 4853,
    "state_code": "WB",
    "country_id": 101,
    "country_code": "IN",
    "latitude": "23.33333333",
    "longitude": "87.21666667",
    "wikiDataId": null
  },
  {
    "id": 141894,
    "name": "Berhampore",
    "state_id": 4853,
    "state_code": "WB",
    "country_id": 101,
    "country_code": "IN",
    "latitude": "24.10000000",
    "longitude": "88.25000000",
    "wikiDataId": null
  },
  {
    "id": 141895,
    "name": "Bhadreswar",
    "state_id": 4853,
    "state_code": "WB",
    "country_id": 101,
    "country_code": "IN",
    "latitude": "22.82000000",
    "longitude": "88.35000000",
    "wikiDataId": null
  },
  {
    "id": 141896,
    "name": "Bhandardaha",
    "state_id": 4853,
    "state_code": "WB",
    "country_id": 101,
    "country_code": "IN",
    "latitude": "22.62000000",
    "longitude": "88.21000000",
    "wikiDataId": null
  },
  {
    "id": 141897,
    "name": "Bhatpara",
    "state_id": 4853,
    "state_code": "WB",
    "country_id": 101,
    "country_code": "IN",
    "latitude": "22.86666667",
    "longitude": "88.41666667",
    "wikiDataId": null
  },
  {
    "id": 141898,
    "name": "Birbhum district",
    "state_id": 4853,
    "state_code": "WB",
    "country_id": 101,
    "country_code": "IN",
    "latitude": "24.00000000",
    "longitude": "87.58333000",
    "wikiDataId": null
  },
  {
    "id": 141899,
    "name": "Birpara",
    "state_id": 4853,
    "state_code": "WB",
    "country_id": 101,
    "country_code": "IN",
    "latitude": "26.50000000",
    "longitude": "89.50000000",
    "wikiDataId": null
  },
  {
    "id": 141900,
    "name": "Bishnupur",
    "state_id": 4853,
    "state_code": "WB",
    "country_id": 101,
    "country_code": "IN",
    "latitude": "22.38000000",
    "longitude": "88.27000000",
    "wikiDataId": null
  },
  {
    "id": 141901,
    "name": "Bolpur",
    "state_id": 4853,
    "state_code": "WB",
    "country_id": 101,
    "country_code": "IN",
    "latitude": "23.67000000",
    "longitude": "87.72000000",
    "wikiDataId": null
  },
  {
    "id": 141902,
    "name": "Budge Budge",
    "state_id": 4853,
    "state_code": "WB",
    "country_id": 101,
    "country_code": "IN",
    "latitude": "22.47000000",
    "longitude": "88.17000000",
    "wikiDataId": null
  },
  {
    "id": 141905,
    "name": "Canning",
    "state_id": 4853,
    "state_code": "WB",
    "country_id": 101,
    "country_code": "IN",
    "latitude": "22.32000000",
    "longitude": "88.67000000",
    "wikiDataId": null
  },
  {
    "id": 141906,
    "name": "Chakapara",
    "state_id": 4853,
    "state_code": "WB",
    "country_id": 101,
    "country_code": "IN",
    "latitude": "22.63000000",
    "longitude": "88.35000000",
    "wikiDataId": null
  },
  {
    "id": 141907,
    "name": "Chakdaha",
    "state_id": 4853,
    "state_code": "WB",
    "country_id": 101,
    "country_code": "IN",
    "latitude": "23.08000000",
    "longitude": "88.52000000",
    "wikiDataId": null
  },
  {
    "id": 141908,
    "name": "Champadanga",
    "state_id": 4853,
    "state_code": "WB",
    "country_id": 101,
    "country_code": "IN",
    "latitude": "22.83000000",
    "longitude": "87.96000000",
    "wikiDataId": null
  },
  {
    "id": 141914,
    "name": "Champahati",
    "state_id": 4853,
    "state_code": "WB",
    "country_id": 101,
    "country_code": "IN",
    "latitude": "22.40026000",
    "longitude": "88.49209000",
    "wikiDataId": null
  },
  {
    "id": 141909,
    "name": "Champdani",
    "state_id": 4853,
    "state_code": "WB",
    "country_id": 101,
    "country_code": "IN",
    "latitude": "22.80000000",
    "longitude": "88.37000000",
    "wikiDataId": null
  },
  {
    "id": 141910,
    "name": "Chandannagar",
    "state_id": 4853,
    "state_code": "WB",
    "country_id": 101,
    "country_code": "IN",
    "latitude": "22.86666667",
    "longitude": "88.38333333",
    "wikiDataId": null
  },
  {
    "id": 141911,
    "name": "Chandrakona",
    "state_id": 4853,
    "state_code": "WB",
    "country_id": 101,
    "country_code": "IN",
    "latitude": "22.73000000",
    "longitude": "87.52000000",
    "wikiDataId": null
  },
  {
    "id": 141912,
    "name": "Chittaranjan",
    "state_id": 4853,
    "state_code": "WB",
    "country_id": 101,
    "country_code": "IN",
    "latitude": "23.87000000",
    "longitude": "86.87000000",
    "wikiDataId": null
  },
  {
    "id": 141913,
    "name": "Churulia",
    "state_id": 4853,
    "state_code": "WB",
    "country_id": 101,
    "country_code": "IN",
    "latitude": "23.78000000",
    "longitude": "87.08000000",
    "wikiDataId": null
  },
  {
    "id": 141915,
    "name": "Contai",
    "state_id": 4853,
    "state_code": "WB",
    "country_id": 101,
    "country_code": "IN",
    "latitude": "21.78000000",
    "longitude": "87.75000000",
    "wikiDataId": null
  },
  {
    "id": 141916,
    "name": "Cooch Behar",
    "state_id": 4853,
    "state_code": "WB",
    "country_id": 101,
    "country_code": "IN",
    "latitude": "26.31666667",
    "longitude": "89.43333333",
    "wikiDataId": null
  },
  {
    "id": 141917,
    "name": "Cossimbazar",
    "state_id": 4853,
    "state_code": "WB",
    "country_id": 101,
    "country_code": "IN",
    "latitude": "24.12000000",
    "longitude": "88.28000000",
    "wikiDataId": null
  },
  {
    "id": 141918,
    "name": "Dakshin Dinajpur district",
    "state_id": 4853,
    "state_code": "WB",
    "country_id": 101,
    "country_code": "IN",
    "latitude": "25.22000000",
    "longitude": "88.76000000",
    "wikiDataId": null
  },
  {
    "id": 141919,
    "name": "Dalkola",
    "state_id": 4853,
    "state_code": "WB",
    "country_id": 101,
    "country_code": "IN",
    "latitude": "25.87577000",
    "longitude": "87.84009000",
    "wikiDataId": null
  },
  {
    "id": 141920,
    "name": "Dam Dam",
    "state_id": 4853,
    "state_code": "WB",
    "country_id": 101,
    "country_code": "IN",
    "latitude": "22.63333333",
    "longitude": "88.42277778",
    "wikiDataId": null
  },
  {
    "id": 141921,
    "name": "Darjeeling",
    "state_id": 4853,
    "state_code": "WB",
    "country_id": 101,
    "country_code": "IN",
    "latitude": "27.04166667",
    "longitude": "88.26305556",
    "wikiDataId": null
  },
  {
    "id": 141922,
    "name": "Daulatpur",
    "state_id": 4853,
    "state_code": "WB",
    "country_id": 101,
    "country_code": "IN",
    "latitude": "25.32605000",
    "longitude": "88.32989000",
    "wikiDataId": null
  },
  {
    "id": 141923,
    "name": "Debagram",
    "state_id": 4853,
    "state_code": "WB",
    "country_id": 101,
    "country_code": "IN",
    "latitude": "23.68333333",
    "longitude": "88.28333333",
    "wikiDataId": null
  },
  {
    "id": 141924,
    "name": "Debipur",
    "state_id": 4853,
    "state_code": "WB",
    "country_id": 101,
    "country_code": "IN",
    "latitude": "24.25029000",
    "longitude": "88.61824000",
    "wikiDataId": null
  },
  {
    "id": 141925,
    "name": "Dhaniakhali community development block",
    "state_id": 4853,
    "state_code": "WB",
    "country_id": 101,
    "country_code": "IN",
    "latitude": "22.97000000",
    "longitude": "88.10000000",
    "wikiDataId": null
  },
  {
    "id": 141926,
    "name": "Dhulagari",
    "state_id": 4853,
    "state_code": "WB",
    "country_id": 101,
    "country_code": "IN",
    "latitude": "22.58222222",
    "longitude": "88.17111111",
    "wikiDataId": null
  },
  {
    "id": 141927,
    "name": "Dhulian",
    "state_id": 4853,
    "state_code": "WB",
    "country_id": 101,
    "country_code": "IN",
    "latitude": "24.68000000",
    "longitude": "87.97000000",
    "wikiDataId": null
  },
  {
    "id": 141928,
    "name": "Dhupguri",
    "state_id": 4853,
    "state_code": "WB",
    "country_id": 101,
    "country_code": "IN",
    "latitude": "26.60000000",
    "longitude": "89.02000000",
    "wikiDataId": null
  },
  {
    "id": 141929,
    "name": "Diamond Harbour",
    "state_id": 4853,
    "state_code": "WB",
    "country_id": 101,
    "country_code": "IN",
    "latitude": "22.20000000",
    "longitude": "88.20000000",
    "wikiDataId": null
  },
  {
    "id": 141930,
    "name": "Digha",
    "state_id": 4853,
    "state_code": "WB",
    "country_id": 101,
    "country_code": "IN",
    "latitude": "21.68000000",
    "longitude": "87.55000000",
    "wikiDataId": null
  },
  {
    "id": 141931,
    "name": "Dinhata",
    "state_id": 4853,
    "state_code": "WB",
    "country_id": 101,
    "country_code": "IN",
    "latitude": "26.13000000",
    "longitude": "89.47000000",
    "wikiDataId": null
  },
  {
    "id": 141932,
    "name": "Domjur",
    "state_id": 4853,
    "state_code": "WB",
    "country_id": 101,
    "country_code": "IN",
    "latitude": "22.64000000",
    "longitude": "88.22000000",
    "wikiDataId": null
  },
  {
    "id": 141933,
    "name": "Dubrajpur",
    "state_id": 4853,
    "state_code": "WB",
    "country_id": 101,
    "country_code": "IN",
    "latitude": "23.80000000",
    "longitude": "87.38000000",
    "wikiDataId": null
  },
  {
    "id": 141934,
    "name": "Durgapur",
    "state_id": 4853,
    "state_code": "WB",
    "country_id": 101,
    "country_code": "IN",
    "latitude": "23.55000000",
    "longitude": "87.32000000",
    "wikiDataId": null
  },
  {
    "id": 141935,
    "name": "Egra",
    "state_id": 4853,
    "state_code": "WB",
    "country_id": 101,
    "country_code": "IN",
    "latitude": "21.90000000",
    "longitude": "87.53000000",
    "wikiDataId": null
  },
  {
    "id": 141936,
    "name": "Falakata",
    "state_id": 4853,
    "state_code": "WB",
    "country_id": 101,
    "country_code": "IN",
    "latitude": "26.53000000",
    "longitude": "89.20000000",
    "wikiDataId": null
  },
  {
    "id": 141937,
    "name": "Farakka",
    "state_id": 4853,
    "state_code": "WB",
    "country_id": 101,
    "country_code": "IN",
    "latitude": "24.81667000",
    "longitude": "87.90000000",
    "wikiDataId": null
  },
  {
    "id": 141938,
    "name": "Fort Gloster",
    "state_id": 4853,
    "state_code": "WB",
    "country_id": 101,
    "country_code": "IN",
    "latitude": "22.50444444",
    "longitude": "88.18333333",
    "wikiDataId": null
  },
  {
    "id": 141939,
    "name": "Gaighata community development block",
    "state_id": 4853,
    "state_code": "WB",
    "country_id": 101,
    "country_code": "IN",
    "latitude": "22.93000000",
    "longitude": "88.73000000",
    "wikiDataId": null
  },
  {
    "id": 141940,
    "name": "Gairkata",
    "state_id": 4853,
    "state_code": "WB",
    "country_id": 101,
    "country_code": "IN",
    "latitude": "26.68000000",
    "longitude": "89.03000000",
    "wikiDataId": null
  },
  {
    "id": 141941,
    "name": "Gangadharpur",
    "state_id": 4853,
    "state_code": "WB",
    "country_id": 101,
    "country_code": "IN",
    "latitude": "22.76040000",
    "longitude": "88.22180000",
    "wikiDataId": null
  },
  {
    "id": 141942,
    "name": "Gangarampur",
    "state_id": 4853,
    "state_code": "WB",
    "country_id": 101,
    "country_code": "IN",
    "latitude": "25.40000000",
    "longitude": "88.52000000",
    "wikiDataId": null
  },
  {
    "id": 141943,
    "name": "Garui",
    "state_id": 4853,
    "state_code": "WB",
    "country_id": 101,
    "country_code": "IN",
    "latitude": "22.63333333",
    "longitude": "88.40000000",
    "wikiDataId": null
  },
  {
    "id": 141944,
    "name": "Garulia",
    "state_id": 4853,
    "state_code": "WB",
    "country_id": 101,
    "country_code": "IN",
    "latitude": "22.82000000",
    "longitude": "88.37000000",
    "wikiDataId": null
  },
  {
    "id": 141945,
    "name": "Ghatal",
    "state_id": 4853,
    "state_code": "WB",
    "country_id": 101,
    "country_code": "IN",
    "latitude": "22.67000000",
    "longitude": "87.72000000",
    "wikiDataId": null
  },
  {
    "id": 141946,
    "name": "Giria",
    "state_id": 4853,
    "state_code": "WB",
    "country_id": 101,
    "country_code": "IN",
    "latitude": "24.51666667",
    "longitude": "88.06666667",
    "wikiDataId": null
  },
  {
    "id": 141947,
    "name": "Gobardanga",
    "state_id": 4853,
    "state_code": "WB",
    "country_id": 101,
    "country_code": "IN",
    "latitude": "22.87000000",
    "longitude": "88.76000000",
    "wikiDataId": null
  },
  {
    "id": 141948,
    "name": "Gobindapur",
    "state_id": 4853,
    "state_code": "WB",
    "country_id": 101,
    "country_code": "IN",
    "latitude": "22.59306000",
    "longitude": "88.09139000",
    "wikiDataId": null
  },
  {
    "id": 141950,
    "name": "Gopalpur",
    "state_id": 4853,
    "state_code": "WB",
    "country_id": 101,
    "country_code": "IN",
    "latitude": "22.61845000",
    "longitude": "88.75119000",
    "wikiDataId": null
  },
  {
    "id": 141949,
    "name": "Gopinathpur",
    "state_id": 4853,
    "state_code": "WB",
    "country_id": 101,
    "country_code": "IN",
    "latitude": "23.22000000",
    "longitude": "88.15000000",
    "wikiDataId": null
  },
  {
    "id": 141951,
    "name": "Gorubathan",
    "state_id": 4853,
    "state_code": "WB",
    "country_id": 101,
    "country_code": "IN",
    "latitude": "26.97000000",
    "longitude": "88.70000000",
    "wikiDataId": null
  },
  {
    "id": 141952,
    "name": "Gosaba",
    "state_id": 4853,
    "state_code": "WB",
    "country_id": 101,
    "country_code": "IN",
    "latitude": "22.16000000",
    "longitude": "88.80000000",
    "wikiDataId": null
  },
  {
    "id": 141953,
    "name": "Gosanimari",
    "state_id": 4853,
    "state_code": "WB",
    "country_id": 101,
    "country_code": "IN",
    "latitude": "26.15000000",
    "longitude": "89.36666667",
    "wikiDataId": null
  },
  {
    "id": 141954,
    "name": "Gurdaha",
    "state_id": 4853,
    "state_code": "WB",
    "country_id": 101,
    "country_code": "IN",
    "latitude": "22.73472222",
    "longitude": "88.75944444",
    "wikiDataId": null
  },
  {
    "id": 141955,
    "name": "Guskhara",
    "state_id": 4853,
    "state_code": "WB",
    "country_id": 101,
    "country_code": "IN",
    "latitude": "23.49277778",
    "longitude": "87.73472222",
    "wikiDataId": null
  },
  {
    "id": 141956,
    "name": "Habra",
    "state_id": 4853,
    "state_code": "WB",
    "country_id": 101,
    "country_code": "IN",
    "latitude": "22.83000000",
    "longitude": "88.63000000",
    "wikiDataId": null
  },
  {
    "id": 141957,
    "name": "Haldia",
    "state_id": 4853,
    "state_code": "WB",
    "country_id": 101,
    "country_code": "IN",
    "latitude": "22.06046000",
    "longitude": "88.10975000",
    "wikiDataId": null
  },
  {
    "id": 141958,
    "name": "Haldibari",
    "state_id": 4853,
    "state_code": "WB",
    "country_id": 101,
    "country_code": "IN",
    "latitude": "26.33000000",
    "longitude": "88.77000000",
    "wikiDataId": null
  },
  {
    "id": 141959,
    "name": "Halisahar",
    "state_id": 4853,
    "state_code": "WB",
    "country_id": 101,
    "country_code": "IN",
    "latitude": "22.95000000",
    "longitude": "88.42000000",
    "wikiDataId": null
  },
  {
    "id": 141960,
    "name": "Harindanga",
    "state_id": 4853,
    "state_code": "WB",
    "country_id": 101,
    "country_code": "IN",
    "latitude": "22.03333333",
    "longitude": "88.31666667",
    "wikiDataId": null
  },
  {
    "id": 141961,
    "name": "Haringhata",
    "state_id": 4853,
    "state_code": "WB",
    "country_id": 101,
    "country_code": "IN",
    "latitude": "22.95000000",
    "longitude": "88.57000000",
    "wikiDataId": null
  },
  {
    "id": 141962,
    "name": "Haripur",
    "state_id": 4853,
    "state_code": "WB",
    "country_id": 101,
    "country_code": "IN",
    "latitude": "22.93611000",
    "longitude": "88.23194000",
    "wikiDataId": null
  },
  {
    "id": 141963,
    "name": "Hasimara",
    "state_id": 4853,
    "state_code": "WB",
    "country_id": 101,
    "country_code": "IN",
    "latitude": "26.75000000",
    "longitude": "89.35000000",
    "wikiDataId": null
  },
  {
    "id": 141964,
    "name": "Hindusthan Cables Town",
    "state_id": 4853,
    "state_code": "WB",
    "country_id": 101,
    "country_code": "IN",
    "latitude": "23.82000000",
    "longitude": "86.90000000",
    "wikiDataId": null
  },
  {
    "id": 141965,
    "name": "Hooghly district",
    "state_id": 4853,
    "state_code": "WB",
    "country_id": 101,
    "country_code": "IN",
    "latitude": "22.91000000",
    "longitude": "88.39000000",
    "wikiDataId": null
  },
  {
    "id": 141966,
    "name": "Howrah",
    "state_id": 4853,
    "state_code": "WB",
    "country_id": 101,
    "country_code": "IN",
    "latitude": "22.57688000",
    "longitude": "88.31857000",
    "wikiDataId": null
  },
  {
    "id": 141967,
    "name": "Ichapur",
    "state_id": 4853,
    "state_code": "WB",
    "country_id": 101,
    "country_code": "IN",
    "latitude": "22.80499000",
    "longitude": "88.37088000",
    "wikiDataId": null
  },
  {
    "id": 141968,
    "name": "Indpur community development block",
    "state_id": 4853,
    "state_code": "WB",
    "country_id": 101,
    "country_code": "IN",
    "latitude": "23.16670000",
    "longitude": "86.93330000",
    "wikiDataId": null
  },
  {
    "id": 141969,
    "name": "Ingraj Bazar",
    "state_id": 4853,
    "state_code": "WB",
    "country_id": 101,
    "country_code": "IN",
    "latitude": "25.00447000",
    "longitude": "88.14573000",
    "wikiDataId": null
  },
  {
    "id": 141970,
    "name": "Islampur",
    "state_id": 4853,
    "state_code": "WB",
    "country_id": 101,
    "country_code": "IN",
    "latitude": "26.27000000",
    "longitude": "88.20000000",
    "wikiDataId": null
  },
  {
    "id": 141971,
    "name": "Jafarpur",
    "state_id": 4853,
    "state_code": "WB",
    "country_id": 101,
    "country_code": "IN",
    "latitude": "22.32000000",
    "longitude": "88.23000000",
    "wikiDataId": null
  },
  {
    "id": 141972,
    "name": "Jaigaon",
    "state_id": 4853,
    "state_code": "WB",
    "country_id": 101,
    "country_code": "IN",
    "latitude": "26.86666667",
    "longitude": "89.38333333",
    "wikiDataId": null
  },
  {
    "id": 141973,
    "name": "Jalpaiguri",
    "state_id": 4853,
    "state_code": "WB",
    "country_id": 101,
    "country_code": "IN",
    "latitude": "26.51666667",
    "longitude": "88.73333333",
    "wikiDataId": null
  },
  {
    "id": 141974,
    "name": "Jamuria",
    "state_id": 4853,
    "state_code": "WB",
    "country_id": 101,
    "country_code": "IN",
    "latitude": "23.70000000",
    "longitude": "87.08000000",
    "wikiDataId": null
  },
  {
    "id": 141975,
    "name": "Jangipur",
    "state_id": 4853,
    "state_code": "WB",
    "country_id": 101,
    "country_code": "IN",
    "latitude": "24.47001000",
    "longitude": "88.07659000",
    "wikiDataId": null
  },
  {
    "id": 141976,
    "name": "Jaynagar Majilpur",
    "state_id": 4853,
    "state_code": "WB",
    "country_id": 101,
    "country_code": "IN",
    "latitude": "22.17722222",
    "longitude": "88.42583333",
    "wikiDataId": null
  },
  {
    "id": 141977,
    "name": "Jejur",
    "state_id": 4853,
    "state_code": "WB",
    "country_id": 101,
    "country_code": "IN",
    "latitude": "22.88000000",
    "longitude": "88.12000000",
    "wikiDataId": null
  },
  {
    "id": 141978,
    "name": "Jhalida",
    "state_id": 4853,
    "state_code": "WB",
    "country_id": 101,
    "country_code": "IN",
    "latitude": "23.36541000",
    "longitude": "85.97581000",
    "wikiDataId": null
  },
  {
    "id": 141979,
    "name": "Jhargram",
    "state_id": 4853,
    "state_code": "WB",
    "country_id": 101,
    "country_code": "IN",
    "latitude": "22.45000000",
    "longitude": "86.98000000",
    "wikiDataId": null
  },
  {
    "id": 141980,
    "name": "Jhilimili",
    "state_id": 4853,
    "state_code": "WB",
    "country_id": 101,
    "country_code": "IN",
    "latitude": "22.81670000",
    "longitude": "86.61670000",
    "wikiDataId": null
  },
  {
    "id": 141981,
    "name": "Kakdwip",
    "state_id": 4853,
    "state_code": "WB",
    "country_id": 101,
    "country_code": "IN",
    "latitude": "21.88330000",
    "longitude": "88.18330000",
    "wikiDataId": null
  },
  {
    "id": 141982,
    "name": "Kalaikunda",
    "state_id": 4853,
    "state_code": "WB",
    "country_id": 101,
    "country_code": "IN",
    "latitude": "22.33916667",
    "longitude": "87.22638889",
    "wikiDataId": null
  },
  {
    "id": 141983,
    "name": "Kaliaganj",
    "state_id": 4853,
    "state_code": "WB",
    "country_id": 101,
    "country_code": "IN",
    "latitude": "25.63000000",
    "longitude": "88.32000000",
    "wikiDataId": null
  },
  {
    "id": 141984,
    "name": "Kalimpong",
    "state_id": 4853,
    "state_code": "WB",
    "country_id": 101,
    "country_code": "IN",
    "latitude": "27.07059000",
    "longitude": "88.47529000",
    "wikiDataId": null
  },
  {
    "id": 141985,
    "name": "Kalna",
    "state_id": 4853,
    "state_code": "WB",
    "country_id": 101,
    "country_code": "IN",
    "latitude": "23.22000000",
    "longitude": "88.37000000",
    "wikiDataId": null
  },
  {
    "id": 141986,
    "name": "Kalyani",
    "state_id": 4853,
    "state_code": "WB",
    "country_id": 101,
    "country_code": "IN",
    "latitude": "22.97500000",
    "longitude": "88.43444444",
    "wikiDataId": null
  },
  {
    "id": 141987,
    "name": "Kamarhati",
    "state_id": 4853,
    "state_code": "WB",
    "country_id": 101,
    "country_code": "IN",
    "latitude": "22.67000000",
    "longitude": "88.37000000",
    "wikiDataId": null
  },
  {
    "id": 141988,
    "name": "Kamarpukur",
    "state_id": 4853,
    "state_code": "WB",
    "country_id": 101,
    "country_code": "IN",
    "latitude": "22.91000000",
    "longitude": "87.65000000",
    "wikiDataId": null
  },
  {
    "id": 141989,
    "name": "Kanchrapara",
    "state_id": 4853,
    "state_code": "WB",
    "country_id": 101,
    "country_code": "IN",
    "latitude": "22.97000000",
    "longitude": "88.43000000",
    "wikiDataId": null
  },
  {
    "id": 141990,
    "name": "Kandi",
    "state_id": 4853,
    "state_code": "WB",
    "country_id": 101,
    "country_code": "IN",
    "latitude": "23.95000000",
    "longitude": "88.03000000",
    "wikiDataId": null
  },
  {
    "id": 141991,
    "name": "Karimpur",
    "state_id": 4853,
    "state_code": "WB",
    "country_id": 101,
    "country_code": "IN",
    "latitude": "23.96666667",
    "longitude": "88.61666667",
    "wikiDataId": null
  },
  {
    "id": 141992,
    "name": "Katwa",
    "state_id": 4853,
    "state_code": "WB",
    "country_id": 101,
    "country_code": "IN",
    "latitude": "23.65000000",
    "longitude": "88.13000000",
    "wikiDataId": null
  },
  {
    "id": 141993,
    "name": "Kenda",
    "state_id": 4853,
    "state_code": "WB",
    "country_id": 101,
    "country_code": "IN",
    "latitude": "23.20000000",
    "longitude": "86.53000000",
    "wikiDataId": null
  },
  {
    "id": 141994,
    "name": "Keshabpur",
    "state_id": 4853,
    "state_code": "WB",
    "country_id": 101,
    "country_code": "IN",
    "latitude": "22.97000000",
    "longitude": "88.26000000",
    "wikiDataId": null
  },
  {
    "id": 141995,
    "name": "Kharagpur",
    "state_id": 4853,
    "state_code": "WB",
    "country_id": 101,
    "country_code": "IN",
    "latitude": "22.33023900",
    "longitude": "87.32365300",
    "wikiDataId": null
  },
  {
    "id": 141996,
    "name": "Kharar",
    "state_id": 4853,
    "state_code": "WB",
    "country_id": 101,
    "country_code": "IN",
    "latitude": "22.70000000",
    "longitude": "87.68000000",
    "wikiDataId": null
  },
  {
    "id": 141997,
    "name": "Kharba",
    "state_id": 4853,
    "state_code": "WB",
    "country_id": 101,
    "country_code": "IN",
    "latitude": "25.42000000",
    "longitude": "88.07000000",
    "wikiDataId": null
  },
  {
    "id": 141998,
    "name": "Khardaha",
    "state_id": 4853,
    "state_code": "WB",
    "country_id": 101,
    "country_code": "IN",
    "latitude": "22.72000000",
    "longitude": "88.38000000",
    "wikiDataId": null
  },
  {
    "id": 141999,
    "name": "Khatra",
    "state_id": 4853,
    "state_code": "WB",
    "country_id": 101,
    "country_code": "IN",
    "latitude": "22.98000000",
    "longitude": "86.85000000",
    "wikiDataId": null
  },
  {
    "id": 142000,
    "name": "Kirnahar",
    "state_id": 4853,
    "state_code": "WB",
    "country_id": 101,
    "country_code": "IN",
    "latitude": "23.75000000",
    "longitude": "87.87000000",
    "wikiDataId": null
  },
  {
    "id": 142001,
    "name": "Kolkata",
    "state_id": 4853,
    "state_code": "WB",
    "country_id": 101,
    "country_code": "IN",
    "latitude": "22.54111111",
    "longitude": "88.33777778",
    "wikiDataId": null
  },
  {
    "id": 142002,
    "name": "Konnagar",
    "state_id": 4853,
    "state_code": "WB",
    "country_id": 101,
    "country_code": "IN",
    "latitude": "22.70000000",
    "longitude": "88.35000000",
    "wikiDataId": null
  },
  {
    "id": 142003,
    "name": "Krishnanagar",
    "state_id": 4853,
    "state_code": "WB",
    "country_id": 101,
    "country_code": "IN",
    "latitude": "23.40584810",
    "longitude": "88.49589350",
    "wikiDataId": null
  },
  {
    "id": 142004,
    "name": "Krishnapur",
    "state_id": 4853,
    "state_code": "WB",
    "country_id": 101,
    "country_code": "IN",
    "latitude": "22.67000000",
    "longitude": "88.26000000",
    "wikiDataId": null
  },
  {
    "id": 142005,
    "name": "Kshirpai",
    "state_id": 4853,
    "state_code": "WB",
    "country_id": 101,
    "country_code": "IN",
    "latitude": "22.71096640",
    "longitude": "87.61740380",
    "wikiDataId": null
  },
  {
    "id": 142006,
    "name": "Kulpi",
    "state_id": 4853,
    "state_code": "WB",
    "country_id": 101,
    "country_code": "IN",
    "latitude": "22.08000000",
    "longitude": "88.24000000",
    "wikiDataId": null
  },
  {
    "id": 142007,
    "name": "Kultali",
    "state_id": 4853,
    "state_code": "WB",
    "country_id": 101,
    "country_code": "IN",
    "latitude": "21.90000000",
    "longitude": "88.40000000",
    "wikiDataId": null
  },
  {
    "id": 142008,
    "name": "Kulti",
    "state_id": 4853,
    "state_code": "WB",
    "country_id": 101,
    "country_code": "IN",
    "latitude": "23.73000000",
    "longitude": "86.85000000",
    "wikiDataId": null
  },
  {
    "id": 142009,
    "name": "Kurseong",
    "state_id": 4853,
    "state_code": "WB",
    "country_id": 101,
    "country_code": "IN",
    "latitude": "26.88000000",
    "longitude": "88.28000000",
    "wikiDataId": null
  },
  {
    "id": 142010,
    "name": "Lalgarh",
    "state_id": 4853,
    "state_code": "WB",
    "country_id": 101,
    "country_code": "IN",
    "latitude": "22.58000000",
    "longitude": "87.05000000",
    "wikiDataId": null
  },
  {
    "id": 142011,
    "name": "Lalgola",
    "state_id": 4853,
    "state_code": "WB",
    "country_id": 101,
    "country_code": "IN",
    "latitude": "24.42000000",
    "longitude": "88.25000000",
    "wikiDataId": null
  },
  {
    "id": 142012,
    "name": "Loyabad",
    "state_id": 4853,
    "state_code": "WB",
    "country_id": 101,
    "country_code": "IN",
    "latitude": "23.67000000",
    "longitude": "86.67000000",
    "wikiDataId": null
  },
  {
    "id": 142013,
    "name": "Madanpur",
    "state_id": 4853,
    "state_code": "WB",
    "country_id": 101,
    "country_code": "IN",
    "latitude": "23.02000000",
    "longitude": "88.48000000",
    "wikiDataId": null
  },
  {
    "id": 142014,
    "name": "Madhyamgram",
    "state_id": 4853,
    "state_code": "WB",
    "country_id": 101,
    "country_code": "IN",
    "latitude": "22.70000000",
    "longitude": "88.45000000",
    "wikiDataId": null
  },
  {
    "id": 142015,
    "name": "Mahiari",
    "state_id": 4853,
    "state_code": "WB",
    "country_id": 101,
    "country_code": "IN",
    "latitude": "22.59000000",
    "longitude": "88.24000000",
    "wikiDataId": null
  },
  {
    "id": 142016,
    "name": "Mahishadal community development block",
    "state_id": 4853,
    "state_code": "WB",
    "country_id": 101,
    "country_code": "IN",
    "latitude": "22.18333300",
    "longitude": "87.98333300",
    "wikiDataId": null
  },
  {
    "id": 142017,
    "name": "Mainaguri",
    "state_id": 4853,
    "state_code": "WB",
    "country_id": 101,
    "country_code": "IN",
    "latitude": "26.57000000",
    "longitude": "88.82000000",
    "wikiDataId": null
  },
  {
    "id": 142018,
    "name": "Manikpara",
    "state_id": 4853,
    "state_code": "WB",
    "country_id": 101,
    "country_code": "IN",
    "latitude": "22.36666667",
    "longitude": "87.11666667",
    "wikiDataId": null
  },
  {
    "id": 142019,
    "name": "Masila",
    "state_id": 4853,
    "state_code": "WB",
    "country_id": 101,
    "country_code": "IN",
    "latitude": "22.58083000",
    "longitude": "88.23278000",
    "wikiDataId": null
  },
  {
    "id": 142020,
    "name": "Mathabhanga",
    "state_id": 4853,
    "state_code": "WB",
    "country_id": 101,
    "country_code": "IN",
    "latitude": "26.34197000",
    "longitude": "89.21555000",
    "wikiDataId": null
  },
  {
    "id": 142021,
    "name": "Matiali community development block",
    "state_id": 4853,
    "state_code": "WB",
    "country_id": 101,
    "country_code": "IN",
    "latitude": "26.92715900",
    "longitude": "88.81330490",
    "wikiDataId": null
  },
  {
    "id": 142022,
    "name": "Matigara community development block",
    "state_id": 4853,
    "state_code": "WB",
    "country_id": 101,
    "country_code": "IN",
    "latitude": "26.71666700",
    "longitude": "88.38333300",
    "wikiDataId": null
  },
  {
    "id": 142023,
    "name": "Medinipur",
    "state_id": 4853,
    "state_code": "WB",
    "country_id": 101,
    "country_code": "IN",
    "latitude": "22.42070250",
    "longitude": "87.32699630",
    "wikiDataId": null
  },
  {
    "id": 142024,
    "name": "Mejia community development block",
    "state_id": 4853,
    "state_code": "WB",
    "country_id": 101,
    "country_code": "IN",
    "latitude": "23.57000000",
    "longitude": "87.10000000",
    "wikiDataId": null
  },
  {
    "id": 142025,
    "name": "Memari",
    "state_id": 4853,
    "state_code": "WB",
    "country_id": 101,
    "country_code": "IN",
    "latitude": "23.20000000",
    "longitude": "88.12000000",
    "wikiDataId": null
  },
  {
    "id": 142026,
    "name": "Mirik",
    "state_id": 4853,
    "state_code": "WB",
    "country_id": 101,
    "country_code": "IN",
    "latitude": "26.88700000",
    "longitude": "88.18700000",
    "wikiDataId": null
  },
  {
    "id": 142028,
    "name": "Monoharpur",
    "state_id": 4853,
    "state_code": "WB",
    "country_id": 101,
    "country_code": "IN",
    "latitude": "22.68000000",
    "longitude": "88.30000000",
    "wikiDataId": null
  },
  {
    "id": 142029,
    "name": "Muragacha",
    "state_id": 4853,
    "state_code": "WB",
    "country_id": 101,
    "country_code": "IN",
    "latitude": "23.53631000",
    "longitude": "88.39425000",
    "wikiDataId": null
  },
  {
    "id": 142030,
    "name": "Muri",
    "state_id": 4853,
    "state_code": "WB",
    "country_id": 101,
    "country_code": "IN",
    "latitude": "23.37000000",
    "longitude": "85.86000000",
    "wikiDataId": null
  },
  {
    "id": 142031,
    "name": "Murshidabad",
    "state_id": 4853,
    "state_code": "WB",
    "country_id": 101,
    "country_code": "IN",
    "latitude": "24.18000000",
    "longitude": "88.27000000",
    "wikiDataId": null
  },
  {
    "id": 142032,
    "name": "Nabadwip",
    "state_id": 4853,
    "state_code": "WB",
    "country_id": 101,
    "country_code": "IN",
    "latitude": "23.40722222",
    "longitude": "88.37777778",
    "wikiDataId": null
  },
  {
    "id": 142033,
    "name": "Nabagram",
    "state_id": 4853,
    "state_code": "WB",
    "country_id": 101,
    "country_code": "IN",
    "latitude": "22.29000000",
    "longitude": "88.51000000",
    "wikiDataId": null
  },
  {
    "id": 142034,
    "name": "Nadia district",
    "state_id": 4853,
    "state_code": "WB",
    "country_id": 101,
    "country_code": "IN",
    "latitude": "23.48473740",
    "longitude": "88.55670670",
    "wikiDataId": null
  },
  {
    "id": 142035,
    "name": "Nagarukhra",
    "state_id": 4853,
    "state_code": "WB",
    "country_id": 101,
    "country_code": "IN",
    "latitude": "22.94099000",
    "longitude": "88.63701000",
    "wikiDataId": null
  },
  {
    "id": 142036,
    "name": "Nagrakata",
    "state_id": 4853,
    "state_code": "WB",
    "country_id": 101,
    "country_code": "IN",
    "latitude": "26.90000000",
    "longitude": "88.96670000",
    "wikiDataId": null
  },
  {
    "id": 142037,
    "name": "Naihati",
    "state_id": 4853,
    "state_code": "WB",
    "country_id": 101,
    "country_code": "IN",
    "latitude": "22.90000000",
    "longitude": "88.42000000",
    "wikiDataId": null
  },
  {
    "id": 142038,
    "name": "Naksalbari",
    "state_id": 4853,
    "state_code": "WB",
    "country_id": 101,
    "country_code": "IN",
    "latitude": "26.68333333",
    "longitude": "88.21666667",
    "wikiDataId": null
  },
  {
    "id": 142039,
    "name": "Nalhati",
    "state_id": 4853,
    "state_code": "WB",
    "country_id": 101,
    "country_code": "IN",
    "latitude": "24.30000000",
    "longitude": "87.82000000",
    "wikiDataId": null
  },
  {
    "id": 142040,
    "name": "Nalpur",
    "state_id": 4853,
    "state_code": "WB",
    "country_id": 101,
    "country_code": "IN",
    "latitude": "22.53000000",
    "longitude": "88.19000000",
    "wikiDataId": null
  },
  {
    "id": 142041,
    "name": "Namkhana community development block",
    "state_id": 4853,
    "state_code": "WB",
    "country_id": 101,
    "country_code": "IN",
    "latitude": "21.70000000",
    "longitude": "88.14000000",
    "wikiDataId": null
  },
  {
    "id": 142042,
    "name": "Nandigram",
    "state_id": 4853,
    "state_code": "WB",
    "country_id": 101,
    "country_code": "IN",
    "latitude": "22.01000000",
    "longitude": "87.99000000",
    "wikiDataId": null
  },
  {
    "id": 142043,
    "name": "Nangi",
    "state_id": 4853,
    "state_code": "WB",
    "country_id": 101,
    "country_code": "IN",
    "latitude": "22.50833333",
    "longitude": "88.21527778",
    "wikiDataId": null
  },
  {
    "id": 142044,
    "name": "Nayagram community development block",
    "state_id": 4853,
    "state_code": "WB",
    "country_id": 101,
    "country_code": "IN",
    "latitude": "22.03190000",
    "longitude": "87.17810000",
    "wikiDataId": null
  },
  {
    "id": 142045,
    "name": "North 24 Parganas district",
    "state_id": 4853,
    "state_code": "WB",
    "country_id": 101,
    "country_code": "IN",
    "latitude": "22.13000000",
    "longitude": "88.50000000",
    "wikiDataId": null
  },
  {
    "id": 142046,
    "name": "Odlabari",
    "state_id": 4853,
    "state_code": "WB",
    "country_id": 101,
    "country_code": "IN",
    "latitude": "26.83638889",
    "longitude": "88.62944444",
    "wikiDataId": null
  },
  {
    "id": 142047,
    "name": "Paikpara",
    "state_id": 4853,
    "state_code": "WB",
    "country_id": 101,
    "country_code": "IN",
    "latitude": "24.77121000",
    "longitude": "87.92251000",
    "wikiDataId": null
  },
  {
    "id": 142048,
    "name": "Panagarh",
    "state_id": 4853,
    "state_code": "WB",
    "country_id": 101,
    "country_code": "IN",
    "latitude": "23.45000000",
    "longitude": "87.43000000",
    "wikiDataId": null
  },
  {
    "id": 142049,
    "name": "Panchla",
    "state_id": 4853,
    "state_code": "WB",
    "country_id": 101,
    "country_code": "IN",
    "latitude": "22.54000000",
    "longitude": "88.14000000",
    "wikiDataId": null
  },
  {
    "id": 142050,
    "name": "Panchmura",
    "state_id": 4853,
    "state_code": "WB",
    "country_id": 101,
    "country_code": "IN",
    "latitude": "22.96670000",
    "longitude": "87.16670000",
    "wikiDataId": null
  },
  {
    "id": 142051,
    "name": "Pandua",
    "state_id": 4853,
    "state_code": "WB",
    "country_id": 101,
    "country_code": "IN",
    "latitude": "23.08000000",
    "longitude": "88.28000000",
    "wikiDataId": null
  },
  {
    "id": 142052,
    "name": "Panihati",
    "state_id": 4853,
    "state_code": "WB",
    "country_id": 101,
    "country_code": "IN",
    "latitude": "22.69000000",
    "longitude": "88.37000000",
    "wikiDataId": null
  },
  {
    "id": 142053,
    "name": "Panskura",
    "state_id": 4853,
    "state_code": "WB",
    "country_id": 101,
    "country_code": "IN",
    "latitude": "22.42000000",
    "longitude": "87.70000000",
    "wikiDataId": null
  },
  {
    "id": 142054,
    "name": "Parbatipur",
    "state_id": 4853,
    "state_code": "WB",
    "country_id": 101,
    "country_code": "IN",
    "latitude": "22.66250000",
    "longitude": "88.22222000",
    "wikiDataId": null
  },
  {
    "id": 142055,
    "name": "Paschim Medinipur district",
    "state_id": 4853,
    "state_code": "WB",
    "country_id": 101,
    "country_code": "IN",
    "latitude": "22.36001180",
    "longitude": "87.41115050",
    "wikiDataId": null
  },
  {
    "id": 142056,
    "name": "Patiram",
    "state_id": 4853,
    "state_code": "WB",
    "country_id": 101,
    "country_code": "IN",
    "latitude": "25.31666667",
    "longitude": "88.75000000",
    "wikiDataId": null
  },
  {
    "id": 142062,
    "name": "Patrasaer",
    "state_id": 4853,
    "state_code": "WB",
    "country_id": 101,
    "country_code": "IN",
    "latitude": "23.19697000",
    "longitude": "87.53319000",
    "wikiDataId": null
  },
  {
    "id": 142057,
    "name": "Patuli",
    "state_id": 4853,
    "state_code": "WB",
    "country_id": 101,
    "country_code": "IN",
    "latitude": "23.55000000",
    "longitude": "88.25000000",
    "wikiDataId": null
  },
  {
    "id": 142058,
    "name": "Pujali",
    "state_id": 4853,
    "state_code": "WB",
    "country_id": 101,
    "country_code": "IN",
    "latitude": "22.47000000",
    "longitude": "88.15000000",
    "wikiDataId": null
  },
  {
    "id": 142059,
    "name": "Puncha community development block",
    "state_id": 4853,
    "state_code": "WB",
    "country_id": 101,
    "country_code": "IN",
    "latitude": "23.12300000",
    "longitude": "86.65300000",
    "wikiDataId": null
  },
  {
    "id": 142060,
    "name": "Purba Medinipur district",
    "state_id": 4853,
    "state_code": "WB",
    "country_id": 101,
    "country_code": "IN",
    "latitude": "22.06484510",
    "longitude": "87.83775860",
    "wikiDataId": null
  },
  {
    "id": 142061,
    "name": "Purulia",
    "state_id": 4853,
    "state_code": "WB",
    "country_id": 101,
    "country_code": "IN",
    "latitude": "23.33333333",
    "longitude": "86.36666667",
    "wikiDataId": null
  },
  {
    "id": 142063,
    "name": "Raghudebbati",
    "state_id": 4853,
    "state_code": "WB",
    "country_id": 101,
    "country_code": "IN",
    "latitude": "22.53000000",
    "longitude": "88.20000000",
    "wikiDataId": null
  },
  {
    "id": 142064,
    "name": "Raghunathpur",
    "state_id": 4853,
    "state_code": "WB",
    "country_id": 101,
    "country_code": "IN",
    "latitude": "23.55000000",
    "longitude": "86.67000000",
    "wikiDataId": null
  },
  {
    "id": 142065,
    "name": "Raiganj",
    "state_id": 4853,
    "state_code": "WB",
    "country_id": 101,
    "country_code": "IN",
    "latitude": "25.61666667",
    "longitude": "88.11666667",
    "wikiDataId": null
  },
  {
    "id": 142066,
    "name": "Rajmahal",
    "state_id": 4853,
    "state_code": "WB",
    "country_id": 101,
    "country_code": "IN",
    "latitude": "25.05000000",
    "longitude": "87.84000000",
    "wikiDataId": null
  },
  {
    "id": 142067,
    "name": "Rajnagar community development block",
    "state_id": 4853,
    "state_code": "WB",
    "country_id": 101,
    "country_code": "IN",
    "latitude": "23.94720000",
    "longitude": "87.36250000",
    "wikiDataId": null
  },
  {
    "id": 142068,
    "name": "Ramchandrapur",
    "state_id": 4853,
    "state_code": "WB",
    "country_id": 101,
    "country_code": "IN",
    "latitude": "22.90000000",
    "longitude": "88.48000000",
    "wikiDataId": null
  },
  {
    "id": 142069,
    "name": "Ramjibanpur",
    "state_id": 4853,
    "state_code": "WB",
    "country_id": 101,
    "country_code": "IN",
    "latitude": "22.83000000",
    "longitude": "87.62000000",
    "wikiDataId": null
  },
  {
    "id": 142075,
    "name": "Ramnagar",
    "state_id": 4853,
    "state_code": "WB",
    "country_id": 101,
    "country_code": "IN",
    "latitude": "22.77778000",
    "longitude": "88.24639000",
    "wikiDataId": null
  },
  {
    "id": 142070,
    "name": "Rampur Hat",
    "state_id": 4853,
    "state_code": "WB",
    "country_id": 101,
    "country_code": "IN",
    "latitude": "24.17737000",
    "longitude": "87.78275000",
    "wikiDataId": null
  },
  {
    "id": 142071,
    "name": "Ranaghat",
    "state_id": 4853,
    "state_code": "WB",
    "country_id": 101,
    "country_code": "IN",
    "latitude": "23.17381240",
    "longitude": "88.56367700",
    "wikiDataId": null
  },
  {
    "id": 142072,
    "name": "Raniganj",
    "state_id": 4853,
    "state_code": "WB",
    "country_id": 101,
    "country_code": "IN",
    "latitude": "23.62000000",
    "longitude": "87.13000000",
    "wikiDataId": null
  },
  {
    "id": 142073,
    "name": "Raypur",
    "state_id": 4853,
    "state_code": "WB",
    "country_id": 101,
    "country_code": "IN",
    "latitude": "22.41083000",
    "longitude": "88.50944000",
    "wikiDataId": null
  },
  {
    "id": 142074,
    "name": "Rishra",
    "state_id": 4853,
    "state_code": "WB",
    "country_id": 101,
    "country_code": "IN",
    "latitude": "22.71000000",
    "longitude": "88.35000000",
    "wikiDataId": null
  },
  {
    "id": 142076,
    "name": "Sahapur",
    "state_id": 4853,
    "state_code": "WB",
    "country_id": 101,
    "country_code": "IN",
    "latitude": "22.52000000",
    "longitude": "88.17000000",
    "wikiDataId": null
  },
  {
    "id": 142077,
    "name": "Sainthia",
    "state_id": 4853,
    "state_code": "WB",
    "country_id": 101,
    "country_code": "IN",
    "latitude": "23.95000000",
    "longitude": "87.67000000",
    "wikiDataId": null
  },
  {
    "id": 142078,
    "name": "Salanpur community development block",
    "state_id": 4853,
    "state_code": "WB",
    "country_id": 101,
    "country_code": "IN",
    "latitude": "23.76702000",
    "longitude": "86.87492000",
    "wikiDataId": null
  },
  {
    "id": 142079,
    "name": "Sankarpur",
    "state_id": 4853,
    "state_code": "WB",
    "country_id": 101,
    "country_code": "IN",
    "latitude": "22.16805690",
    "longitude": "88.30707460",
    "wikiDataId": null
  },
  {
    "id": 142080,
    "name": "Sankrail",
    "state_id": 4853,
    "state_code": "WB",
    "country_id": 101,
    "country_code": "IN",
    "latitude": "22.57000000",
    "longitude": "88.24000000",
    "wikiDataId": null
  },
  {
    "id": 142081,
    "name": "Santipur",
    "state_id": 4853,
    "state_code": "WB",
    "country_id": 101,
    "country_code": "IN",
    "latitude": "23.25000000",
    "longitude": "88.43000000",
    "wikiDataId": null
  },
  {
    "id": 142082,
    "name": "Santoshpur",
    "state_id": 4853,
    "state_code": "WB",
    "country_id": 101,
    "country_code": "IN",
    "latitude": "22.50000000",
    "longitude": "88.17000000",
    "wikiDataId": null
  },
  {
    "id": 142083,
    "name": "Santuri community development block",
    "state_id": 4853,
    "state_code": "WB",
    "country_id": 101,
    "country_code": "IN",
    "latitude": "23.52720000",
    "longitude": "86.85709000",
    "wikiDataId": null
  },
  {
    "id": 142084,
    "name": "Sarenga",
    "state_id": 4853,
    "state_code": "WB",
    "country_id": 101,
    "country_code": "IN",
    "latitude": "22.54000000",
    "longitude": "88.21000000",
    "wikiDataId": null
  },
  {
    "id": 142085,
    "name": "Serampore",
    "state_id": 4853,
    "state_code": "WB",
    "country_id": 101,
    "country_code": "IN",
    "latitude": "22.75000000",
    "longitude": "88.34000000",
    "wikiDataId": null
  },
  {
    "id": 142086,
    "name": "Serpur",
    "state_id": 4853,
    "state_code": "WB",
    "country_id": 101,
    "country_code": "IN",
    "latitude": "24.13000000",
    "longitude": "88.00000000",
    "wikiDataId": null
  },
  {
    "id": 142087,
    "name": "Shyamnagar West Bengal",
    "state_id": 4853,
    "state_code": "WB",
    "country_id": 101,
    "country_code": "IN",
    "latitude": "22.83000000",
    "longitude": "88.37000000",
    "wikiDataId": null
  },
  {
    "id": 142088,
    "name": "Siliguri",
    "state_id": 4853,
    "state_code": "WB",
    "country_id": 101,
    "country_code": "IN",
    "latitude": "26.71004000",
    "longitude": "88.42851000",
    "wikiDataId": null
  },
  {
    "id": 142089,
    "name": "Singur",
    "state_id": 4853,
    "state_code": "WB",
    "country_id": 101,
    "country_code": "IN",
    "latitude": "22.81000000",
    "longitude": "88.23000000",
    "wikiDataId": null
  },
  {
    "id": 142090,
    "name": "Sodpur",
    "state_id": 4853,
    "state_code": "WB",
    "country_id": 101,
    "country_code": "IN",
    "latitude": "22.70416667",
    "longitude": "88.39166667",
    "wikiDataId": null
  },
  {
    "id": 142091,
    "name": "Solap",
    "state_id": 4853,
    "state_code": "WB",
    "country_id": 101,
    "country_code": "IN",
    "latitude": "22.12777778",
    "longitude": "88.15861111",
    "wikiDataId": null
  },
  {
    "id": 142092,
    "name": "Sonada",
    "state_id": 4853,
    "state_code": "WB",
    "country_id": 101,
    "country_code": "IN",
    "latitude": "27.00000000",
    "longitude": "88.14000000",
    "wikiDataId": null
  },
  {
    "id": 142093,
    "name": "Sonamukhi",
    "state_id": 4853,
    "state_code": "WB",
    "country_id": 101,
    "country_code": "IN",
    "latitude": "23.30000000",
    "longitude": "87.42000000",
    "wikiDataId": null
  },
  {
    "id": 142094,
    "name": "Sonarpur community development block",
    "state_id": 4853,
    "state_code": "WB",
    "country_id": 101,
    "country_code": "IN",
    "latitude": "22.44259000",
    "longitude": "88.43044000",
    "wikiDataId": null
  },
  {
    "id": 142095,
    "name": "South 24 Parganas district",
    "state_id": 4853,
    "state_code": "WB",
    "country_id": 101,
    "country_code": "IN",
    "latitude": "22.16197000",
    "longitude": "88.43170000",
    "wikiDataId": null
  },
  {
    "id": 142096,
    "name": "Srikhanda",
    "state_id": 4853,
    "state_code": "WB",
    "country_id": 101,
    "country_code": "IN",
    "latitude": "23.60000000",
    "longitude": "88.08330000",
    "wikiDataId": null
  },
  {
    "id": 142097,
    "name": "Srirampur",
    "state_id": 4853,
    "state_code": "WB",
    "country_id": 101,
    "country_code": "IN",
    "latitude": "23.35000000",
    "longitude": "88.12000000",
    "wikiDataId": null
  },
  {
    "id": 142098,
    "name": "Suri",
    "state_id": 4853,
    "state_code": "WB",
    "country_id": 101,
    "country_code": "IN",
    "latitude": "23.91666667",
    "longitude": "87.53333333",
    "wikiDataId": null
  },
  {
    "id": 142099,
    "name": "Swarupnagar community development block",
    "state_id": 4853,
    "state_code": "WB",
    "country_id": 101,
    "country_code": "IN",
    "latitude": "22.83330000",
    "longitude": "88.86670000",
    "wikiDataId": null
  },
  {
    "id": 142100,
    "name": "Takdah",
    "state_id": 4853,
    "state_code": "WB",
    "country_id": 101,
    "country_code": "IN",
    "latitude": "27.03330000",
    "longitude": "88.36670000",
    "wikiDataId": null
  },
  {
    "id": 142101,
    "name": "Taki",
    "state_id": 4853,
    "state_code": "WB",
    "country_id": 101,
    "country_code": "IN",
    "latitude": "22.59000000",
    "longitude": "88.92000000",
    "wikiDataId": null
  },
  {
    "id": 142102,
    "name": "Tamluk",
    "state_id": 4853,
    "state_code": "WB",
    "country_id": 101,
    "country_code": "IN",
    "latitude": "22.28969840",
    "longitude": "87.92559330",
    "wikiDataId": null
  },
  {
    "id": 142103,
    "name": "Tarakeswar",
    "state_id": 4853,
    "state_code": "WB",
    "country_id": 101,
    "country_code": "IN",
    "latitude": "22.89000000",
    "longitude": "88.02000000",
    "wikiDataId": null
  },
  {
    "id": 142104,
    "name": "Titagarh",
    "state_id": 4853,
    "state_code": "WB",
    "country_id": 101,
    "country_code": "IN",
    "latitude": "22.74000000",
    "longitude": "88.37000000",
    "wikiDataId": null
  },
  {
    "id": 142105,
    "name": "Tufanganj",
    "state_id": 4853,
    "state_code": "WB",
    "country_id": 101,
    "country_code": "IN",
    "latitude": "26.32000000",
    "longitude": "89.67000000",
    "wikiDataId": null
  },
  {
    "id": 142106,
    "name": "Tulin",
    "state_id": 4853,
    "state_code": "WB",
    "country_id": 101,
    "country_code": "IN",
    "latitude": "23.37000000",
    "longitude": "85.90000000",
    "wikiDataId": null
  },
  {
    "id": 142107,
    "name": "Uchalan",
    "state_id": 4853,
    "state_code": "WB",
    "country_id": 101,
    "country_code": "IN",
    "latitude": "23.03330000",
    "longitude": "87.78330000",
    "wikiDataId": null
  },
  {
    "id": 142108,
    "name": "Ula",
    "state_id": 4853,
    "state_code": "WB",
    "country_id": 101,
    "country_code": "IN",
    "latitude": "22.72250000",
    "longitude": "88.55556000",
    "wikiDataId": null
  },
  {
    "id": 142109,
    "name": "Uluberia",
    "state_id": 4853,
    "state_code": "WB",
    "country_id": 101,
    "country_code": "IN",
    "latitude": "22.47000000",
    "longitude": "88.11000000",
    "wikiDataId": null
  },
  {
    "id": 142110,
    "name": "Uttar Dinajpur district",
    "state_id": 4853,
    "state_code": "WB",
    "country_id": 101,
    "country_code": "IN",
    "latitude": "25.62000000",
    "longitude": "88.12000000",
    "wikiDataId": null
  },
  {
    "id": 142111,
    "name": "Uttarpara Kotrung",
    "state_id": 4853,
    "state_code": "WB",
    "country_id": 101,
    "country_code": "IN",
    "latitude": "22.67000000",
    "longitude": "88.35000000",
    "wikiDataId": null
  }
]