[
  {
    "id": 31480,
    "name": "Alfredo Baquerizo Moreno",
    "state_id": 2914,
    "state_code": "G",
    "country_id": 64,
    "country_code": "EC",
    "latitude": "-1.91667000",
    "longitude": "-79.51667000",
    "wikiDataId": null
  },
  {
    "id": 31488,
    "name": "Baláo",
    "state_id": 2914,
    "state_code": "G",
    "country_id": 64,
    "country_code": "EC",
    "latitude": "-2.91100000",
    "longitude": "-79.81441000",
    "wikiDataId": null
  },
  {
    "id": 31487,
    "name": "Balzar",
    "state_id": 2914,
    "state_code": "G",
    "country_id": 64,
    "country_code": "EC",
    "latitude": "-1.36501000",
    "longitude": "-79.90494000",
    "wikiDataId": null
  },
  {
    "id": 31498,
    "name": "Colimes",
    "state_id": 2914,
    "state_code": "G",
    "country_id": 64,
    "country_code": "EC",
    "latitude": "-1.54553000",
    "longitude": "-80.01165000",
    "wikiDataId": null
  },
  {
    "id": 31499,
    "name": "Coronel Marcelino Maridueña",
    "state_id": 2914,
    "state_code": "G",
    "country_id": 64,
    "country_code": "EC",
    "latitude": "-2.20924000",
    "longitude": "-79.43248000",
    "wikiDataId": null
  },
  {
    "id": 31502,
    "name": "El Triunfo",
    "state_id": 2914,
    "state_code": "G",
    "country_id": 64,
    "country_code": "EC",
    "latitude": "-1.93333000",
    "longitude": "-79.96667000",
    "wikiDataId": null
  },
  {
    "id": 31504,
    "name": "Eloy Alfaro",
    "state_id": 2914,
    "state_code": "G",
    "country_id": 64,
    "country_code": "EC",
    "latitude": "-2.17579000",
    "longitude": "-79.85519000",
    "wikiDataId": null
  },
  {
    "id": 31511,
    "name": "Guayaquil",
    "state_id": 2914,
    "state_code": "G",
    "country_id": 64,
    "country_code": "EC",
    "latitude": "-2.19616000",
    "longitude": "-79.88621000",
    "wikiDataId": null
  },
  {
    "id": 31522,
    "name": "Lomas de Sargentillo",
    "state_id": 2914,
    "state_code": "G",
    "country_id": 64,
    "country_code": "EC",
    "latitude": "-1.88333000",
    "longitude": "-80.08333000",
    "wikiDataId": null
  },
  {
    "id": 31528,
    "name": "Milagro",
    "state_id": 2914,
    "state_code": "G",
    "country_id": 64,
    "country_code": "EC",
    "latitude": "-2.13404000",
    "longitude": "-79.59415000",
    "wikiDataId": null
  },
  {
    "id": 31532,
    "name": "Naranjal",
    "state_id": 2914,
    "state_code": "G",
    "country_id": 64,
    "country_code": "EC",
    "latitude": "-2.67364000",
    "longitude": "-79.61830000",
    "wikiDataId": null
  },
  {
    "id": 31533,
    "name": "Naranjito",
    "state_id": 2914,
    "state_code": "G",
    "country_id": 64,
    "country_code": "EC",
    "latitude": "-2.16671000",
    "longitude": "-79.46540000",
    "wikiDataId": null
  },
  {
    "id": 31539,
    "name": "Palestina",
    "state_id": 2914,
    "state_code": "G",
    "country_id": 64,
    "country_code": "EC",
    "latitude": "-1.93709000",
    "longitude": "-79.71396000",
    "wikiDataId": null
  },
  {
    "id": 31544,
    "name": "Pedro Carbo",
    "state_id": 2914,
    "state_code": "G",
    "country_id": 64,
    "country_code": "EC",
    "latitude": "-1.81563000",
    "longitude": "-80.23309000",
    "wikiDataId": null
  },
  {
    "id": 31548,
    "name": "Playas",
    "state_id": 2914,
    "state_code": "G",
    "country_id": 64,
    "country_code": "EC",
    "latitude": "-2.63199000",
    "longitude": "-80.38808000",
    "wikiDataId": null
  },
  {
    "id": 31566,
    "name": "Samborondón",
    "state_id": 2914,
    "state_code": "G",
    "country_id": 64,
    "country_code": "EC",
    "latitude": "-1.96276000",
    "longitude": "-79.72402000",
    "wikiDataId": null
  },
  {
    "id": 31575,
    "name": "Santa Lucía",
    "state_id": 2914,
    "state_code": "G",
    "country_id": 64,
    "country_code": "EC",
    "latitude": "-2.18333000",
    "longitude": "-80.00000000",
    "wikiDataId": null
  },
  {
    "id": 31586,
    "name": "Velasco Ibarra",
    "state_id": 2914,
    "state_code": "G",
    "country_id": 64,
    "country_code": "EC",
    "latitude": "-1.04376000",
    "longitude": "-79.63837000",
    "wikiDataId": null
  },
  {
    "id": 31589,
    "name": "Yaguachi Nuevo",
    "state_id": 2914,
    "state_code": "G",
    "country_id": 64,
    "country_code": "EC",
    "latitude": "-2.09680000",
    "longitude": "-79.69485000",
    "wikiDataId": null
  }
]