[
  {
    "id": 48583,
    "name": "Bodmin",
    "state_id": 2312,
    "state_code": "CON",
    "country_id": 232,
    "country_code": "GB",
    "latitude": "50.47151000",
    "longitude": "-4.72430000",
    "wikiDataId": null
  },
  {
    "id": 48752,
    "name": "Bude",
    "state_id": 2312,
    "state_code": "CON",
    "country_id": 232,
    "country_code": "GB",
    "latitude": "50.82435000",
    "longitude": "-4.54130000",
    "wikiDataId": null
  },
  {
    "id": 48755,
    "name": "Bugle",
    "state_id": 2312,
    "state_code": "CON",
    "country_id": 232,
    "country_code": "GB",
    "latitude": "50.39577000",
    "longitude": "-4.79334000",
    "wikiDataId": null
  },
  {
    "id": 48832,
    "name": "Camborne",
    "state_id": 2312,
    "state_code": "CON",
    "country_id": 232,
    "country_code": "GB",
    "latitude": "50.21306000",
    "longitude": "-5.29731000",
    "wikiDataId": null
  },
  {
    "id": 48839,
    "name": "Camelford",
    "state_id": 2312,
    "state_code": "CON",
    "country_id": 232,
    "country_code": "GB",
    "latitude": "50.62185000",
    "longitude": "-4.67963000",
    "wikiDataId": null
  },
  {
    "id": 48904,
    "name": "Chacewater",
    "state_id": 2312,
    "state_code": "CON",
    "country_id": 232,
    "country_code": "GB",
    "latitude": "50.25675000",
    "longitude": "-5.15757000",
    "wikiDataId": null
  },
  {
    "id": 49107,
    "name": "Cornwall",
    "state_id": 2312,
    "state_code": "CON",
    "country_id": 232,
    "country_code": "GB",
    "latitude": "50.41667000",
    "longitude": "-4.75000000",
    "wikiDataId": null
  },
  {
    "id": 49257,
    "name": "Delabole",
    "state_id": 2312,
    "state_code": "CON",
    "country_id": 232,
    "country_code": "GB",
    "latitude": "50.62347000",
    "longitude": "-4.73190000",
    "wikiDataId": null
  },
  {
    "id": 49297,
    "name": "Dobwalls",
    "state_id": 2312,
    "state_code": "CON",
    "country_id": 232,
    "country_code": "GB",
    "latitude": "50.45768000",
    "longitude": "-4.51735000",
    "wikiDataId": null
  },
  {
    "id": 49525,
    "name": "Falmouth",
    "state_id": 2312,
    "state_code": "CON",
    "country_id": 232,
    "country_code": "GB",
    "latitude": "50.15441000",
    "longitude": "-5.07113000",
    "wikiDataId": null
  },
  {
    "id": 49571,
    "name": "Flexbury",
    "state_id": 2312,
    "state_code": "CON",
    "country_id": 232,
    "country_code": "GB",
    "latitude": "50.83509000",
    "longitude": "-4.54499000",
    "wikiDataId": null
  },
  {
    "id": 49597,
    "name": "Four Lanes",
    "state_id": 2312,
    "state_code": "CON",
    "country_id": 232,
    "country_code": "GB",
    "latitude": "50.20163000",
    "longitude": "-5.24014000",
    "wikiDataId": null
  },
  {
    "id": 49599,
    "name": "Fowey",
    "state_id": 2312,
    "state_code": "CON",
    "country_id": 232,
    "country_code": "GB",
    "latitude": "50.33634000",
    "longitude": "-4.63860000",
    "wikiDataId": null
  },
  {
    "id": 49637,
    "name": "Germoe",
    "state_id": 2312,
    "state_code": "CON",
    "country_id": 232,
    "country_code": "GB",
    "latitude": "50.11539000",
    "longitude": "-5.37881000",
    "wikiDataId": null
  },
  {
    "id": 49863,
    "name": "Hayle",
    "state_id": 2312,
    "state_code": "CON",
    "country_id": 232,
    "country_code": "GB",
    "latitude": "50.18392000",
    "longitude": "-5.42137000",
    "wikiDataId": null
  },
  {
    "id": 49894,
    "name": "Helston",
    "state_id": 2312,
    "state_code": "CON",
    "country_id": 232,
    "country_code": "GB",
    "latitude": "50.10319000",
    "longitude": "-5.27045000",
    "wikiDataId": null
  },
  {
    "id": 49967,
    "name": "Holsworthy",
    "state_id": 2312,
    "state_code": "CON",
    "country_id": 232,
    "country_code": "GB",
    "latitude": "50.81196000",
    "longitude": "-4.35383000",
    "wikiDataId": null
  },
  {
    "id": 50256,
    "name": "Launceston",
    "state_id": 2312,
    "state_code": "CON",
    "country_id": 232,
    "country_code": "GB",
    "latitude": "50.63699000",
    "longitude": "-4.36006000",
    "wikiDataId": null
  },
  {
    "id": 50319,
    "name": "Liskeard",
    "state_id": 2312,
    "state_code": "CON",
    "country_id": 232,
    "country_code": "GB",
    "latitude": "50.45450000",
    "longitude": "-4.46517000",
    "wikiDataId": null
  },
  {
    "id": 50415,
    "name": "Looe",
    "state_id": 2312,
    "state_code": "CON",
    "country_id": 232,
    "country_code": "GB",
    "latitude": "50.35778000",
    "longitude": "-4.45418000",
    "wikiDataId": null
  },
  {
    "id": 50417,
    "name": "Lostwithiel",
    "state_id": 2312,
    "state_code": "CON",
    "country_id": 232,
    "country_code": "GB",
    "latitude": "50.40784000",
    "longitude": "-4.67023000",
    "wikiDataId": null
  },
  {
    "id": 50562,
    "name": "Mevagissey",
    "state_id": 2312,
    "state_code": "CON",
    "country_id": 232,
    "country_code": "GB",
    "latitude": "50.27324000",
    "longitude": "-4.79166000",
    "wikiDataId": null
  },
  {
    "id": 50641,
    "name": "Mount Hawke",
    "state_id": 2312,
    "state_code": "CON",
    "country_id": 232,
    "country_code": "GB",
    "latitude": "50.28229000",
    "longitude": "-5.20855000",
    "wikiDataId": null
  },
  {
    "id": 50651,
    "name": "Mullion",
    "state_id": 2312,
    "state_code": "CON",
    "country_id": 232,
    "country_code": "GB",
    "latitude": "50.02706000",
    "longitude": "-5.24248000",
    "wikiDataId": null
  },
  {
    "id": 50656,
    "name": "Mylor Bridge",
    "state_id": 2312,
    "state_code": "CON",
    "country_id": 232,
    "country_code": "GB",
    "latitude": "50.18506000",
    "longitude": "-5.07963000",
    "wikiDataId": null
  },
  {
    "id": 50662,
    "name": "Nanpean",
    "state_id": 2312,
    "state_code": "CON",
    "country_id": 232,
    "country_code": "GB",
    "latitude": "50.36884000",
    "longitude": "-4.86935000",
    "wikiDataId": null
  },
  {
    "id": 50724,
    "name": "Newquay",
    "state_id": 2312,
    "state_code": "CON",
    "country_id": 232,
    "country_code": "GB",
    "latitude": "50.41557000",
    "longitude": "-5.07319000",
    "wikiDataId": null
  },
  {
    "id": 50845,
    "name": "Padstow",
    "state_id": 2312,
    "state_code": "CON",
    "country_id": 232,
    "country_code": "GB",
    "latitude": "50.53885000",
    "longitude": "-4.93664000",
    "wikiDataId": null
  },
  {
    "id": 50853,
    "name": "Par",
    "state_id": 2312,
    "state_code": "CON",
    "country_id": 232,
    "country_code": "GB",
    "latitude": "50.35107000",
    "longitude": "-4.70288000",
    "wikiDataId": null
  },
  {
    "id": 50888,
    "name": "Penryn",
    "state_id": 2312,
    "state_code": "CON",
    "country_id": 232,
    "country_code": "GB",
    "latitude": "50.16812000",
    "longitude": "-5.10416000",
    "wikiDataId": null
  },
  {
    "id": 50889,
    "name": "Pensilva",
    "state_id": 2312,
    "state_code": "CON",
    "country_id": 232,
    "country_code": "GB",
    "latitude": "50.50302000",
    "longitude": "-4.41491000",
    "wikiDataId": null
  },
  {
    "id": 50895,
    "name": "Perranporth",
    "state_id": 2312,
    "state_code": "CON",
    "country_id": 232,
    "country_code": "GB",
    "latitude": "50.34377000",
    "longitude": "-5.15558000",
    "wikiDataId": null
  },
  {
    "id": 50896,
    "name": "Perranwell",
    "state_id": 2312,
    "state_code": "CON",
    "country_id": 232,
    "country_code": "GB",
    "latitude": "50.21333000",
    "longitude": "-5.12053000",
    "wikiDataId": null
  },
  {
    "id": 50934,
    "name": "Polperro",
    "state_id": 2312,
    "state_code": "CON",
    "country_id": 232,
    "country_code": "GB",
    "latitude": "50.33130000",
    "longitude": "-4.52220000",
    "wikiDataId": null
  },
  {
    "id": 50935,
    "name": "Polzeath",
    "state_id": 2312,
    "state_code": "CON",
    "country_id": 232,
    "country_code": "GB",
    "latitude": "50.56956000",
    "longitude": "-4.91759000",
    "wikiDataId": null
  },
  {
    "id": 50961,
    "name": "Porthleven",
    "state_id": 2312,
    "state_code": "CON",
    "country_id": 232,
    "country_code": "GB",
    "latitude": "50.08618000",
    "longitude": "-5.31501000",
    "wikiDataId": null
  },
  {
    "id": 50969,
    "name": "Portscatho",
    "state_id": 2312,
    "state_code": "CON",
    "country_id": 232,
    "country_code": "GB",
    "latitude": "50.17271000",
    "longitude": "-4.97356000",
    "wikiDataId": null
  },
  {
    "id": 50995,
    "name": "Probus",
    "state_id": 2312,
    "state_code": "CON",
    "country_id": 232,
    "country_code": "GB",
    "latitude": "50.29267000",
    "longitude": "-4.95401000",
    "wikiDataId": null
  },
  {
    "id": 51055,
    "name": "Redruth",
    "state_id": 2312,
    "state_code": "CON",
    "country_id": 232,
    "country_code": "GB",
    "latitude": "50.23315000",
    "longitude": "-5.22434000",
    "wikiDataId": null
  },
  {
    "id": 51094,
    "name": "Roche",
    "state_id": 2312,
    "state_code": "CON",
    "country_id": 232,
    "country_code": "GB",
    "latitude": "50.40808000",
    "longitude": "-4.83373000",
    "wikiDataId": null
  },
  {
    "id": 51097,
    "name": "Rock",
    "state_id": 2312,
    "state_code": "CON",
    "country_id": 232,
    "country_code": "GB",
    "latitude": "50.54978000",
    "longitude": "-4.90462000",
    "wikiDataId": null
  },
  {
    "id": 51162,
    "name": "Saint Agnes",
    "state_id": 2312,
    "state_code": "CON",
    "country_id": 232,
    "country_code": "GB",
    "latitude": "50.31278000",
    "longitude": "-5.20456000",
    "wikiDataId": null
  },
  {
    "id": 51168,
    "name": "Saint Columb Major",
    "state_id": 2312,
    "state_code": "CON",
    "country_id": 232,
    "country_code": "GB",
    "latitude": "50.43163000",
    "longitude": "-4.94336000",
    "wikiDataId": null
  },
  {
    "id": 51171,
    "name": "Saint Dennis",
    "state_id": 2312,
    "state_code": "CON",
    "country_id": 232,
    "country_code": "GB",
    "latitude": "50.38333000",
    "longitude": "-4.88333000",
    "wikiDataId": null
  },
  {
    "id": 51177,
    "name": "Saint Stephen",
    "state_id": 2312,
    "state_code": "CON",
    "country_id": 232,
    "country_code": "GB",
    "latitude": "50.34469000",
    "longitude": "-4.89973000",
    "wikiDataId": null
  },
  {
    "id": 51396,
    "name": "St Austell",
    "state_id": 2312,
    "state_code": "CON",
    "country_id": 232,
    "country_code": "GB",
    "latitude": "50.34250000",
    "longitude": "-4.77442000",
    "wikiDataId": null
  },
  {
    "id": 51403,
    "name": "St. Day",
    "state_id": 2312,
    "state_code": "CON",
    "country_id": 232,
    "country_code": "GB",
    "latitude": "50.23958000",
    "longitude": "-5.18572000",
    "wikiDataId": null
  },
  {
    "id": 51453,
    "name": "Stithians",
    "state_id": 2312,
    "state_code": "CON",
    "country_id": 232,
    "country_code": "GB",
    "latitude": "50.18870000",
    "longitude": "-5.17807000",
    "wikiDataId": null
  },
  {
    "id": 51628,
    "name": "Tintagel",
    "state_id": 2312,
    "state_code": "CON",
    "country_id": 232,
    "country_code": "GB",
    "latitude": "50.66317000",
    "longitude": "-4.75047000",
    "wikiDataId": null
  },
  {
    "id": 51675,
    "name": "Truro",
    "state_id": 2312,
    "state_code": "CON",
    "country_id": 232,
    "country_code": "GB",
    "latitude": "50.26526000",
    "longitude": "-5.05436000",
    "wikiDataId": null
  },
  {
    "id": 51697,
    "name": "Uny Lelant",
    "state_id": 2312,
    "state_code": "CON",
    "country_id": 232,
    "country_code": "GB",
    "latitude": "50.18298000",
    "longitude": "-5.44047000",
    "wikiDataId": null
  },
  {
    "id": 51722,
    "name": "Wadebridge",
    "state_id": 2312,
    "state_code": "CON",
    "country_id": 232,
    "country_code": "GB",
    "latitude": "50.51734000",
    "longitude": "-4.83633000",
    "wikiDataId": null
  }
]