[
  {
    "id": 151894,
    "name": "Aiguamúrcia",
    "state_id": 1203,
    "state_code": "T",
    "country_id": 207,
    "country_code": "ES",
    "latitude": "41.32962240",
    "longitude": "1.35867930",
    "wikiDataId": null
  },
  {
    "id": 151895,
    "name": "Albinyana",
    "state_id": 1203,
    "state_code": "T",
    "country_id": 207,
    "country_code": "ES",
    "latitude": "41.24498070",
    "longitude": "1.48623900",
    "wikiDataId": null
  },
  {
    "id": 151896,
    "name": "Albiol",
    "state_id": 1203,
    "state_code": "T",
    "country_id": 207,
    "country_code": "ES",
    "latitude": "41.25203050",
    "longitude": "1.08960140",
    "wikiDataId": null
  },
  {
    "id": 32083,
    "name": "Alcanar",
    "state_id": 1203,
    "state_code": "T",
    "country_id": 207,
    "country_code": "ES",
    "latitude": "40.54316000",
    "longitude": "0.48082000",
    "wikiDataId": null
  },
  {
    "id": 32122,
    "name": "Alcover",
    "state_id": 1203,
    "state_code": "T",
    "country_id": 207,
    "country_code": "ES",
    "latitude": "41.26267000",
    "longitude": "1.17010000",
    "wikiDataId": null
  },
  {
    "id": 152010,
    "name": "Aldea L",
    "state_id": 1203,
    "state_code": "T",
    "country_id": 207,
    "country_code": "ES",
    "latitude": "40.74557350",
    "longitude": "0.61866630",
    "wikiDataId": null
  },
  {
    "id": 151897,
    "name": "Aldover",
    "state_id": 1203,
    "state_code": "T",
    "country_id": 207,
    "country_code": "ES",
    "latitude": "40.87994200",
    "longitude": "0.49920690",
    "wikiDataId": null
  },
  {
    "id": 151898,
    "name": "Aleixar",
    "state_id": 1203,
    "state_code": "T",
    "country_id": 207,
    "country_code": "ES",
    "latitude": "41.20166390",
    "longitude": "1.04622440",
    "wikiDataId": null
  },
  {
    "id": 151899,
    "name": "Alfara de Carles",
    "state_id": 1203,
    "state_code": "T",
    "country_id": 207,
    "country_code": "ES",
    "latitude": "40.87369050",
    "longitude": "0.40044390",
    "wikiDataId": null
  },
  {
    "id": 32204,
    "name": "Alforja",
    "state_id": 1203,
    "state_code": "T",
    "country_id": 207,
    "country_code": "ES",
    "latitude": "41.21108000",
    "longitude": "0.97542000",
    "wikiDataId": null
  },
  {
    "id": 32250,
    "name": "Alió",
    "state_id": 1203,
    "state_code": "T",
    "country_id": 207,
    "country_code": "ES",
    "latitude": "41.29422000",
    "longitude": "1.30585000",
    "wikiDataId": null
  },
  {
    "id": 32308,
    "name": "Almoster",
    "state_id": 1203,
    "state_code": "T",
    "country_id": 207,
    "country_code": "ES",
    "latitude": "41.19758000",
    "longitude": "1.11167000",
    "wikiDataId": null
  },
  {
    "id": 32338,
    "name": "Altafulla",
    "state_id": 1203,
    "state_code": "T",
    "country_id": 207,
    "country_code": "ES",
    "latitude": "41.14286000",
    "longitude": "1.37269000",
    "wikiDataId": null
  },
  {
    "id": 151900,
    "name": "Ametlla de Mar",
    "state_id": 1203,
    "state_code": "T",
    "country_id": 207,
    "country_code": "ES",
    "latitude": "40.88394350",
    "longitude": "0.79964910",
    "wikiDataId": null
  },
  {
    "id": 152011,
    "name": "Ampolla L",
    "state_id": 1203,
    "state_code": "T",
    "country_id": 207,
    "country_code": "ES",
    "latitude": "40.80500300",
    "longitude": "0.68679390",
    "wikiDataId": null
  },
  {
    "id": 32358,
    "name": "Amposta",
    "state_id": 1203,
    "state_code": "T",
    "country_id": 207,
    "country_code": "ES",
    "latitude": "40.70995000",
    "longitude": "0.57856000",
    "wikiDataId": null
  },
  {
    "id": 151902,
    "name": "Arboç",
    "state_id": 1203,
    "state_code": "T",
    "country_id": 207,
    "country_code": "ES",
    "latitude": "41.26598770",
    "longitude": "1.60203370",
    "wikiDataId": null
  },
  {
    "id": 151901,
    "name": "Arbolí",
    "state_id": 1203,
    "state_code": "T",
    "country_id": 207,
    "country_code": "ES",
    "latitude": "41.24260060",
    "longitude": "0.94877160",
    "wikiDataId": null
  },
  {
    "id": 151903,
    "name": "Argentera",
    "state_id": 1203,
    "state_code": "T",
    "country_id": 207,
    "country_code": "ES",
    "latitude": "41.13750600",
    "longitude": "0.90894240",
    "wikiDataId": null
  },
  {
    "id": 151904,
    "name": "Arnes",
    "state_id": 1203,
    "state_code": "T",
    "country_id": 207,
    "country_code": "ES",
    "latitude": "40.91104580",
    "longitude": "0.26141740",
    "wikiDataId": null
  },
  {
    "id": 32534,
    "name": "Ascó",
    "state_id": 1203,
    "state_code": "T",
    "country_id": 207,
    "country_code": "ES",
    "latitude": "41.18333000",
    "longitude": "0.56667000",
    "wikiDataId": null
  },
  {
    "id": 151905,
    "name": "Banyeres del Penedès",
    "state_id": 1203,
    "state_code": "T",
    "country_id": 207,
    "country_code": "ES",
    "latitude": "41.27945480",
    "longitude": "1.58081750",
    "wikiDataId": null
  },
  {
    "id": 151906,
    "name": "Barberà de la Conca",
    "state_id": 1203,
    "state_code": "T",
    "country_id": 207,
    "country_code": "ES",
    "latitude": "41.41094560",
    "longitude": "1.22775560",
    "wikiDataId": null
  },
  {
    "id": 32693,
    "name": "Batea",
    "state_id": 1203,
    "state_code": "T",
    "country_id": 207,
    "country_code": "ES",
    "latitude": "41.09434000",
    "longitude": "0.31100000",
    "wikiDataId": null
  },
  {
    "id": 151907,
    "name": "Bellmunt del Priorat",
    "state_id": 1203,
    "state_code": "T",
    "country_id": 207,
    "country_code": "ES",
    "latitude": "41.16369910",
    "longitude": "0.76546230",
    "wikiDataId": null
  },
  {
    "id": 151908,
    "name": "Bellvei",
    "state_id": 1203,
    "state_code": "T",
    "country_id": 207,
    "country_code": "ES",
    "latitude": "41.23512120",
    "longitude": "1.56445780",
    "wikiDataId": null
  },
  {
    "id": 32803,
    "name": "Benifallet",
    "state_id": 1203,
    "state_code": "T",
    "country_id": 207,
    "country_code": "ES",
    "latitude": "40.97422000",
    "longitude": "0.51767000",
    "wikiDataId": null
  },
  {
    "id": 151909,
    "name": "Benissanet",
    "state_id": 1203,
    "state_code": "T",
    "country_id": 207,
    "country_code": "ES",
    "latitude": "41.05845590",
    "longitude": "0.63403860",
    "wikiDataId": null
  },
  {
    "id": 151910,
    "name": "Bisbal de Falset",
    "state_id": 1203,
    "state_code": "T",
    "country_id": 207,
    "country_code": "ES",
    "latitude": "41.28063790",
    "longitude": "0.72254670",
    "wikiDataId": null
  },
  {
    "id": 151911,
    "name": "Bisbal del Penedès",
    "state_id": 1203,
    "state_code": "T",
    "country_id": 207,
    "country_code": "ES",
    "latitude": "41.27942250",
    "longitude": "1.48879970",
    "wikiDataId": null
  },
  {
    "id": 32906,
    "name": "Blancafort",
    "state_id": 1203,
    "state_code": "T",
    "country_id": 207,
    "country_code": "ES",
    "latitude": "41.43740000",
    "longitude": "1.15983000",
    "wikiDataId": null
  },
  {
    "id": 32945,
    "name": "Bonastre",
    "state_id": 1203,
    "state_code": "T",
    "country_id": 207,
    "country_code": "ES",
    "latitude": "41.22031000",
    "longitude": "1.43936000",
    "wikiDataId": null
  },
  {
    "id": 151912,
    "name": "Borges del Camp",
    "state_id": 1203,
    "state_code": "T",
    "country_id": 207,
    "country_code": "ES",
    "latitude": "41.17021250",
    "longitude": "1.02092040",
    "wikiDataId": null
  },
  {
    "id": 32963,
    "name": "Bot",
    "state_id": 1203,
    "state_code": "T",
    "country_id": 207,
    "country_code": "ES",
    "latitude": "41.00916000",
    "longitude": "0.38392000",
    "wikiDataId": null
  },
  {
    "id": 32964,
    "name": "Botarell",
    "state_id": 1203,
    "state_code": "T",
    "country_id": 207,
    "country_code": "ES",
    "latitude": "41.13627000",
    "longitude": "0.98919000",
    "wikiDataId": null
  },
  {
    "id": 151913,
    "name": "Bràfim",
    "state_id": 1203,
    "state_code": "T",
    "country_id": 207,
    "country_code": "ES",
    "latitude": "41.26877280",
    "longitude": "1.34126630",
    "wikiDataId": null
  },
  {
    "id": 151914,
    "name": "Cabacés",
    "state_id": 1203,
    "state_code": "T",
    "country_id": 207,
    "country_code": "ES",
    "latitude": "41.24746030",
    "longitude": "0.73397650",
    "wikiDataId": null
  },
  {
    "id": 151915,
    "name": "Cabra del Camp",
    "state_id": 1203,
    "state_code": "T",
    "country_id": 207,
    "country_code": "ES",
    "latitude": "41.39540090",
    "longitude": "1.27586410",
    "wikiDataId": null
  },
  {
    "id": 33125,
    "name": "Calafell",
    "state_id": 1203,
    "state_code": "T",
    "country_id": 207,
    "country_code": "ES",
    "latitude": "41.19997000",
    "longitude": "1.56830000",
    "wikiDataId": null
  },
  {
    "id": 152009,
    "name": "Camarles",
    "state_id": 1203,
    "state_code": "T",
    "country_id": 207,
    "country_code": "ES",
    "latitude": "40.77093110",
    "longitude": "0.66900340",
    "wikiDataId": null
  },
  {
    "id": 33177,
    "name": "Cambrils",
    "state_id": 1203,
    "state_code": "T",
    "country_id": 207,
    "country_code": "ES",
    "latitude": "41.06997000",
    "longitude": "1.05949000",
    "wikiDataId": null
  },
  {
    "id": 33262,
    "name": "Capafonts",
    "state_id": 1203,
    "state_code": "T",
    "country_id": 207,
    "country_code": "ES",
    "latitude": "41.30000000",
    "longitude": "1.03333000",
    "wikiDataId": null
  },
  {
    "id": 151916,
    "name": "Capçanes",
    "state_id": 1203,
    "state_code": "T",
    "country_id": 207,
    "country_code": "ES",
    "latitude": "41.10068110",
    "longitude": "0.78210620",
    "wikiDataId": null
  },
  {
    "id": 151917,
    "name": "Caseres",
    "state_id": 1203,
    "state_code": "T",
    "country_id": 207,
    "country_code": "ES",
    "latitude": "41.03944530",
    "longitude": "0.25114970",
    "wikiDataId": null
  },
  {
    "id": 151918,
    "name": "Castellvell del Camp",
    "state_id": 1203,
    "state_code": "T",
    "country_id": 207,
    "country_code": "ES",
    "latitude": "41.18051300",
    "longitude": "1.09723960",
    "wikiDataId": null
  },
  {
    "id": 151919,
    "name": "Catllar",
    "state_id": 1203,
    "state_code": "T",
    "country_id": 207,
    "country_code": "ES",
    "latitude": "41.17590370",
    "longitude": "1.32703970",
    "wikiDataId": null
  },
  {
    "id": 33739,
    "name": "Colldejou",
    "state_id": 1203,
    "state_code": "T",
    "country_id": 207,
    "country_code": "ES",
    "latitude": "41.09970000",
    "longitude": "0.88717000",
    "wikiDataId": null
  },
  {
    "id": 33756,
    "name": "Conesa",
    "state_id": 1203,
    "state_code": "T",
    "country_id": 207,
    "country_code": "ES",
    "latitude": "41.51667000",
    "longitude": "1.30000000",
    "wikiDataId": null
  },
  {
    "id": 33766,
    "name": "Constantí",
    "state_id": 1203,
    "state_code": "T",
    "country_id": 207,
    "country_code": "ES",
    "latitude": "41.15392000",
    "longitude": "1.21262000",
    "wikiDataId": null
  },
  {
    "id": 151921,
    "name": "Corbera d'Ebre",
    "state_id": 1203,
    "state_code": "T",
    "country_id": 207,
    "country_code": "ES",
    "latitude": "41.07685030",
    "longitude": "0.47559930",
    "wikiDataId": null
  },
  {
    "id": 151922,
    "name": "Cornudella de Montsant",
    "state_id": 1203,
    "state_code": "T",
    "country_id": 207,
    "country_code": "ES",
    "latitude": "41.26539100",
    "longitude": "0.90506590",
    "wikiDataId": null
  },
  {
    "id": 33832,
    "name": "Creixell",
    "state_id": 1203,
    "state_code": "T",
    "country_id": 207,
    "country_code": "ES",
    "latitude": "41.16618000",
    "longitude": "1.44032000",
    "wikiDataId": null
  },
  {
    "id": 33884,
    "name": "Cunit",
    "state_id": 1203,
    "state_code": "T",
    "country_id": 207,
    "country_code": "ES",
    "latitude": "41.19829000",
    "longitude": "1.63645000",
    "wikiDataId": null
  },
  {
    "id": 33925,
    "name": "Deltebre",
    "state_id": 1203,
    "state_code": "T",
    "country_id": 207,
    "country_code": "ES",
    "latitude": "40.71944000",
    "longitude": "0.70835000",
    "wikiDataId": null
  },
  {
    "id": 151924,
    "name": "Duesaigües",
    "state_id": 1203,
    "state_code": "T",
    "country_id": 207,
    "country_code": "ES",
    "latitude": "41.14582840",
    "longitude": "0.93012010",
    "wikiDataId": null
  },
  {
    "id": 151961,
    "name": "El Perelló",
    "state_id": 1203,
    "state_code": "T",
    "country_id": 207,
    "country_code": "ES",
    "latitude": "40.89598290",
    "longitude": "0.69628530",
    "wikiDataId": null
  },
  {
    "id": 151925,
    "name": "Espluga de Francolí",
    "state_id": 1203,
    "state_code": "T",
    "country_id": 207,
    "country_code": "ES",
    "latitude": "41.39718190",
    "longitude": "1.10293180",
    "wikiDataId": null
  },
  {
    "id": 34159,
    "name": "Falset",
    "state_id": 1203,
    "state_code": "T",
    "country_id": 207,
    "country_code": "ES",
    "latitude": "41.14576000",
    "longitude": "0.81979000",
    "wikiDataId": null
  },
  {
    "id": 151926,
    "name": "Fatarella",
    "state_id": 1203,
    "state_code": "T",
    "country_id": 207,
    "country_code": "ES",
    "latitude": "41.16211050",
    "longitude": "0.47367980",
    "wikiDataId": null
  },
  {
    "id": 151927,
    "name": "Febró",
    "state_id": 1203,
    "state_code": "T",
    "country_id": 207,
    "country_code": "ES",
    "latitude": "41.27759130",
    "longitude": "1.00432840",
    "wikiDataId": null
  },
  {
    "id": 151928,
    "name": "Figuera",
    "state_id": 1203,
    "state_code": "T",
    "country_id": 207,
    "country_code": "ES",
    "latitude": "41.11820310",
    "longitude": "1.24962180",
    "wikiDataId": null
  },
  {
    "id": 151929,
    "name": "Figuerola del Camp",
    "state_id": 1203,
    "state_code": "T",
    "country_id": 207,
    "country_code": "ES",
    "latitude": "41.37140850",
    "longitude": "1.26533560",
    "wikiDataId": null
  },
  {
    "id": 34195,
    "name": "Flix",
    "state_id": 1203,
    "state_code": "T",
    "country_id": 207,
    "country_code": "ES",
    "latitude": "41.23074000",
    "longitude": "0.55008000",
    "wikiDataId": null
  },
  {
    "id": 34233,
    "name": "Forès",
    "state_id": 1203,
    "state_code": "T",
    "country_id": 207,
    "country_code": "ES",
    "latitude": "41.48333000",
    "longitude": "1.23333000",
    "wikiDataId": null
  },
  {
    "id": 151930,
    "name": "Freginals",
    "state_id": 1203,
    "state_code": "T",
    "country_id": 207,
    "country_code": "ES",
    "latitude": "40.67221430",
    "longitude": "0.52046580",
    "wikiDataId": null
  },
  {
    "id": 151931,
    "name": "Galera",
    "state_id": 1203,
    "state_code": "T",
    "country_id": 207,
    "country_code": "ES",
    "latitude": "40.68968260",
    "longitude": "0.43608810",
    "wikiDataId": null
  },
  {
    "id": 34402,
    "name": "Gandesa",
    "state_id": 1203,
    "state_code": "T",
    "country_id": 207,
    "country_code": "ES",
    "latitude": "41.05375000",
    "longitude": "0.43850000",
    "wikiDataId": null
  },
  {
    "id": 34408,
    "name": "Garcia",
    "state_id": 1203,
    "state_code": "T",
    "country_id": 207,
    "country_code": "ES",
    "latitude": "41.13333000",
    "longitude": "0.65000000",
    "wikiDataId": null
  },
  {
    "id": 151932,
    "name": "Garidells",
    "state_id": 1203,
    "state_code": "T",
    "country_id": 207,
    "country_code": "ES",
    "latitude": "41.20745490",
    "longitude": "1.24754590",
    "wikiDataId": null
  },
  {
    "id": 34468,
    "name": "Ginestar",
    "state_id": 1203,
    "state_code": "T",
    "country_id": 207,
    "country_code": "ES",
    "latitude": "41.04184000",
    "longitude": "0.63290000",
    "wikiDataId": null
  },
  {
    "id": 151933,
    "name": "Godall",
    "state_id": 1203,
    "state_code": "T",
    "country_id": 207,
    "country_code": "ES",
    "latitude": "40.65467160",
    "longitude": "0.46969960",
    "wikiDataId": null
  },
  {
    "id": 151934,
    "name": "Gratallops",
    "state_id": 1203,
    "state_code": "T",
    "country_id": 207,
    "country_code": "ES",
    "latitude": "41.19316560",
    "longitude": "0.77675560",
    "wikiDataId": null
  },
  {
    "id": 151935,
    "name": "Guiamets",
    "state_id": 1203,
    "state_code": "T",
    "country_id": 207,
    "country_code": "ES",
    "latitude": "41.10150770",
    "longitude": "0.75238980",
    "wikiDataId": null
  },
  {
    "id": 151936,
    "name": "Horta de Sant Joan",
    "state_id": 1203,
    "state_code": "T",
    "country_id": 207,
    "country_code": "ES",
    "latitude": "40.95384080",
    "longitude": "0.31544100",
    "wikiDataId": null
  },
  {
    "id": 152012,
    "name": "La Canonja",
    "state_id": 1203,
    "state_code": "T",
    "country_id": 207,
    "country_code": "ES",
    "latitude": "41.10886560",
    "longitude": "1.18810760",
    "wikiDataId": null
  },
  {
    "id": 151976,
    "name": "La Riba",
    "state_id": 1203,
    "state_code": "T",
    "country_id": 207,
    "country_code": "ES",
    "latitude": "41.31792030",
    "longitude": "1.17738560",
    "wikiDataId": null
  },
  {
    "id": 151978,
    "name": "La Riera de Gaià",
    "state_id": 1203,
    "state_code": "T",
    "country_id": 207,
    "country_code": "ES",
    "latitude": "41.16671160",
    "longitude": "1.36078940",
    "wikiDataId": null
  },
  {
    "id": 152003,
    "name": "La Vilella Alta",
    "state_id": 1203,
    "state_code": "T",
    "country_id": 207,
    "country_code": "ES",
    "latitude": "41.22517600",
    "longitude": "0.78091710",
    "wikiDataId": null
  },
  {
    "id": 152004,
    "name": "La Vilella Baixa",
    "state_id": 1203,
    "state_code": "T",
    "country_id": 207,
    "country_code": "ES",
    "latitude": "41.22027070",
    "longitude": "0.76308520",
    "wikiDataId": null
  },
  {
    "id": 151962,
    "name": "Les Piles",
    "state_id": 1203,
    "state_code": "T",
    "country_id": 207,
    "country_code": "ES",
    "latitude": "41.50353180",
    "longitude": "1.33728230",
    "wikiDataId": null
  },
  {
    "id": 151937,
    "name": "Lloar",
    "state_id": 1203,
    "state_code": "T",
    "country_id": 207,
    "country_code": "ES",
    "latitude": "41.18580880",
    "longitude": "0.74882520",
    "wikiDataId": null
  },
  {
    "id": 151938,
    "name": "Llorac",
    "state_id": 1203,
    "state_code": "T",
    "country_id": 207,
    "country_code": "ES",
    "latitude": "41.55680330",
    "longitude": "1.30731470",
    "wikiDataId": null
  },
  {
    "id": 151939,
    "name": "Llorenç del Penedès",
    "state_id": 1203,
    "state_code": "T",
    "country_id": 207,
    "country_code": "ES",
    "latitude": "41.28428060",
    "longitude": "1.54870990",
    "wikiDataId": null
  },
  {
    "id": 151940,
    "name": "Marçà",
    "state_id": 1203,
    "state_code": "T",
    "country_id": 207,
    "country_code": "ES",
    "latitude": "41.12665530",
    "longitude": "0.80262330",
    "wikiDataId": null
  },
  {
    "id": 35288,
    "name": "Margalef",
    "state_id": 1203,
    "state_code": "T",
    "country_id": 207,
    "country_code": "ES",
    "latitude": "41.28496000",
    "longitude": "0.75331000",
    "wikiDataId": null
  },
  {
    "id": 35315,
    "name": "Mas de Barberans",
    "state_id": 1203,
    "state_code": "T",
    "country_id": 207,
    "country_code": "ES",
    "latitude": "40.73333000",
    "longitude": "0.36667000",
    "wikiDataId": null
  },
  {
    "id": 35319,
    "name": "Masdenverge",
    "state_id": 1203,
    "state_code": "T",
    "country_id": 207,
    "country_code": "ES",
    "latitude": "40.71600000",
    "longitude": "0.53009000",
    "wikiDataId": null
  },
  {
    "id": 151941,
    "name": "Masllorenç",
    "state_id": 1203,
    "state_code": "T",
    "country_id": 207,
    "country_code": "ES",
    "latitude": "41.27029600",
    "longitude": "1.41629370",
    "wikiDataId": null
  },
  {
    "id": 151942,
    "name": "Masó",
    "state_id": 1203,
    "state_code": "T",
    "country_id": 207,
    "country_code": "ES",
    "latitude": "41.23461470",
    "longitude": "1.22117370",
    "wikiDataId": null
  },
  {
    "id": 151943,
    "name": "Maspujols",
    "state_id": 1203,
    "state_code": "T",
    "country_id": 207,
    "country_code": "ES",
    "latitude": "41.18162420",
    "longitude": "1.04514770",
    "wikiDataId": null
  },
  {
    "id": 151944,
    "name": "Masroig",
    "state_id": 1203,
    "state_code": "T",
    "country_id": 207,
    "country_code": "ES",
    "latitude": "41.12586250",
    "longitude": "0.73249190",
    "wikiDataId": null
  },
  {
    "id": 151945,
    "name": "Milà",
    "state_id": 1203,
    "state_code": "T",
    "country_id": 207,
    "country_code": "ES",
    "latitude": "41.24851610",
    "longitude": "1.20642510",
    "wikiDataId": null
  },
  {
    "id": 35454,
    "name": "Miravet",
    "state_id": 1203,
    "state_code": "T",
    "country_id": 207,
    "country_code": "ES",
    "latitude": "41.03930000",
    "longitude": "0.59665000",
    "wikiDataId": null
  },
  {
    "id": 151946,
    "name": "Molar",
    "state_id": 1203,
    "state_code": "T",
    "country_id": 207,
    "country_code": "ES",
    "latitude": "41.16310660",
    "longitude": "0.71052670",
    "wikiDataId": null
  },
  {
    "id": 151949,
    "name": "Mont-ral",
    "state_id": 1203,
    "state_code": "T",
    "country_id": 207,
    "country_code": "ES",
    "latitude": "41.28685610",
    "longitude": "1.09794430",
    "wikiDataId": null
  },
  {
    "id": 35528,
    "name": "Mont-roig del Camp",
    "state_id": 1203,
    "state_code": "T",
    "country_id": 207,
    "country_code": "ES",
    "latitude": "41.08675000",
    "longitude": "0.95925000",
    "wikiDataId": null
  },
  {
    "id": 35539,
    "name": "Montblanc",
    "state_id": 1203,
    "state_code": "T",
    "country_id": 207,
    "country_code": "ES",
    "latitude": "41.37636000",
    "longitude": "1.16163000",
    "wikiDataId": null
  },
  {
    "id": 151947,
    "name": "Montbrió del Camp",
    "state_id": 1203,
    "state_code": "T",
    "country_id": 207,
    "country_code": "ES",
    "latitude": "41.12192980",
    "longitude": "1.00477680",
    "wikiDataId": null
  },
  {
    "id": 35572,
    "name": "Montferri",
    "state_id": 1203,
    "state_code": "T",
    "country_id": 207,
    "country_code": "ES",
    "latitude": "41.26545000",
    "longitude": "1.36517000",
    "wikiDataId": null
  },
  {
    "id": 151948,
    "name": "Montmell",
    "state_id": 1203,
    "state_code": "T",
    "country_id": 207,
    "country_code": "ES",
    "latitude": "41.34145370",
    "longitude": "1.49182350",
    "wikiDataId": null
  },
  {
    "id": 151950,
    "name": "Móra d'Ebre",
    "state_id": 1203,
    "state_code": "T",
    "country_id": 207,
    "country_code": "ES",
    "latitude": "41.08677150",
    "longitude": "0.63818540",
    "wikiDataId": null
  },
  {
    "id": 151951,
    "name": "Móra la Nova",
    "state_id": 1203,
    "state_code": "T",
    "country_id": 207,
    "country_code": "ES",
    "latitude": "41.10433110",
    "longitude": "0.65003570",
    "wikiDataId": null
  },
  {
    "id": 151952,
    "name": "Morell",
    "state_id": 1203,
    "state_code": "T",
    "country_id": 207,
    "country_code": "ES",
    "latitude": "41.19218390",
    "longitude": "1.20644990",
    "wikiDataId": null
  },
  {
    "id": 151953,
    "name": "Morera de Montsant",
    "state_id": 1203,
    "state_code": "T",
    "country_id": 207,
    "country_code": "ES",
    "latitude": "41.26492930",
    "longitude": "0.84160450",
    "wikiDataId": null
  },
  {
    "id": 151954,
    "name": "Nou de Gaià",
    "state_id": 1203,
    "state_code": "T",
    "country_id": 207,
    "country_code": "ES",
    "latitude": "41.18277470",
    "longitude": "1.37559760",
    "wikiDataId": null
  },
  {
    "id": 151955,
    "name": "Nulles",
    "state_id": 1203,
    "state_code": "T",
    "country_id": 207,
    "country_code": "ES",
    "latitude": "41.24910510",
    "longitude": "1.29692890",
    "wikiDataId": null
  },
  {
    "id": 151957,
    "name": "Pallaresos",
    "state_id": 1203,
    "state_code": "T",
    "country_id": 207,
    "country_code": "ES",
    "latitude": "41.17528240",
    "longitude": "1.27044910",
    "wikiDataId": null
  },
  {
    "id": 151956,
    "name": "Palma d'Ebre",
    "state_id": 1203,
    "state_code": "T",
    "country_id": 207,
    "country_code": "ES",
    "latitude": "41.28333020",
    "longitude": "0.66603910",
    "wikiDataId": null
  },
  {
    "id": 151958,
    "name": "Passanant i Belltall",
    "state_id": 1203,
    "state_code": "T",
    "country_id": 207,
    "country_code": "ES",
    "latitude": "41.52500510",
    "longitude": "1.20252070",
    "wikiDataId": null
  },
  {
    "id": 151959,
    "name": "Paüls",
    "state_id": 1203,
    "state_code": "T",
    "country_id": 207,
    "country_code": "ES",
    "latitude": "40.92201620",
    "longitude": "0.40014950",
    "wikiDataId": null
  },
  {
    "id": 151960,
    "name": "Perafort",
    "state_id": 1203,
    "state_code": "T",
    "country_id": 207,
    "country_code": "ES",
    "latitude": "41.19052270",
    "longitude": "1.25601260",
    "wikiDataId": null
  },
  {
    "id": 151963,
    "name": "Pinell de Brai",
    "state_id": 1203,
    "state_code": "T",
    "country_id": 207,
    "country_code": "ES",
    "latitude": "41.01619960",
    "longitude": "0.51455940",
    "wikiDataId": null
  },
  {
    "id": 151964,
    "name": "Pira",
    "state_id": 1203,
    "state_code": "T",
    "country_id": 207,
    "country_code": "ES",
    "latitude": "41.42341140",
    "longitude": "1.20282100",
    "wikiDataId": null
  },
  {
    "id": 151965,
    "name": "Pla de Santa Maria",
    "state_id": 1203,
    "state_code": "T",
    "country_id": 207,
    "country_code": "ES",
    "latitude": "41.34356780",
    "longitude": "1.31800420",
    "wikiDataId": null
  },
  {
    "id": 151966,
    "name": "Pobla de Mafumet",
    "state_id": 1203,
    "state_code": "T",
    "country_id": 207,
    "country_code": "ES",
    "latitude": "41.18490960",
    "longitude": "1.20999390",
    "wikiDataId": null
  },
  {
    "id": 151967,
    "name": "Pobla de Massaluc",
    "state_id": 1203,
    "state_code": "T",
    "country_id": 207,
    "country_code": "ES",
    "latitude": "41.18078020",
    "longitude": "0.35336070",
    "wikiDataId": null
  },
  {
    "id": 151968,
    "name": "Pobla de Montornès",
    "state_id": 1203,
    "state_code": "T",
    "country_id": 207,
    "country_code": "ES",
    "latitude": "41.17737340",
    "longitude": "1.41508630",
    "wikiDataId": null
  },
  {
    "id": 151969,
    "name": "Poboleda",
    "state_id": 1203,
    "state_code": "T",
    "country_id": 207,
    "country_code": "ES",
    "latitude": "41.23445540",
    "longitude": "0.84547490",
    "wikiDataId": null
  },
  {
    "id": 151970,
    "name": "Pont d'Armentera",
    "state_id": 1203,
    "state_code": "T",
    "country_id": 207,
    "country_code": "ES",
    "latitude": "41.13601600",
    "longitude": "1.25744440",
    "wikiDataId": null
  },
  {
    "id": 36274,
    "name": "Pontils",
    "state_id": 1203,
    "state_code": "T",
    "country_id": 207,
    "country_code": "ES",
    "latitude": "41.47734000",
    "longitude": "1.38772000",
    "wikiDataId": null
  },
  {
    "id": 151971,
    "name": "Porrera",
    "state_id": 1203,
    "state_code": "T",
    "country_id": 207,
    "country_code": "ES",
    "latitude": "41.18790030",
    "longitude": "0.85500360",
    "wikiDataId": null
  },
  {
    "id": 151972,
    "name": "Pradell de la Teixeta",
    "state_id": 1203,
    "state_code": "T",
    "country_id": 207,
    "country_code": "ES",
    "latitude": "41.15662580",
    "longitude": "0.87615340",
    "wikiDataId": null
  },
  {
    "id": 151973,
    "name": "Prades",
    "state_id": 1203,
    "state_code": "T",
    "country_id": 207,
    "country_code": "ES",
    "latitude": "41.30671140",
    "longitude": "0.99162740",
    "wikiDataId": null
  },
  {
    "id": 151974,
    "name": "Prat de Comte",
    "state_id": 1203,
    "state_code": "T",
    "country_id": 207,
    "country_code": "ES",
    "latitude": "40.98338150",
    "longitude": "0.40529080",
    "wikiDataId": null
  },
  {
    "id": 151975,
    "name": "Pratdip",
    "state_id": 1203,
    "state_code": "T",
    "country_id": 207,
    "country_code": "ES",
    "latitude": "41.05092720",
    "longitude": "0.87138630",
    "wikiDataId": null
  },
  {
    "id": 36463,
    "name": "Puigpelat",
    "state_id": 1203,
    "state_code": "T",
    "country_id": 207,
    "country_code": "ES",
    "latitude": "41.27899000",
    "longitude": "1.29713000",
    "wikiDataId": null
  },
  {
    "id": 36496,
    "name": "Querol",
    "state_id": 1203,
    "state_code": "T",
    "country_id": 207,
    "country_code": "ES",
    "latitude": "41.42293000",
    "longitude": "1.39684000",
    "wikiDataId": null
  },
  {
    "id": 36549,
    "name": "Rasquera",
    "state_id": 1203,
    "state_code": "T",
    "country_id": 207,
    "country_code": "ES",
    "latitude": "41.00267000",
    "longitude": "0.59967000",
    "wikiDataId": null
  },
  {
    "id": 36576,
    "name": "Renau",
    "state_id": 1203,
    "state_code": "T",
    "country_id": 207,
    "country_code": "ES",
    "latitude": "41.22448000",
    "longitude": "1.31083000",
    "wikiDataId": null
  },
  {
    "id": 36592,
    "name": "Reus",
    "state_id": 1203,
    "state_code": "T",
    "country_id": 207,
    "country_code": "ES",
    "latitude": "41.15612000",
    "longitude": "1.10687000",
    "wikiDataId": null
  },
  {
    "id": 151977,
    "name": "Riba-roja d'Ebre",
    "state_id": 1203,
    "state_code": "T",
    "country_id": 207,
    "country_code": "ES",
    "latitude": "41.25982400",
    "longitude": "0.46910970",
    "wikiDataId": null
  },
  {
    "id": 36634,
    "name": "Riudecanyes",
    "state_id": 1203,
    "state_code": "T",
    "country_id": 207,
    "country_code": "ES",
    "latitude": "41.13333000",
    "longitude": "0.96667000",
    "wikiDataId": null
  },
  {
    "id": 36635,
    "name": "Riudecols",
    "state_id": 1203,
    "state_code": "T",
    "country_id": 207,
    "country_code": "ES",
    "latitude": "41.16900000",
    "longitude": "0.97625000",
    "wikiDataId": null
  },
  {
    "id": 36637,
    "name": "Riudoms",
    "state_id": 1203,
    "state_code": "T",
    "country_id": 207,
    "country_code": "ES",
    "latitude": "41.13333000",
    "longitude": "1.05000000",
    "wikiDataId": null
  },
  {
    "id": 151979,
    "name": "Rocafort de Queralt",
    "state_id": 1203,
    "state_code": "T",
    "country_id": 207,
    "country_code": "ES",
    "latitude": "41.47854340",
    "longitude": "1.28127970",
    "wikiDataId": null
  },
  {
    "id": 36661,
    "name": "Roda de Barà",
    "state_id": 1203,
    "state_code": "T",
    "country_id": 207,
    "country_code": "ES",
    "latitude": "41.18645000",
    "longitude": "1.45893000",
    "wikiDataId": null
  },
  {
    "id": 151980,
    "name": "Rodonyà",
    "state_id": 1203,
    "state_code": "T",
    "country_id": 207,
    "country_code": "ES",
    "latitude": "41.28052580",
    "longitude": "1.39894740",
    "wikiDataId": null
  },
  {
    "id": 151981,
    "name": "Roquetes",
    "state_id": 1203,
    "state_code": "T",
    "country_id": 207,
    "country_code": "ES",
    "latitude": "40.82094220",
    "longitude": "0.50205170",
    "wikiDataId": null
  },
  {
    "id": 151982,
    "name": "Rourell",
    "state_id": 1203,
    "state_code": "T",
    "country_id": 207,
    "country_code": "ES",
    "latitude": "41.22359940",
    "longitude": "1.21753960",
    "wikiDataId": null
  },
  {
    "id": 36775,
    "name": "Salomó",
    "state_id": 1203,
    "state_code": "T",
    "country_id": 207,
    "country_code": "ES",
    "latitude": "41.22955000",
    "longitude": "1.37445000",
    "wikiDataId": null
  },
  {
    "id": 36777,
    "name": "Salou",
    "state_id": 1203,
    "state_code": "T",
    "country_id": 207,
    "country_code": "ES",
    "latitude": "41.07663000",
    "longitude": "1.14163000",
    "wikiDataId": null
  },
  {
    "id": 36959,
    "name": "Sant Carles de la Ràpita",
    "state_id": 1203,
    "state_code": "T",
    "country_id": 207,
    "country_code": "ES",
    "latitude": "40.61667000",
    "longitude": "0.60000000",
    "wikiDataId": null
  },
  {
    "id": 152008,
    "name": "Sant Jaume d'Enveja",
    "state_id": 1203,
    "state_code": "T",
    "country_id": 207,
    "country_code": "ES",
    "latitude": "40.70597070",
    "longitude": "0.72714790",
    "wikiDataId": null
  },
  {
    "id": 151983,
    "name": "Sant Jaume dels Domenys",
    "state_id": 1203,
    "state_code": "T",
    "country_id": 207,
    "country_code": "ES",
    "latitude": "41.29982130",
    "longitude": "1.55900600",
    "wikiDataId": null
  },
  {
    "id": 37008,
    "name": "Santa Bárbara",
    "state_id": 1203,
    "state_code": "T",
    "country_id": 207,
    "country_code": "ES",
    "latitude": "40.71542000",
    "longitude": "0.49292000",
    "wikiDataId": null
  },
  {
    "id": 151984,
    "name": "Santa Coloma de Queralt",
    "state_id": 1203,
    "state_code": "T",
    "country_id": 207,
    "country_code": "ES",
    "latitude": "41.53222150",
    "longitude": "1.38292460",
    "wikiDataId": null
  },
  {
    "id": 37095,
    "name": "Santa Oliva",
    "state_id": 1203,
    "state_code": "T",
    "country_id": 207,
    "country_code": "ES",
    "latitude": "41.25357000",
    "longitude": "1.55086000",
    "wikiDataId": null
  },
  {
    "id": 151985,
    "name": "Sarral",
    "state_id": 1203,
    "state_code": "T",
    "country_id": 207,
    "country_code": "ES",
    "latitude": "41.44514590",
    "longitude": "1.24759370",
    "wikiDataId": null
  },
  {
    "id": 151986,
    "name": "Savallà del Comtat",
    "state_id": 1203,
    "state_code": "T",
    "country_id": 207,
    "country_code": "ES",
    "latitude": "41.54300610",
    "longitude": "1.29903590",
    "wikiDataId": null
  },
  {
    "id": 151987,
    "name": "Secuita",
    "state_id": 1203,
    "state_code": "T",
    "country_id": 207,
    "country_code": "ES",
    "latitude": "41.20379740",
    "longitude": "1.28116470",
    "wikiDataId": null
  },
  {
    "id": 151988,
    "name": "Selva del Camp",
    "state_id": 1203,
    "state_code": "T",
    "country_id": 207,
    "country_code": "ES",
    "latitude": "41.20505910",
    "longitude": "1.12570820",
    "wikiDataId": null
  },
  {
    "id": 151989,
    "name": "Senan",
    "state_id": 1203,
    "state_code": "T",
    "country_id": 207,
    "country_code": "ES",
    "latitude": "41.47005960",
    "longitude": "1.08750480",
    "wikiDataId": null
  },
  {
    "id": 151920,
    "name": "Sénia",
    "state_id": 1203,
    "state_code": "T",
    "country_id": 207,
    "country_code": "ES",
    "latitude": "40.65455160",
    "longitude": "0.31837920",
    "wikiDataId": null
  },
  {
    "id": 151990,
    "name": "Solivella",
    "state_id": 1203,
    "state_code": "T",
    "country_id": 207,
    "country_code": "ES",
    "latitude": "41.45588490",
    "longitude": "1.17790130",
    "wikiDataId": null
  },
  {
    "id": 37383,
    "name": "Tarragona",
    "state_id": 1203,
    "state_code": "T",
    "country_id": 207,
    "country_code": "ES",
    "latitude": "41.11667000",
    "longitude": "1.25000000",
    "wikiDataId": null
  },
  {
    "id": 37433,
    "name": "Tivenys",
    "state_id": 1203,
    "state_code": "T",
    "country_id": 207,
    "country_code": "ES",
    "latitude": "40.90787000",
    "longitude": "0.51236000",
    "wikiDataId": null
  },
  {
    "id": 151991,
    "name": "Tivissa",
    "state_id": 1203,
    "state_code": "T",
    "country_id": 207,
    "country_code": "ES",
    "latitude": "41.04086090",
    "longitude": "0.73308580",
    "wikiDataId": null
  },
  {
    "id": 151993,
    "name": "Torre de Espanyol",
    "state_id": 1203,
    "state_code": "T",
    "country_id": 207,
    "country_code": "ES",
    "latitude": "41.11888270",
    "longitude": "1.24449090",
    "wikiDataId": null
  },
  {
    "id": 151992,
    "name": "Torre de Fontaubella",
    "state_id": 1203,
    "state_code": "T",
    "country_id": 207,
    "country_code": "ES",
    "latitude": "41.12463390",
    "longitude": "0.86483240",
    "wikiDataId": null
  },
  {
    "id": 37529,
    "name": "Torredembarra",
    "state_id": 1203,
    "state_code": "T",
    "country_id": 207,
    "country_code": "ES",
    "latitude": "41.14505000",
    "longitude": "1.39861000",
    "wikiDataId": null
  },
  {
    "id": 151994,
    "name": "Torroja del Priorat",
    "state_id": 1203,
    "state_code": "T",
    "country_id": 207,
    "country_code": "ES",
    "latitude": "41.21334950",
    "longitude": "0.81095200",
    "wikiDataId": null
  },
  {
    "id": 37597,
    "name": "Tortosa",
    "state_id": 1203,
    "state_code": "T",
    "country_id": 207,
    "country_code": "ES",
    "latitude": "40.81249000",
    "longitude": "0.52160000",
    "wikiDataId": null
  },
  {
    "id": 37681,
    "name": "Ulldecona",
    "state_id": 1203,
    "state_code": "T",
    "country_id": 207,
    "country_code": "ES",
    "latitude": "40.59734000",
    "longitude": "0.44718000",
    "wikiDataId": null
  },
  {
    "id": 37682,
    "name": "Ulldemolins",
    "state_id": 1203,
    "state_code": "T",
    "country_id": 207,
    "country_code": "ES",
    "latitude": "41.32216000",
    "longitude": "0.87650000",
    "wikiDataId": null
  },
  {
    "id": 37842,
    "name": "Vallclara",
    "state_id": 1203,
    "state_code": "T",
    "country_id": 207,
    "country_code": "ES",
    "latitude": "41.37958000",
    "longitude": "0.98342000",
    "wikiDataId": null
  },
  {
    "id": 151995,
    "name": "Vallfogona de Riucorb",
    "state_id": 1203,
    "state_code": "T",
    "country_id": 207,
    "country_code": "ES",
    "latitude": "41.55961600",
    "longitude": "1.23617060",
    "wikiDataId": null
  },
  {
    "id": 37862,
    "name": "Vallmoll",
    "state_id": 1203,
    "state_code": "T",
    "country_id": 207,
    "country_code": "ES",
    "latitude": "41.24311000",
    "longitude": "1.24900000",
    "wikiDataId": null
  },
  {
    "id": 37863,
    "name": "Valls",
    "state_id": 1203,
    "state_code": "T",
    "country_id": 207,
    "country_code": "ES",
    "latitude": "41.28612000",
    "longitude": "1.24993000",
    "wikiDataId": null
  },
  {
    "id": 151996,
    "name": "Vandellòs i Hospitalet de Infant",
    "state_id": 1203,
    "state_code": "T",
    "country_id": 207,
    "country_code": "ES",
    "latitude": "40.99089910",
    "longitude": "0.92366910",
    "wikiDataId": null
  },
  {
    "id": 151997,
    "name": "Vendrell",
    "state_id": 1203,
    "state_code": "T",
    "country_id": 207,
    "country_code": "ES",
    "latitude": "41.21963220",
    "longitude": "1.53689850",
    "wikiDataId": null
  },
  {
    "id": 151998,
    "name": "Vespella de Gaià",
    "state_id": 1203,
    "state_code": "T",
    "country_id": 207,
    "country_code": "ES",
    "latitude": "41.20306950",
    "longitude": "1.36079020",
    "wikiDataId": null
  },
  {
    "id": 152001,
    "name": "Vila-rodona",
    "state_id": 1203,
    "state_code": "T",
    "country_id": 207,
    "country_code": "ES",
    "latitude": "41.31102450",
    "longitude": "1.35809580",
    "wikiDataId": null
  },
  {
    "id": 37973,
    "name": "Vila-seca",
    "state_id": 1203,
    "state_code": "T",
    "country_id": 207,
    "country_code": "ES",
    "latitude": "41.11118000",
    "longitude": "1.14764000",
    "wikiDataId": null
  },
  {
    "id": 37974,
    "name": "Vilabella",
    "state_id": 1203,
    "state_code": "T",
    "country_id": 207,
    "country_code": "ES",
    "latitude": "41.24779000",
    "longitude": "1.33019000",
    "wikiDataId": null
  },
  {
    "id": 152005,
    "name": "Vilalba dels Arcs",
    "state_id": 1203,
    "state_code": "T",
    "country_id": 207,
    "country_code": "ES",
    "latitude": "41.11990680",
    "longitude": "0.40957280",
    "wikiDataId": null
  },
  {
    "id": 151999,
    "name": "Vilallonga del Camp",
    "state_id": 1203,
    "state_code": "T",
    "country_id": 207,
    "country_code": "ES",
    "latitude": "41.20997220",
    "longitude": "1.20532210",
    "wikiDataId": null
  },
  {
    "id": 152000,
    "name": "Vilanova d'Escornalbou",
    "state_id": 1203,
    "state_code": "T",
    "country_id": 207,
    "country_code": "ES",
    "latitude": "41.11305840",
    "longitude": "0.93728130",
    "wikiDataId": null
  },
  {
    "id": 37996,
    "name": "Vilanova de Prades",
    "state_id": 1203,
    "state_code": "T",
    "country_id": 207,
    "country_code": "ES",
    "latitude": "41.34850000",
    "longitude": "0.95667000",
    "wikiDataId": null
  },
  {
    "id": 38001,
    "name": "Vilaplana",
    "state_id": 1203,
    "state_code": "T",
    "country_id": 207,
    "country_code": "ES",
    "latitude": "41.22800000",
    "longitude": "1.03325000",
    "wikiDataId": null
  },
  {
    "id": 152002,
    "name": "Vilaverd",
    "state_id": 1203,
    "state_code": "T",
    "country_id": 207,
    "country_code": "ES",
    "latitude": "41.33569340",
    "longitude": "1.17670070",
    "wikiDataId": null
  },
  {
    "id": 152006,
    "name": "Vimbodí i Poblet",
    "state_id": 1203,
    "state_code": "T",
    "country_id": 207,
    "country_code": "ES",
    "latitude": "41.40081750",
    "longitude": "1.04886180",
    "wikiDataId": null
  },
  {
    "id": 38393,
    "name": "Vinebre",
    "state_id": 1203,
    "state_code": "T",
    "country_id": 207,
    "country_code": "ES",
    "latitude": "41.18464000",
    "longitude": "0.58945000",
    "wikiDataId": null
  },
  {
    "id": 152007,
    "name": "Vinyols i els Arcs",
    "state_id": 1203,
    "state_code": "T",
    "country_id": 207,
    "country_code": "ES",
    "latitude": "41.11365220",
    "longitude": "1.04063820",
    "wikiDataId": null
  },
  {
    "id": 151923,
    "name": "Xerta",
    "state_id": 1203,
    "state_code": "T",
    "country_id": 207,
    "country_code": "ES",
    "latitude": "40.90841280",
    "longitude": "0.48917200",
    "wikiDataId": null
  }
]