[
  {
    "id": 56141,
    "name": "Ágasegyháza",
    "state_id": 1048,
    "state_code": "BK",
    "country_id": 99,
    "country_code": "HU",
    "latitude": "46.84025000",
    "longitude": "19.45208000",
    "wikiDataId": null
  },
  {
    "id": 55180,
    "name": "Akasztó",
    "state_id": 1048,
    "state_code": "BK",
    "country_id": 99,
    "country_code": "HU",
    "latitude": "46.69167000",
    "longitude": "19.20423000",
    "wikiDataId": null
  },
  {
    "id": 55191,
    "name": "Apostag",
    "state_id": 1048,
    "state_code": "BK",
    "country_id": 99,
    "country_code": "HU",
    "latitude": "46.88208000",
    "longitude": "18.96210000",
    "wikiDataId": null
  },
  {
    "id": 55287,
    "name": "Bácsalmás",
    "state_id": 1048,
    "state_code": "BK",
    "country_id": 99,
    "country_code": "HU",
    "latitude": "46.12648000",
    "longitude": "19.33260000",
    "wikiDataId": null
  },
  {
    "id": 55288,
    "name": "Bácsalmási Járás",
    "state_id": 1048,
    "state_code": "BK",
    "country_id": 99,
    "country_code": "HU",
    "latitude": "46.10167000",
    "longitude": "19.33063000",
    "wikiDataId": null
  },
  {
    "id": 55289,
    "name": "Bácsbokod",
    "state_id": 1048,
    "state_code": "BK",
    "country_id": 99,
    "country_code": "HU",
    "latitude": "46.12500000",
    "longitude": "19.15621000",
    "wikiDataId": null
  },
  {
    "id": 55203,
    "name": "Baja",
    "state_id": 1048,
    "state_code": "BK",
    "country_id": 99,
    "country_code": "HU",
    "latitude": "46.18299000",
    "longitude": "18.95307000",
    "wikiDataId": null
  },
  {
    "id": 55204,
    "name": "Bajai Járás",
    "state_id": 1048,
    "state_code": "BK",
    "country_id": 99,
    "country_code": "HU",
    "latitude": "46.14507000",
    "longitude": "19.01359000",
    "wikiDataId": null
  },
  {
    "id": 55225,
    "name": "Ballószög",
    "state_id": 1048,
    "state_code": "BK",
    "country_id": 99,
    "country_code": "HU",
    "latitude": "46.86216000",
    "longitude": "19.57092000",
    "wikiDataId": null
  },
  {
    "id": 55295,
    "name": "Bátya",
    "state_id": 1048,
    "state_code": "BK",
    "country_id": 99,
    "country_code": "HU",
    "latitude": "46.48800000",
    "longitude": "18.95419000",
    "wikiDataId": null
  },
  {
    "id": 55283,
    "name": "Bugac",
    "state_id": 1048,
    "state_code": "BK",
    "country_id": 99,
    "country_code": "HU",
    "latitude": "46.68704000",
    "longitude": "19.68074000",
    "wikiDataId": null
  },
  {
    "id": 55347,
    "name": "Császártöltés",
    "state_id": 1048,
    "state_code": "BK",
    "country_id": 99,
    "country_code": "HU",
    "latitude": "46.42194000",
    "longitude": "19.18361000",
    "wikiDataId": null
  },
  {
    "id": 55348,
    "name": "Csávoly",
    "state_id": 1048,
    "state_code": "BK",
    "country_id": 99,
    "country_code": "HU",
    "latitude": "46.18917000",
    "longitude": "19.14667000",
    "wikiDataId": null
  },
  {
    "id": 55331,
    "name": "Csengőd",
    "state_id": 1048,
    "state_code": "BK",
    "country_id": 99,
    "country_code": "HU",
    "latitude": "46.71543000",
    "longitude": "19.26802000",
    "wikiDataId": null
  },
  {
    "id": 55386,
    "name": "Dávod",
    "state_id": 1048,
    "state_code": "BK",
    "country_id": 99,
    "country_code": "HU",
    "latitude": "45.99500000",
    "longitude": "18.91722000",
    "wikiDataId": null
  },
  {
    "id": 55377,
    "name": "Dunapataj",
    "state_id": 1048,
    "state_code": "BK",
    "country_id": 99,
    "country_code": "HU",
    "latitude": "46.64400000",
    "longitude": "18.99632000",
    "wikiDataId": null
  },
  {
    "id": 55381,
    "name": "Dunavecse",
    "state_id": 1048,
    "state_code": "BK",
    "country_id": 99,
    "country_code": "HU",
    "latitude": "46.91478000",
    "longitude": "18.97127000",
    "wikiDataId": null
  },
  {
    "id": 55383,
    "name": "Dusnok",
    "state_id": 1048,
    "state_code": "BK",
    "country_id": 99,
    "country_code": "HU",
    "latitude": "46.39085000",
    "longitude": "18.96296000",
    "wikiDataId": null
  },
  {
    "id": 56147,
    "name": "Érsekcsanád",
    "state_id": 1048,
    "state_code": "BK",
    "country_id": 99,
    "country_code": "HU",
    "latitude": "46.25352000",
    "longitude": "18.98457000",
    "wikiDataId": null
  },
  {
    "id": 55424,
    "name": "Felsőszentiván",
    "state_id": 1048,
    "state_code": "BK",
    "country_id": 99,
    "country_code": "HU",
    "latitude": "46.19713000",
    "longitude": "19.18686000",
    "wikiDataId": null
  },
  {
    "id": 55439,
    "name": "Fülöpjakab",
    "state_id": 1048,
    "state_code": "BK",
    "country_id": 99,
    "country_code": "HU",
    "latitude": "46.74221000",
    "longitude": "19.72132000",
    "wikiDataId": null
  },
  {
    "id": 55440,
    "name": "Fülöpszállás",
    "state_id": 1048,
    "state_code": "BK",
    "country_id": 99,
    "country_code": "HU",
    "latitude": "46.82075000",
    "longitude": "19.23748000",
    "wikiDataId": null
  },
  {
    "id": 55446,
    "name": "Gara",
    "state_id": 1048,
    "state_code": "BK",
    "country_id": 99,
    "country_code": "HU",
    "latitude": "46.03194000",
    "longitude": "19.04278000",
    "wikiDataId": null
  },
  {
    "id": 55493,
    "name": "Hajós",
    "state_id": 1048,
    "state_code": "BK",
    "country_id": 99,
    "country_code": "HU",
    "latitude": "46.39861000",
    "longitude": "19.12056000",
    "wikiDataId": null
  },
  {
    "id": 55499,
    "name": "Harta",
    "state_id": 1048,
    "state_code": "BK",
    "country_id": 99,
    "country_code": "HU",
    "latitude": "46.69758000",
    "longitude": "19.03110000",
    "wikiDataId": null
  },
  {
    "id": 55504,
    "name": "Helvécia",
    "state_id": 1048,
    "state_code": "BK",
    "country_id": 99,
    "country_code": "HU",
    "latitude": "46.83661000",
    "longitude": "19.62251000",
    "wikiDataId": null
  },
  {
    "id": 55505,
    "name": "Hercegszántó",
    "state_id": 1048,
    "state_code": "BK",
    "country_id": 99,
    "country_code": "HU",
    "latitude": "45.95000000",
    "longitude": "18.93917000",
    "wikiDataId": null
  },
  {
    "id": 55531,
    "name": "Izsák",
    "state_id": 1048,
    "state_code": "BK",
    "country_id": 99,
    "country_code": "HU",
    "latitude": "46.80454000",
    "longitude": "19.35172000",
    "wikiDataId": null
  },
  {
    "id": 55535,
    "name": "Jánoshalma",
    "state_id": 1048,
    "state_code": "BK",
    "country_id": 99,
    "country_code": "HU",
    "latitude": "46.29861000",
    "longitude": "19.32583000",
    "wikiDataId": null
  },
  {
    "id": 55536,
    "name": "Jánoshalmai Járás",
    "state_id": 1048,
    "state_code": "BK",
    "country_id": 99,
    "country_code": "HU",
    "latitude": "46.28283000",
    "longitude": "19.31742000",
    "wikiDataId": null
  },
  {
    "id": 55552,
    "name": "Jászszentlászló",
    "state_id": 1048,
    "state_code": "BK",
    "country_id": 99,
    "country_code": "HU",
    "latitude": "46.56685000",
    "longitude": "19.76065000",
    "wikiDataId": null
  },
  {
    "id": 55558,
    "name": "Kalocsa",
    "state_id": 1048,
    "state_code": "BK",
    "country_id": 99,
    "country_code": "HU",
    "latitude": "46.52981000",
    "longitude": "18.97283000",
    "wikiDataId": null
  },
  {
    "id": 55559,
    "name": "Kalocsai Járás",
    "state_id": 1048,
    "state_code": "BK",
    "country_id": 99,
    "country_code": "HU",
    "latitude": "46.55646000",
    "longitude": "19.04211000",
    "wikiDataId": null
  },
  {
    "id": 55574,
    "name": "Katymár",
    "state_id": 1048,
    "state_code": "BK",
    "country_id": 99,
    "country_code": "HU",
    "latitude": "46.03398000",
    "longitude": "19.20935000",
    "wikiDataId": null
  },
  {
    "id": 55578,
    "name": "Kecel",
    "state_id": 1048,
    "state_code": "BK",
    "country_id": 99,
    "country_code": "HU",
    "latitude": "46.52528000",
    "longitude": "19.25194000",
    "wikiDataId": null
  },
  {
    "id": 55579,
    "name": "Kecskemét",
    "state_id": 1048,
    "state_code": "BK",
    "country_id": 99,
    "country_code": "HU",
    "latitude": "46.90618000",
    "longitude": "19.69128000",
    "wikiDataId": null
  },
  {
    "id": 55580,
    "name": "Kecskeméti Járás",
    "state_id": 1048,
    "state_code": "BK",
    "country_id": 99,
    "country_code": "HU",
    "latitude": "46.88283000",
    "longitude": "19.58701000",
    "wikiDataId": null
  },
  {
    "id": 55581,
    "name": "Kelebia",
    "state_id": 1048,
    "state_code": "BK",
    "country_id": 99,
    "country_code": "HU",
    "latitude": "46.19680000",
    "longitude": "19.61659000",
    "wikiDataId": null
  },
  {
    "id": 55587,
    "name": "Kerekegyháza",
    "state_id": 1048,
    "state_code": "BK",
    "country_id": 99,
    "country_code": "HU",
    "latitude": "46.93722000",
    "longitude": "19.47806000",
    "wikiDataId": null
  },
  {
    "id": 55602,
    "name": "Kiskőrös",
    "state_id": 1048,
    "state_code": "BK",
    "country_id": 99,
    "country_code": "HU",
    "latitude": "46.62139000",
    "longitude": "19.28528000",
    "wikiDataId": null
  },
  {
    "id": 55603,
    "name": "Kiskőrösi Járás",
    "state_id": 1048,
    "state_code": "BK",
    "country_id": 99,
    "country_code": "HU",
    "latitude": "46.63309000",
    "longitude": "19.33726000",
    "wikiDataId": null
  },
  {
    "id": 55594,
    "name": "Kiskunfélegyháza",
    "state_id": 1048,
    "state_code": "BK",
    "country_id": 99,
    "country_code": "HU",
    "latitude": "46.71213000",
    "longitude": "19.84458000",
    "wikiDataId": null
  },
  {
    "id": 55595,
    "name": "Kiskunfélegyházi Járás",
    "state_id": 1048,
    "state_code": "BK",
    "country_id": 99,
    "country_code": "HU",
    "latitude": "46.65721000",
    "longitude": "19.77006000",
    "wikiDataId": null
  },
  {
    "id": 55596,
    "name": "Kiskunhalas",
    "state_id": 1048,
    "state_code": "BK",
    "country_id": 99,
    "country_code": "HU",
    "latitude": "46.43402000",
    "longitude": "19.48479000",
    "wikiDataId": null
  },
  {
    "id": 55597,
    "name": "Kiskunhalasi Járás",
    "state_id": 1048,
    "state_code": "BK",
    "country_id": 99,
    "country_code": "HU",
    "latitude": "46.35832000",
    "longitude": "19.53067000",
    "wikiDataId": null
  },
  {
    "id": 55599,
    "name": "Kiskunmajsa",
    "state_id": 1048,
    "state_code": "BK",
    "country_id": 99,
    "country_code": "HU",
    "latitude": "46.49028000",
    "longitude": "19.74000000",
    "wikiDataId": null
  },
  {
    "id": 55600,
    "name": "Kiskunmajsai Járás",
    "state_id": 1048,
    "state_code": "BK",
    "country_id": 99,
    "country_code": "HU",
    "latitude": "46.49608000",
    "longitude": "19.72316000",
    "wikiDataId": null
  },
  {
    "id": 55608,
    "name": "Kisszállás",
    "state_id": 1048,
    "state_code": "BK",
    "country_id": 99,
    "country_code": "HU",
    "latitude": "46.28009000",
    "longitude": "19.48954000",
    "wikiDataId": null
  },
  {
    "id": 55626,
    "name": "Kunfehértó",
    "state_id": 1048,
    "state_code": "BK",
    "country_id": 99,
    "country_code": "HU",
    "latitude": "46.36091000",
    "longitude": "19.41454000",
    "wikiDataId": null
  },
  {
    "id": 55630,
    "name": "Kunszentmiklós",
    "state_id": 1048,
    "state_code": "BK",
    "country_id": 99,
    "country_code": "HU",
    "latitude": "47.02699000",
    "longitude": "19.12575000",
    "wikiDataId": null
  },
  {
    "id": 55631,
    "name": "Kunszentmiklósi Járás",
    "state_id": 1048,
    "state_code": "BK",
    "country_id": 99,
    "country_code": "HU",
    "latitude": "46.94810000",
    "longitude": "19.15563000",
    "wikiDataId": null
  },
  {
    "id": 55654,
    "name": "Lajosmizse",
    "state_id": 1048,
    "state_code": "BK",
    "country_id": 99,
    "country_code": "HU",
    "latitude": "47.02133000",
    "longitude": "19.56171000",
    "wikiDataId": null
  },
  {
    "id": 55655,
    "name": "Lakitelek",
    "state_id": 1048,
    "state_code": "BK",
    "country_id": 99,
    "country_code": "HU",
    "latitude": "46.87601000",
    "longitude": "19.99504000",
    "wikiDataId": null
  },
  {
    "id": 55672,
    "name": "Madaras",
    "state_id": 1048,
    "state_code": "BK",
    "country_id": 99,
    "country_code": "HU",
    "latitude": "46.05870000",
    "longitude": "19.26121000",
    "wikiDataId": null
  },
  {
    "id": 55731,
    "name": "Mélykút",
    "state_id": 1048,
    "state_code": "BK",
    "country_id": 99,
    "country_code": "HU",
    "latitude": "46.21509000",
    "longitude": "19.38102000",
    "wikiDataId": null
  },
  {
    "id": 55741,
    "name": "Nagybaracska",
    "state_id": 1048,
    "state_code": "BK",
    "country_id": 99,
    "country_code": "HU",
    "latitude": "46.04248000",
    "longitude": "18.90590000",
    "wikiDataId": null
  },
  {
    "id": 55765,
    "name": "Nemesnádudvar",
    "state_id": 1048,
    "state_code": "BK",
    "country_id": 99,
    "country_code": "HU",
    "latitude": "46.34051000",
    "longitude": "19.05115000",
    "wikiDataId": null
  },
  {
    "id": 55768,
    "name": "Nyárlőrinc",
    "state_id": 1048,
    "state_code": "BK",
    "country_id": 99,
    "country_code": "HU",
    "latitude": "46.86017000",
    "longitude": "19.87836000",
    "wikiDataId": null
  },
  {
    "id": 55799,
    "name": "Orgovány",
    "state_id": 1048,
    "state_code": "BK",
    "country_id": 99,
    "country_code": "HU",
    "latitude": "46.75087000",
    "longitude": "19.47259000",
    "wikiDataId": null
  },
  {
    "id": 55840,
    "name": "Pálmonostora",
    "state_id": 1048,
    "state_code": "BK",
    "country_id": 99,
    "country_code": "HU",
    "latitude": "46.62417000",
    "longitude": "19.95156000",
    "wikiDataId": null
  },
  {
    "id": 55903,
    "name": "Solt",
    "state_id": 1048,
    "state_code": "BK",
    "country_id": 99,
    "country_code": "HU",
    "latitude": "46.80101000",
    "longitude": "19.00098000",
    "wikiDataId": null
  },
  {
    "id": 55904,
    "name": "Soltvadkert",
    "state_id": 1048,
    "state_code": "BK",
    "country_id": 99,
    "country_code": "HU",
    "latitude": "46.57889000",
    "longitude": "19.39389000",
    "wikiDataId": null
  },
  {
    "id": 55997,
    "name": "Sükösd",
    "state_id": 1048,
    "state_code": "BK",
    "country_id": 99,
    "country_code": "HU",
    "latitude": "46.28181000",
    "longitude": "18.99524000",
    "wikiDataId": null
  },
  {
    "id": 55913,
    "name": "Szabadszállás",
    "state_id": 1048,
    "state_code": "BK",
    "country_id": 99,
    "country_code": "HU",
    "latitude": "46.87575000",
    "longitude": "19.22324000",
    "wikiDataId": null
  },
  {
    "id": 55917,
    "name": "Szalkszentmárton",
    "state_id": 1048,
    "state_code": "BK",
    "country_id": 99,
    "country_code": "HU",
    "latitude": "46.97565000",
    "longitude": "19.01178000",
    "wikiDataId": null
  },
  {
    "id": 55919,
    "name": "Szank",
    "state_id": 1048,
    "state_code": "BK",
    "country_id": 99,
    "country_code": "HU",
    "latitude": "46.55713000",
    "longitude": "19.66103000",
    "wikiDataId": null
  },
  {
    "id": 55942,
    "name": "Szentkirály",
    "state_id": 1048,
    "state_code": "BK",
    "country_id": 99,
    "country_code": "HU",
    "latitude": "46.91892000",
    "longitude": "19.91846000",
    "wikiDataId": null
  },
  {
    "id": 56016,
    "name": "Tass",
    "state_id": 1048,
    "state_code": "BK",
    "country_id": 99,
    "country_code": "HU",
    "latitude": "47.02095000",
    "longitude": "19.02988000",
    "wikiDataId": null
  },
  {
    "id": 56072,
    "name": "Tázlár",
    "state_id": 1048,
    "state_code": "BK",
    "country_id": 99,
    "country_code": "HU",
    "latitude": "46.54824000",
    "longitude": "19.51436000",
    "wikiDataId": null
  },
  {
    "id": 56021,
    "name": "Tiszaalpár",
    "state_id": 1048,
    "state_code": "BK",
    "country_id": 99,
    "country_code": "HU",
    "latitude": "46.81279000",
    "longitude": "19.99841000",
    "wikiDataId": null
  },
  {
    "id": 56035,
    "name": "Tiszakécske",
    "state_id": 1048,
    "state_code": "BK",
    "country_id": 99,
    "country_code": "HU",
    "latitude": "46.93261000",
    "longitude": "20.10349000",
    "wikiDataId": null
  },
  {
    "id": 56036,
    "name": "Tiszakécskei Járás",
    "state_id": 1048,
    "state_code": "BK",
    "country_id": 99,
    "country_code": "HU",
    "latitude": "46.86013000",
    "longitude": "19.97298000",
    "wikiDataId": null
  },
  {
    "id": 56055,
    "name": "Tompa",
    "state_id": 1048,
    "state_code": "BK",
    "country_id": 99,
    "country_code": "HU",
    "latitude": "46.20605000",
    "longitude": "19.53910000",
    "wikiDataId": null
  },
  {
    "id": 56111,
    "name": "Városföld",
    "state_id": 1048,
    "state_code": "BK",
    "country_id": 99,
    "country_code": "HU",
    "latitude": "46.81674000",
    "longitude": "19.75668000",
    "wikiDataId": null
  },
  {
    "id": 56091,
    "name": "Vaskút",
    "state_id": 1048,
    "state_code": "BK",
    "country_id": 99,
    "country_code": "HU",
    "latitude": "46.10782000",
    "longitude": "18.98514000",
    "wikiDataId": null
  }
]