[
  {
    "id": 79681,
    "name": "Åneby",
    "state_id": 5448,
    "state_code": "32",
    "country_id": 165,
    "country_code": "NO",
    "latitude": "60.08926000",
    "longitude": "10.86998000",
    "wikiDataId": null
  },
  {
    "id": 79684,
    "name": "Årnes",
    "state_id": 5448,
    "state_code": "32",
    "country_id": 165,
    "country_code": "NO",
    "latitude": "60.12237000",
    "longitude": "11.47005000",
    "wikiDataId": null
  },
  {
    "id": 79687,
    "name": "Ås",
    "state_id": 5448,
    "state_code": "32",
    "country_id": 165,
    "country_code": "NO",
    "latitude": "59.66366000",
    "longitude": "10.79101000",
    "wikiDataId": null
  },
  {
    "id": 79044,
    "name": "Ask",
    "state_id": 5448,
    "state_code": "32",
    "country_id": 165,
    "country_code": "NO",
    "latitude": "60.07131000",
    "longitude": "11.03620000",
    "wikiDataId": null
  },
  {
    "id": 79045,
    "name": "Asker",
    "state_id": 5448,
    "state_code": "32",
    "country_id": 165,
    "country_code": "NO",
    "latitude": "59.83734000",
    "longitude": "10.43595000",
    "wikiDataId": null
  },
  {
    "id": 79051,
    "name": "Auli",
    "state_id": 5448,
    "state_code": "32",
    "country_id": 165,
    "country_code": "NO",
    "latitude": "60.03450000",
    "longitude": "11.36046000",
    "wikiDataId": null
  },
  {
    "id": 79054,
    "name": "Aurskog-Høland",
    "state_id": 5448,
    "state_code": "32",
    "country_id": 165,
    "country_code": "NO",
    "latitude": "59.88321000",
    "longitude": "11.56491000",
    "wikiDataId": null
  },
  {
    "id": 79055,
    "name": "Aursmoen",
    "state_id": 5448,
    "state_code": "32",
    "country_id": 165,
    "country_code": "NO",
    "latitude": "59.92763000",
    "longitude": "11.44275000",
    "wikiDataId": null
  },
  {
    "id": 79094,
    "name": "Bærum",
    "state_id": 5448,
    "state_code": "32",
    "country_id": 165,
    "country_code": "NO",
    "latitude": "59.88996000",
    "longitude": "10.52649000",
    "wikiDataId": null
  },
  {
    "id": 79073,
    "name": "Billingstad",
    "state_id": 5448,
    "state_code": "32",
    "country_id": 165,
    "country_code": "NO",
    "latitude": "59.87548000",
    "longitude": "10.48230000",
    "wikiDataId": null
  },
  {
    "id": 79078,
    "name": "Bjørkelangen",
    "state_id": 5448,
    "state_code": "32",
    "country_id": 165,
    "country_code": "NO",
    "latitude": "59.88357000",
    "longitude": "11.56396000",
    "wikiDataId": null
  },
  {
    "id": 79080,
    "name": "Blakstad",
    "state_id": 5448,
    "state_code": "32",
    "country_id": 165,
    "country_code": "NO",
    "latitude": "59.81910000",
    "longitude": "10.46450000",
    "wikiDataId": null
  },
  {
    "id": 79106,
    "name": "Drøbak",
    "state_id": 5448,
    "state_code": "32",
    "country_id": 165,
    "country_code": "NO",
    "latitude": "59.66333000",
    "longitude": "10.62975000",
    "wikiDataId": null
  },
  {
    "id": 79115,
    "name": "Eidsvoll",
    "state_id": 5448,
    "state_code": "32",
    "country_id": 165,
    "country_code": "NO",
    "latitude": "60.32893000",
    "longitude": "11.26119000",
    "wikiDataId": null
  },
  {
    "id": 79123,
    "name": "Enebakk",
    "state_id": 5448,
    "state_code": "32",
    "country_id": 165,
    "country_code": "NO",
    "latitude": "59.76452000",
    "longitude": "11.14492000",
    "wikiDataId": null
  },
  {
    "id": 79132,
    "name": "Fagerstrand",
    "state_id": 5448,
    "state_code": "32",
    "country_id": 165,
    "country_code": "NO",
    "latitude": "59.73746000",
    "longitude": "10.59404000",
    "wikiDataId": null
  },
  {
    "id": 79137,
    "name": "Fet",
    "state_id": 5448,
    "state_code": "32",
    "country_id": 165,
    "country_code": "NO",
    "latitude": "59.92216000",
    "longitude": "11.16778000",
    "wikiDataId": null
  },
  {
    "id": 79138,
    "name": "Fetsund",
    "state_id": 5448,
    "state_code": "32",
    "country_id": 165,
    "country_code": "NO",
    "latitude": "59.92463000",
    "longitude": "11.15711000",
    "wikiDataId": null
  },
  {
    "id": 79145,
    "name": "Fjellfoten",
    "state_id": 5448,
    "state_code": "32",
    "country_id": 165,
    "country_code": "NO",
    "latitude": "60.08967000",
    "longitude": "11.47222000",
    "wikiDataId": null
  },
  {
    "id": 79148,
    "name": "Flateby",
    "state_id": 5448,
    "state_code": "32",
    "country_id": 165,
    "country_code": "NO",
    "latitude": "59.82951000",
    "longitude": "11.15345000",
    "wikiDataId": null
  },
  {
    "id": 79161,
    "name": "Frogn",
    "state_id": 5448,
    "state_code": "32",
    "country_id": 165,
    "country_code": "NO",
    "latitude": "59.66665000",
    "longitude": "10.63566000",
    "wikiDataId": null
  },
  {
    "id": 79162,
    "name": "Frogner",
    "state_id": 5448,
    "state_code": "32",
    "country_id": 165,
    "country_code": "NO",
    "latitude": "60.02463000",
    "longitude": "11.10284000",
    "wikiDataId": null
  },
  {
    "id": 79178,
    "name": "Gjerdrum",
    "state_id": 5448,
    "state_code": "32",
    "country_id": 165,
    "country_code": "NO",
    "latitude": "60.07159000",
    "longitude": "11.03597000",
    "wikiDataId": null
  },
  {
    "id": 79239,
    "name": "Hurdal",
    "state_id": 5448,
    "state_code": "32",
    "country_id": 165,
    "country_code": "NO",
    "latitude": "60.43518000",
    "longitude": "11.06707000",
    "wikiDataId": null
  },
  {
    "id": 79256,
    "name": "Jessheim",
    "state_id": 5448,
    "state_code": "32",
    "country_id": 165,
    "country_code": "NO",
    "latitude": "60.14151000",
    "longitude": "11.17515000",
    "wikiDataId": null
  },
  {
    "id": 79276,
    "name": "Kløfta",
    "state_id": 5448,
    "state_code": "32",
    "country_id": 165,
    "country_code": "NO",
    "latitude": "60.07407000",
    "longitude": "11.13805000",
    "wikiDataId": null
  },
  {
    "id": 79310,
    "name": "Leirsund",
    "state_id": 5448,
    "state_code": "32",
    "country_id": 165,
    "country_code": "NO",
    "latitude": "59.99682000",
    "longitude": "11.08746000",
    "wikiDataId": null
  },
  {
    "id": 79324,
    "name": "Lillestrøm",
    "state_id": 5448,
    "state_code": "32",
    "country_id": 165,
    "country_code": "NO",
    "latitude": "59.95597000",
    "longitude": "11.04918000",
    "wikiDataId": null
  },
  {
    "id": 79346,
    "name": "Lørenskog",
    "state_id": 5448,
    "state_code": "32",
    "country_id": 165,
    "country_code": "NO",
    "latitude": "59.93209000",
    "longitude": "10.96079000",
    "wikiDataId": null
  },
  {
    "id": 79340,
    "name": "Lysaker",
    "state_id": 5448,
    "state_code": "32",
    "country_id": 165,
    "country_code": "NO",
    "latitude": "59.90994000",
    "longitude": "10.63545000",
    "wikiDataId": null
  },
  {
    "id": 79355,
    "name": "Maura",
    "state_id": 5448,
    "state_code": "32",
    "country_id": 165,
    "country_code": "NO",
    "latitude": "60.25830000",
    "longitude": "11.03192000",
    "wikiDataId": null
  },
  {
    "id": 79385,
    "name": "Nannestad",
    "state_id": 5448,
    "state_code": "32",
    "country_id": 165,
    "country_code": "NO",
    "latitude": "60.21707000",
    "longitude": "11.01200000",
    "wikiDataId": null
  },
  {
    "id": 79389,
    "name": "Nes",
    "state_id": 5448,
    "state_code": "32",
    "country_id": 165,
    "country_code": "NO",
    "latitude": "60.12252000",
    "longitude": "11.46570000",
    "wikiDataId": null
  },
  {
    "id": 79392,
    "name": "Neskollen",
    "state_id": 5448,
    "state_code": "32",
    "country_id": 165,
    "country_code": "NO",
    "latitude": "60.12159000",
    "longitude": "11.33926000",
    "wikiDataId": null
  },
  {
    "id": 79394,
    "name": "Nesodden",
    "state_id": 5448,
    "state_code": "32",
    "country_id": 165,
    "country_code": "NO",
    "latitude": "59.84220000",
    "longitude": "10.64940000",
    "wikiDataId": null
  },
  {
    "id": 79395,
    "name": "Nesoddtangen",
    "state_id": 5448,
    "state_code": "32",
    "country_id": 165,
    "country_code": "NO",
    "latitude": "59.86244000",
    "longitude": "10.66308000",
    "wikiDataId": null
  },
  {
    "id": 79399,
    "name": "Nittedal",
    "state_id": 5448,
    "state_code": "32",
    "country_id": 165,
    "country_code": "NO",
    "latitude": "60.04278000",
    "longitude": "10.88167000",
    "wikiDataId": null
  },
  {
    "id": 79420,
    "name": "Oppegård",
    "state_id": 5448,
    "state_code": "32",
    "country_id": 165,
    "country_code": "NO",
    "latitude": "59.81149000",
    "longitude": "10.79712000",
    "wikiDataId": null
  },
  {
    "id": 79464,
    "name": "Råholt",
    "state_id": 5448,
    "state_code": "32",
    "country_id": 165,
    "country_code": "NO",
    "latitude": "60.27513000",
    "longitude": "11.17901000",
    "wikiDataId": null
  },
  {
    "id": 79465,
    "name": "Rælingen",
    "state_id": 5448,
    "state_code": "32",
    "country_id": 165,
    "country_code": "NO",
    "latitude": "59.92626000",
    "longitude": "11.06527000",
    "wikiDataId": null
  },
  {
    "id": 79458,
    "name": "Rotnes",
    "state_id": 5448,
    "state_code": "32",
    "country_id": 165,
    "country_code": "NO",
    "latitude": "60.05707000",
    "longitude": "10.86135000",
    "wikiDataId": null
  },
  {
    "id": 79506,
    "name": "Skedsmo",
    "state_id": 5448,
    "state_code": "32",
    "country_id": 165,
    "country_code": "NO",
    "latitude": "59.95448000",
    "longitude": "11.03952000",
    "wikiDataId": null
  },
  {
    "id": 79507,
    "name": "Ski",
    "state_id": 5448,
    "state_code": "32",
    "country_id": 165,
    "country_code": "NO",
    "latitude": "59.72049000",
    "longitude": "10.83882000",
    "wikiDataId": null
  },
  {
    "id": 79522,
    "name": "Skui",
    "state_id": 5448,
    "state_code": "32",
    "country_id": 165,
    "country_code": "NO",
    "latitude": "59.92746000",
    "longitude": "10.44750000",
    "wikiDataId": null
  },
  {
    "id": 79586,
    "name": "Sørum",
    "state_id": 5448,
    "state_code": "32",
    "country_id": 165,
    "country_code": "NO",
    "latitude": "59.98709000",
    "longitude": "11.24019000",
    "wikiDataId": null
  },
  {
    "id": 79587,
    "name": "Sørumsand",
    "state_id": 5448,
    "state_code": "32",
    "country_id": 165,
    "country_code": "NO",
    "latitude": "59.98621000",
    "longitude": "11.24154000",
    "wikiDataId": null
  },
  {
    "id": 79621,
    "name": "Ullensaker",
    "state_id": 5448,
    "state_code": "32",
    "country_id": 165,
    "country_code": "NO",
    "latitude": "60.14401000",
    "longitude": "11.17441000",
    "wikiDataId": null
  },
  {
    "id": 79642,
    "name": "Vestby",
    "state_id": 5448,
    "state_code": "32",
    "country_id": 165,
    "country_code": "NO",
    "latitude": "59.60228000",
    "longitude": "10.74807000",
    "wikiDataId": null
  }
]