[
  {
    "id": 19133,
    "name": "Akom II",
    "state_id": 2659,
    "state_code": "SU",
    "country_id": 38,
    "country_code": "CM",
    "latitude": "2.78333000",
    "longitude": "10.56667000",
    "wikiDataId": null
  },
  {
    "id": 19136,
    "name": "Ambam",
    "state_id": 2659,
    "state_code": "SU",
    "country_id": 38,
    "country_code": "CM",
    "latitude": "2.38333000",
    "longitude": "11.28333000",
    "wikiDataId": null
  },
  {
    "id": 19269,
    "name": "Ébolowa",
    "state_id": 2659,
    "state_code": "SU",
    "country_id": 38,
    "country_code": "CM",
    "latitude": "2.90000000",
    "longitude": "11.15000000",
    "wikiDataId": null
  },
  {
    "id": 19191,
    "name": "Kribi",
    "state_id": 2659,
    "state_code": "SU",
    "country_id": 38,
    "country_code": "CM",
    "latitude": "2.93725000",
    "longitude": "9.90765000",
    "wikiDataId": null
  },
  {
    "id": 19197,
    "name": "Lolodorf",
    "state_id": 2659,
    "state_code": "SU",
    "country_id": 38,
    "country_code": "CM",
    "latitude": "3.23333000",
    "longitude": "10.73333000",
    "wikiDataId": null
  },
  {
    "id": 19229,
    "name": "Mvangué",
    "state_id": 2659,
    "state_code": "SU",
    "country_id": 38,
    "country_code": "CM",
    "latitude": "2.96667000",
    "longitude": "11.51667000",
    "wikiDataId": null
  },
  {
    "id": 19230,
    "name": "Mvila",
    "state_id": 2659,
    "state_code": "SU",
    "country_id": 38,
    "country_code": "CM",
    "latitude": "2.79796000",
    "longitude": "11.39434000",
    "wikiDataId": null
  },
  {
    "id": 19255,
    "name": "Sangmélima",
    "state_id": 2659,
    "state_code": "SU",
    "country_id": 38,
    "country_code": "CM",
    "latitude": "2.93333000",
    "longitude": "11.98333000",
    "wikiDataId": null
  }
]