[
  {
    "id": 31932,
    "name": "Ademuz",
    "state_id": 1175,
    "state_code": "V",
    "country_id": 207,
    "country_code": "ES",
    "latitude": "40.06139000",
    "longitude": "-1.28677000",
    "wikiDataId": null
  },
  {
    "id": 31935,
    "name": "Ador",
    "state_id": 1175,
    "state_code": "V",
    "country_id": 207,
    "country_code": "ES",
    "latitude": "38.91823000",
    "longitude": "-0.22247000",
    "wikiDataId": null
  },
  {
    "id": 31943,
    "name": "Adzaneta",
    "state_id": 1175,
    "state_code": "V",
    "country_id": 207,
    "country_code": "ES",
    "latitude": "40.21616000",
    "longitude": "-0.17028000",
    "wikiDataId": null
  },
  {
    "id": 31968,
    "name": "Agullent",
    "state_id": 1175,
    "state_code": "V",
    "country_id": 207,
    "country_code": "ES",
    "latitude": "38.82273000",
    "longitude": "-0.54833000",
    "wikiDataId": null
  },
  {
    "id": 31979,
    "name": "Aielo de Malferit",
    "state_id": 1175,
    "state_code": "V",
    "country_id": 207,
    "country_code": "ES",
    "latitude": "38.88333000",
    "longitude": "-0.58333000",
    "wikiDataId": null
  },
  {
    "id": 152928,
    "name": "Aielo de Rugat",
    "state_id": 1175,
    "state_code": "V",
    "country_id": 207,
    "country_code": "ES",
    "latitude": "38.88210350",
    "longitude": "-0.34458250",
    "wikiDataId": null
  },
  {
    "id": 32001,
    "name": "Alaquàs",
    "state_id": 1175,
    "state_code": "V",
    "country_id": 207,
    "country_code": "ES",
    "latitude": "39.45568000",
    "longitude": "-0.46100000",
    "wikiDataId": null
  },
  {
    "id": 32014,
    "name": "Albaida",
    "state_id": 1175,
    "state_code": "V",
    "country_id": 207,
    "country_code": "ES",
    "latitude": "38.83798000",
    "longitude": "-0.51721000",
    "wikiDataId": null
  },
  {
    "id": 32016,
    "name": "Albal",
    "state_id": 1175,
    "state_code": "V",
    "country_id": 207,
    "country_code": "ES",
    "latitude": "39.40000000",
    "longitude": "-0.41667000",
    "wikiDataId": null
  },
  {
    "id": 32019,
    "name": "Albalat de la Ribera",
    "state_id": 1175,
    "state_code": "V",
    "country_id": 207,
    "country_code": "ES",
    "latitude": "39.20000000",
    "longitude": "-0.38333000",
    "wikiDataId": null
  },
  {
    "id": 32020,
    "name": "Albalat dels Sorells",
    "state_id": 1175,
    "state_code": "V",
    "country_id": 207,
    "country_code": "ES",
    "latitude": "39.54369550",
    "longitude": "-0.34619120",
    "wikiDataId": null
  },
  {
    "id": 32021,
    "name": "Albalat dels Tarongers",
    "state_id": 1175,
    "state_code": "V",
    "country_id": 207,
    "country_code": "ES",
    "latitude": "39.70000000",
    "longitude": "-0.33333000",
    "wikiDataId": null
  },
  {
    "id": 32037,
    "name": "Alberic",
    "state_id": 1175,
    "state_code": "V",
    "country_id": 207,
    "country_code": "ES",
    "latitude": "39.11667000",
    "longitude": "-0.51667000",
    "wikiDataId": null
  },
  {
    "id": 32051,
    "name": "Alborache",
    "state_id": 1175,
    "state_code": "V",
    "country_id": 207,
    "country_code": "ES",
    "latitude": "39.38333000",
    "longitude": "-0.76667000",
    "wikiDataId": null
  },
  {
    "id": 32052,
    "name": "Alboraya",
    "state_id": 1175,
    "state_code": "V",
    "country_id": 207,
    "country_code": "ES",
    "latitude": "39.50000000",
    "longitude": "-0.35000000",
    "wikiDataId": null
  },
  {
    "id": 32058,
    "name": "Albuixech",
    "state_id": 1175,
    "state_code": "V",
    "country_id": 207,
    "country_code": "ES",
    "latitude": "39.55000000",
    "longitude": "-0.31667000",
    "wikiDataId": null
  },
  {
    "id": 32133,
    "name": "Alcàntera de Xúquer",
    "state_id": 1175,
    "state_code": "V",
    "country_id": 207,
    "country_code": "ES",
    "latitude": "39.06879300",
    "longitude": "-0.56202850",
    "wikiDataId": null
  },
  {
    "id": 32134,
    "name": "Alcàsser",
    "state_id": 1175,
    "state_code": "V",
    "country_id": 207,
    "country_code": "ES",
    "latitude": "39.36791000",
    "longitude": "-0.44447000",
    "wikiDataId": null
  },
  {
    "id": 32101,
    "name": "Alcocéber",
    "state_id": 1175,
    "state_code": "V",
    "country_id": 207,
    "country_code": "ES",
    "latitude": "40.25142000",
    "longitude": "0.28433000",
    "wikiDataId": null
  },
  {
    "id": 32123,
    "name": "Alcoy",
    "state_id": 1175,
    "state_code": "V",
    "country_id": 207,
    "country_code": "ES",
    "latitude": "38.70545000",
    "longitude": "-0.47432000",
    "wikiDataId": null
  },
  {
    "id": 32129,
    "name": "Alcublas",
    "state_id": 1175,
    "state_code": "V",
    "country_id": 207,
    "country_code": "ES",
    "latitude": "39.80000000",
    "longitude": "-0.70000000",
    "wikiDataId": null
  },
  {
    "id": 152922,
    "name": "Alcúdia de Crespins l",
    "state_id": 1175,
    "state_code": "V",
    "country_id": 207,
    "country_code": "ES",
    "latitude": "38.97287250",
    "longitude": "-0.59365490",
    "wikiDataId": null
  },
  {
    "id": 152921,
    "name": "Alcúdia l",
    "state_id": 1175,
    "state_code": "V",
    "country_id": 207,
    "country_code": "ES",
    "latitude": "39.19748430",
    "longitude": "-0.50452060",
    "wikiDataId": null
  },
  {
    "id": 32140,
    "name": "Aldaia",
    "state_id": 1175,
    "state_code": "V",
    "country_id": 207,
    "country_code": "ES",
    "latitude": "39.46569000",
    "longitude": "-0.46005000",
    "wikiDataId": null
  },
  {
    "id": 32189,
    "name": "Alfafar",
    "state_id": 1175,
    "state_code": "V",
    "country_id": 207,
    "country_code": "ES",
    "latitude": "39.41667000",
    "longitude": "-0.38333000",
    "wikiDataId": null
  },
  {
    "id": 32194,
    "name": "Alfara de Algimia",
    "state_id": 1175,
    "state_code": "V",
    "country_id": 207,
    "country_code": "ES",
    "latitude": "39.76667000",
    "longitude": "-0.35000000",
    "wikiDataId": null
  },
  {
    "id": 152923,
    "name": "Alfara de la Baronia",
    "state_id": 1175,
    "state_code": "V",
    "country_id": 207,
    "country_code": "ES",
    "latitude": "39.76278110",
    "longitude": "-0.35541940",
    "wikiDataId": null
  },
  {
    "id": 32195,
    "name": "Alfara del Patriarca",
    "state_id": 1175,
    "state_code": "V",
    "country_id": 207,
    "country_code": "ES",
    "latitude": "39.55000000",
    "longitude": "-0.38333000",
    "wikiDataId": null
  },
  {
    "id": 32199,
    "name": "Alfarp",
    "state_id": 1175,
    "state_code": "V",
    "country_id": 207,
    "country_code": "ES",
    "latitude": "39.28333000",
    "longitude": "-0.55000000",
    "wikiDataId": null
  },
  {
    "id": 32200,
    "name": "Alfarrasí",
    "state_id": 1175,
    "state_code": "V",
    "country_id": 207,
    "country_code": "ES",
    "latitude": "38.90000000",
    "longitude": "-0.50000000",
    "wikiDataId": null
  },
  {
    "id": 32202,
    "name": "Alfauir",
    "state_id": 1175,
    "state_code": "V",
    "country_id": 207,
    "country_code": "ES",
    "latitude": "38.93333000",
    "longitude": "-0.25000000",
    "wikiDataId": null
  },
  {
    "id": 152924,
    "name": "Algar de Palancia",
    "state_id": 1175,
    "state_code": "V",
    "country_id": 207,
    "country_code": "ES",
    "latitude": "39.78077280",
    "longitude": "-0.36718560",
    "wikiDataId": null
  },
  {
    "id": 32217,
    "name": "Algemesí",
    "state_id": 1175,
    "state_code": "V",
    "country_id": 207,
    "country_code": "ES",
    "latitude": "39.19042000",
    "longitude": "-0.43572000",
    "wikiDataId": null
  },
  {
    "id": 32220,
    "name": "Algimia de Alfara",
    "state_id": 1175,
    "state_code": "V",
    "country_id": 207,
    "country_code": "ES",
    "latitude": "39.75000000",
    "longitude": "-0.36667000",
    "wikiDataId": null
  },
  {
    "id": 32222,
    "name": "Alginet",
    "state_id": 1175,
    "state_code": "V",
    "country_id": 207,
    "country_code": "ES",
    "latitude": "39.26667000",
    "longitude": "-0.46667000",
    "wikiDataId": null
  },
  {
    "id": 32244,
    "name": "Alicante",
    "state_id": 1175,
    "state_code": "V",
    "country_id": 207,
    "country_code": "ES",
    "latitude": "38.34517000",
    "longitude": "-0.48149000",
    "wikiDataId": null
  },
  {
    "id": 152925,
    "name": "Almàssera",
    "state_id": 1175,
    "state_code": "V",
    "country_id": 207,
    "country_code": "ES",
    "latitude": "39.51047040",
    "longitude": "-0.35718410",
    "wikiDataId": null
  },
  {
    "id": 32273,
    "name": "Almassora",
    "state_id": 1175,
    "state_code": "V",
    "country_id": 207,
    "country_code": "ES",
    "latitude": "39.94729000",
    "longitude": "-0.06313000",
    "wikiDataId": null
  },
  {
    "id": 32291,
    "name": "Almiserà",
    "state_id": 1175,
    "state_code": "V",
    "country_id": 207,
    "country_code": "ES",
    "latitude": "38.91618480",
    "longitude": "-0.28485330",
    "wikiDataId": null
  },
  {
    "id": 32300,
    "name": "Almoines",
    "state_id": 1175,
    "state_code": "V",
    "country_id": 207,
    "country_code": "ES",
    "latitude": "38.94325000",
    "longitude": "-0.18155000",
    "wikiDataId": null
  },
  {
    "id": 32313,
    "name": "Almussafes",
    "state_id": 1175,
    "state_code": "V",
    "country_id": 207,
    "country_code": "ES",
    "latitude": "39.28333000",
    "longitude": "-0.41667000",
    "wikiDataId": null
  },
  {
    "id": 32332,
    "name": "Alpuente",
    "state_id": 1175,
    "state_code": "V",
    "country_id": 207,
    "country_code": "ES",
    "latitude": "39.86667000",
    "longitude": "-1.01667000",
    "wikiDataId": null
  },
  {
    "id": 152926,
    "name": "Alqueria de la Comtessa l",
    "state_id": 1175,
    "state_code": "V",
    "country_id": 207,
    "country_code": "ES",
    "latitude": "38.93278450",
    "longitude": "-0.15183940",
    "wikiDataId": null
  },
  {
    "id": 32344,
    "name": "Alzira",
    "state_id": 1175,
    "state_code": "V",
    "country_id": 207,
    "country_code": "ES",
    "latitude": "39.15000000",
    "longitude": "-0.43333000",
    "wikiDataId": null
  },
  {
    "id": 32371,
    "name": "Andilla",
    "state_id": 1175,
    "state_code": "V",
    "country_id": 207,
    "country_code": "ES",
    "latitude": "39.83333000",
    "longitude": "-0.80000000",
    "wikiDataId": null
  },
  {
    "id": 32385,
    "name": "Anna",
    "state_id": 1175,
    "state_code": "V",
    "country_id": 207,
    "country_code": "ES",
    "latitude": "39.02029000",
    "longitude": "-0.64621000",
    "wikiDataId": null
  },
  {
    "id": 32391,
    "name": "Antella",
    "state_id": 1175,
    "state_code": "V",
    "country_id": 207,
    "country_code": "ES",
    "latitude": "39.07977000",
    "longitude": "-0.59195000",
    "wikiDataId": null
  },
  {
    "id": 152927,
    "name": "Aras de los Olmos",
    "state_id": 1175,
    "state_code": "V",
    "country_id": 207,
    "country_code": "ES",
    "latitude": "39.92418290",
    "longitude": "-1.13319120",
    "wikiDataId": null
  },
  {
    "id": 32456,
    "name": "Ares del Maestre",
    "state_id": 1175,
    "state_code": "V",
    "country_id": 207,
    "country_code": "ES",
    "latitude": "40.45675000",
    "longitude": "-0.13267000",
    "wikiDataId": null
  },
  {
    "id": 32556,
    "name": "Atzeneta d'Albaida",
    "state_id": 1175,
    "state_code": "V",
    "country_id": 207,
    "country_code": "ES",
    "latitude": "38.83333000",
    "longitude": "-0.50000000",
    "wikiDataId": null
  },
  {
    "id": 152920,
    "name": "Atzeneta d'Albaida",
    "state_id": 1175,
    "state_code": "V",
    "country_id": 207,
    "country_code": "ES",
    "latitude": "38.83125110",
    "longitude": "-0.49861660",
    "wikiDataId": null
  },
  {
    "id": 32576,
    "name": "Ayora",
    "state_id": 1175,
    "state_code": "V",
    "country_id": 207,
    "country_code": "ES",
    "latitude": "39.05852000",
    "longitude": "-1.05635000",
    "wikiDataId": null
  },
  {
    "id": 32683,
    "name": "Barx",
    "state_id": 1175,
    "state_code": "V",
    "country_id": 207,
    "country_code": "ES",
    "latitude": "39.01667000",
    "longitude": "-0.30000000",
    "wikiDataId": null
  },
  {
    "id": 32684,
    "name": "Barxeta",
    "state_id": 1175,
    "state_code": "V",
    "country_id": 207,
    "country_code": "ES",
    "latitude": "39.01667000",
    "longitude": "-0.41667000",
    "wikiDataId": null
  },
  {
    "id": 33056,
    "name": "Bèlgida",
    "state_id": 1175,
    "state_code": "V",
    "country_id": 207,
    "country_code": "ES",
    "latitude": "38.85000000",
    "longitude": "-0.46667000",
    "wikiDataId": null
  },
  {
    "id": 32744,
    "name": "Bellreguard",
    "state_id": 1175,
    "state_code": "V",
    "country_id": 207,
    "country_code": "ES",
    "latitude": "38.95000000",
    "longitude": "-0.16667000",
    "wikiDataId": null
  },
  {
    "id": 32747,
    "name": "Bellús",
    "state_id": 1175,
    "state_code": "V",
    "country_id": 207,
    "country_code": "ES",
    "latitude": "38.94580000",
    "longitude": "-0.48697000",
    "wikiDataId": null
  },
  {
    "id": 32761,
    "name": "Benagéber",
    "state_id": 1175,
    "state_code": "V",
    "country_id": 207,
    "country_code": "ES",
    "latitude": "39.71667000",
    "longitude": "-1.10000000",
    "wikiDataId": null
  },
  {
    "id": 32760,
    "name": "Benaguasil",
    "state_id": 1175,
    "state_code": "V",
    "country_id": 207,
    "country_code": "ES",
    "latitude": "39.60000000",
    "longitude": "-0.58333000",
    "wikiDataId": null
  },
  {
    "id": 32778,
    "name": "Benassal",
    "state_id": 1175,
    "state_code": "V",
    "country_id": 207,
    "country_code": "ES",
    "latitude": "40.37690000",
    "longitude": "-0.13970000",
    "wikiDataId": null
  },
  {
    "id": 32783,
    "name": "Benavites",
    "state_id": 1175,
    "state_code": "V",
    "country_id": 207,
    "country_code": "ES",
    "latitude": "39.73333000",
    "longitude": "-0.25000000",
    "wikiDataId": null
  },
  {
    "id": 32786,
    "name": "Beneixida",
    "state_id": 1175,
    "state_code": "V",
    "country_id": 207,
    "country_code": "ES",
    "latitude": "39.05732740",
    "longitude": "-0.54873330",
    "wikiDataId": null
  },
  {
    "id": 32788,
    "name": "Benetússer",
    "state_id": 1175,
    "state_code": "V",
    "country_id": 207,
    "country_code": "ES",
    "latitude": "39.42265000",
    "longitude": "-0.39686000",
    "wikiDataId": null
  },
  {
    "id": 32792,
    "name": "Beniarjó",
    "state_id": 1175,
    "state_code": "V",
    "country_id": 207,
    "country_code": "ES",
    "latitude": "38.93249000",
    "longitude": "-0.18634000",
    "wikiDataId": null
  },
  {
    "id": 32794,
    "name": "Beniatjar",
    "state_id": 1175,
    "state_code": "V",
    "country_id": 207,
    "country_code": "ES",
    "latitude": "38.84754000",
    "longitude": "-0.41736000",
    "wikiDataId": null
  },
  {
    "id": 32797,
    "name": "Benicàssim",
    "state_id": 1175,
    "state_code": "V",
    "country_id": 207,
    "country_code": "ES",
    "latitude": "40.05000000",
    "longitude": "0.06667000",
    "wikiDataId": null
  },
  {
    "id": 32796,
    "name": "Benicolet",
    "state_id": 1175,
    "state_code": "V",
    "country_id": 207,
    "country_code": "ES",
    "latitude": "38.91987000",
    "longitude": "-0.34694000",
    "wikiDataId": null
  },
  {
    "id": 152970,
    "name": "Benicull de Xúquer",
    "state_id": 1175,
    "state_code": "V",
    "country_id": 207,
    "country_code": "ES",
    "latitude": "39.18540630",
    "longitude": "-0.38308930",
    "wikiDataId": null
  },
  {
    "id": 32802,
    "name": "Benifaió",
    "state_id": 1175,
    "state_code": "V",
    "country_id": 207,
    "country_code": "ES",
    "latitude": "39.28439000",
    "longitude": "-0.42598000",
    "wikiDataId": null
  },
  {
    "id": 152929,
    "name": "Benifairó de la Valldigna",
    "state_id": 1175,
    "state_code": "V",
    "country_id": 207,
    "country_code": "ES",
    "latitude": "39.05479840",
    "longitude": "-0.30310190",
    "wikiDataId": null
  },
  {
    "id": 32801,
    "name": "Benifairó de les Valls",
    "state_id": 1175,
    "state_code": "V",
    "country_id": 207,
    "country_code": "ES",
    "latitude": "39.72771830",
    "longitude": "-0.26863090",
    "wikiDataId": null
  },
  {
    "id": 32805,
    "name": "Beniflá",
    "state_id": 1175,
    "state_code": "V",
    "country_id": 207,
    "country_code": "ES",
    "latitude": "38.92813000",
    "longitude": "-0.17816000",
    "wikiDataId": null
  },
  {
    "id": 32806,
    "name": "Benigànim",
    "state_id": 1175,
    "state_code": "V",
    "country_id": 207,
    "country_code": "ES",
    "latitude": "38.95000000",
    "longitude": "-0.43333000",
    "wikiDataId": null
  },
  {
    "id": 32814,
    "name": "Benimodo",
    "state_id": 1175,
    "state_code": "V",
    "country_id": 207,
    "country_code": "ES",
    "latitude": "39.21403000",
    "longitude": "-0.52679000",
    "wikiDataId": null
  },
  {
    "id": 32815,
    "name": "Benimuslem",
    "state_id": 1175,
    "state_code": "V",
    "country_id": 207,
    "country_code": "ES",
    "latitude": "39.13162000",
    "longitude": "-0.49288000",
    "wikiDataId": null
  },
  {
    "id": 32816,
    "name": "Beniparrell",
    "state_id": 1175,
    "state_code": "V",
    "country_id": 207,
    "country_code": "ES",
    "latitude": "39.38333000",
    "longitude": "-0.41667000",
    "wikiDataId": null
  },
  {
    "id": 32817,
    "name": "Benirredrà",
    "state_id": 1175,
    "state_code": "V",
    "country_id": 207,
    "country_code": "ES",
    "latitude": "38.96179240",
    "longitude": "-0.19265450",
    "wikiDataId": null
  },
  {
    "id": 32818,
    "name": "Benisanó",
    "state_id": 1175,
    "state_code": "V",
    "country_id": 207,
    "country_code": "ES",
    "latitude": "39.61667000",
    "longitude": "-0.56667000",
    "wikiDataId": null
  },
  {
    "id": 32820,
    "name": "Benissoda",
    "state_id": 1175,
    "state_code": "V",
    "country_id": 207,
    "country_code": "ES",
    "latitude": "38.83333000",
    "longitude": "-0.51667000",
    "wikiDataId": null
  },
  {
    "id": 32821,
    "name": "Benisuera",
    "state_id": 1175,
    "state_code": "V",
    "country_id": 207,
    "country_code": "ES",
    "latitude": "38.91320000",
    "longitude": "-0.47784000",
    "wikiDataId": null
  },
  {
    "id": 32822,
    "name": "Benitachell",
    "state_id": 1175,
    "state_code": "V",
    "country_id": 207,
    "country_code": "ES",
    "latitude": "38.73273000",
    "longitude": "0.14354000",
    "wikiDataId": null
  },
  {
    "id": 33062,
    "name": "Bétera",
    "state_id": 1175,
    "state_code": "V",
    "country_id": 207,
    "country_code": "ES",
    "latitude": "39.59111000",
    "longitude": "-0.46151000",
    "wikiDataId": null
  },
  {
    "id": 32886,
    "name": "Bicorp",
    "state_id": 1175,
    "state_code": "V",
    "country_id": 207,
    "country_code": "ES",
    "latitude": "39.13215000",
    "longitude": "-0.78720000",
    "wikiDataId": null
  },
  {
    "id": 32923,
    "name": "Bocairent",
    "state_id": 1175,
    "state_code": "V",
    "country_id": 207,
    "country_code": "ES",
    "latitude": "38.76667000",
    "longitude": "-0.61667000",
    "wikiDataId": null
  },
  {
    "id": 32937,
    "name": "Bolbaite",
    "state_id": 1175,
    "state_code": "V",
    "country_id": 207,
    "country_code": "ES",
    "latitude": "39.06041000",
    "longitude": "-0.67466000",
    "wikiDataId": null
  },
  {
    "id": 152930,
    "name": "Bonrepòs i Mirambell",
    "state_id": 1175,
    "state_code": "V",
    "country_id": 207,
    "country_code": "ES",
    "latitude": "39.51775270",
    "longitude": "-0.36465510",
    "wikiDataId": null
  },
  {
    "id": 33009,
    "name": "Bufali",
    "state_id": 1175,
    "state_code": "V",
    "country_id": 207,
    "country_code": "ES",
    "latitude": "38.86775000",
    "longitude": "-0.51617000",
    "wikiDataId": null
  },
  {
    "id": 33010,
    "name": "Bugarra",
    "state_id": 1175,
    "state_code": "V",
    "country_id": 207,
    "country_code": "ES",
    "latitude": "39.61667000",
    "longitude": "-0.76667000",
    "wikiDataId": null
  },
  {
    "id": 33045,
    "name": "Buñol",
    "state_id": 1175,
    "state_code": "V",
    "country_id": 207,
    "country_code": "ES",
    "latitude": "39.41667000",
    "longitude": "-0.78333000",
    "wikiDataId": null
  },
  {
    "id": 33030,
    "name": "Burjassot",
    "state_id": 1175,
    "state_code": "V",
    "country_id": 207,
    "country_code": "ES",
    "latitude": "39.50984000",
    "longitude": "-0.41327000",
    "wikiDataId": null
  },
  {
    "id": 33032,
    "name": "Burriana",
    "state_id": 1175,
    "state_code": "V",
    "country_id": 207,
    "country_code": "ES",
    "latitude": "39.88901000",
    "longitude": "-0.08499000",
    "wikiDataId": null
  },
  {
    "id": 33145,
    "name": "Calles",
    "state_id": 1175,
    "state_code": "V",
    "country_id": 207,
    "country_code": "ES",
    "latitude": "39.72118000",
    "longitude": "-0.97057000",
    "wikiDataId": null
  },
  {
    "id": 33209,
    "name": "Camporrobles",
    "state_id": 1175,
    "state_code": "V",
    "country_id": 207,
    "country_code": "ES",
    "latitude": "39.65000000",
    "longitude": "-1.40000000",
    "wikiDataId": null
  },
  {
    "id": 33224,
    "name": "Canals",
    "state_id": 1175,
    "state_code": "V",
    "country_id": 207,
    "country_code": "ES",
    "latitude": "38.96251000",
    "longitude": "-0.58443000",
    "wikiDataId": null
  },
  {
    "id": 33233,
    "name": "Canet d'En Berenguer",
    "state_id": 1175,
    "state_code": "V",
    "country_id": 207,
    "country_code": "ES",
    "latitude": "39.68333000",
    "longitude": "-0.21667000",
    "wikiDataId": null
  },
  {
    "id": 152931,
    "name": "Canet d'En Berenguer",
    "state_id": 1175,
    "state_code": "V",
    "country_id": 207,
    "country_code": "ES",
    "latitude": "39.68063460",
    "longitude": "-0.21919030",
    "wikiDataId": null
  },
  {
    "id": 33291,
    "name": "Carcaixent",
    "state_id": 1175,
    "state_code": "V",
    "country_id": 207,
    "country_code": "ES",
    "latitude": "39.12180000",
    "longitude": "-0.44812000",
    "wikiDataId": null
  },
  {
    "id": 33891,
    "name": "Càrcer",
    "state_id": 1175,
    "state_code": "V",
    "country_id": 207,
    "country_code": "ES",
    "latitude": "39.06667000",
    "longitude": "-0.56667000",
    "wikiDataId": null
  },
  {
    "id": 33308,
    "name": "Carlet",
    "state_id": 1175,
    "state_code": "V",
    "country_id": 207,
    "country_code": "ES",
    "latitude": "39.22660000",
    "longitude": "-0.52142000",
    "wikiDataId": null
  },
  {
    "id": 33335,
    "name": "Carrícola",
    "state_id": 1175,
    "state_code": "V",
    "country_id": 207,
    "country_code": "ES",
    "latitude": "38.84133000",
    "longitude": "-0.47260000",
    "wikiDataId": null
  },
  {
    "id": 33355,
    "name": "Casas Altas",
    "state_id": 1175,
    "state_code": "V",
    "country_id": 207,
    "country_code": "ES",
    "latitude": "40.03333000",
    "longitude": "-1.26667000",
    "wikiDataId": null
  },
  {
    "id": 33356,
    "name": "Casas Bajas",
    "state_id": 1175,
    "state_code": "V",
    "country_id": 207,
    "country_code": "ES",
    "latitude": "40.01667000",
    "longitude": "-1.26667000",
    "wikiDataId": null
  },
  {
    "id": 33391,
    "name": "Casinos",
    "state_id": 1175,
    "state_code": "V",
    "country_id": 207,
    "country_code": "ES",
    "latitude": "39.70000000",
    "longitude": "-0.70000000",
    "wikiDataId": null
  },
  {
    "id": 33438,
    "name": "Castelló de la Plana",
    "state_id": 1175,
    "state_code": "V",
    "country_id": 207,
    "country_code": "ES",
    "latitude": "39.98567000",
    "longitude": "-0.04935000",
    "wikiDataId": null
  },
  {
    "id": 33437,
    "name": "Castelló de Rugat",
    "state_id": 1175,
    "state_code": "V",
    "country_id": 207,
    "country_code": "ES",
    "latitude": "38.88333000",
    "longitude": "-0.36667000",
    "wikiDataId": null
  },
  {
    "id": 33432,
    "name": "Castellonet de la Conquesta",
    "state_id": 1175,
    "state_code": "V",
    "country_id": 207,
    "country_code": "ES",
    "latitude": "38.91667000",
    "longitude": "-0.26667000",
    "wikiDataId": null
  },
  {
    "id": 33441,
    "name": "Castielfabib",
    "state_id": 1175,
    "state_code": "V",
    "country_id": 207,
    "country_code": "ES",
    "latitude": "40.13076000",
    "longitude": "-1.30396000",
    "wikiDataId": null
  },
  {
    "id": 33513,
    "name": "Catadau",
    "state_id": 1175,
    "state_code": "V",
    "country_id": 207,
    "country_code": "ES",
    "latitude": "39.26667000",
    "longitude": "-0.56667000",
    "wikiDataId": null
  },
  {
    "id": 33514,
    "name": "Catarroja",
    "state_id": 1175,
    "state_code": "V",
    "country_id": 207,
    "country_code": "ES",
    "latitude": "39.40000000",
    "longitude": "-0.40000000",
    "wikiDataId": null
  },
  {
    "id": 33519,
    "name": "Caudete de las Fuentes",
    "state_id": 1175,
    "state_code": "V",
    "country_id": 207,
    "country_code": "ES",
    "latitude": "39.55965000",
    "longitude": "-1.27853000",
    "wikiDataId": null
  },
  {
    "id": 33582,
    "name": "Cerdà",
    "state_id": 1175,
    "state_code": "V",
    "country_id": 207,
    "country_code": "ES",
    "latitude": "38.98333000",
    "longitude": "-0.56667000",
    "wikiDataId": null
  },
  {
    "id": 33623,
    "name": "Chella",
    "state_id": 1175,
    "state_code": "V",
    "country_id": 207,
    "country_code": "ES",
    "latitude": "39.04203000",
    "longitude": "-0.65916000",
    "wikiDataId": null
  },
  {
    "id": 33624,
    "name": "Chelva",
    "state_id": 1175,
    "state_code": "V",
    "country_id": 207,
    "country_code": "ES",
    "latitude": "39.74930000",
    "longitude": "-0.99684000",
    "wikiDataId": null
  },
  {
    "id": 33626,
    "name": "Chera",
    "state_id": 1175,
    "state_code": "V",
    "country_id": 207,
    "country_code": "ES",
    "latitude": "39.60000000",
    "longitude": "-0.96667000",
    "wikiDataId": null
  },
  {
    "id": 33629,
    "name": "Cheste",
    "state_id": 1175,
    "state_code": "V",
    "country_id": 207,
    "country_code": "ES",
    "latitude": "39.48333000",
    "longitude": "-0.68333000",
    "wikiDataId": null
  },
  {
    "id": 33632,
    "name": "Chilches",
    "state_id": 1175,
    "state_code": "V",
    "country_id": 207,
    "country_code": "ES",
    "latitude": "39.78238000",
    "longitude": "-0.18742000",
    "wikiDataId": null
  },
  {
    "id": 33644,
    "name": "Chiva",
    "state_id": 1175,
    "state_code": "V",
    "country_id": 207,
    "country_code": "ES",
    "latitude": "39.46667000",
    "longitude": "-0.71667000",
    "wikiDataId": null
  },
  {
    "id": 33650,
    "name": "Chulilla",
    "state_id": 1175,
    "state_code": "V",
    "country_id": 207,
    "country_code": "ES",
    "latitude": "39.65000000",
    "longitude": "-0.88333000",
    "wikiDataId": null
  },
  {
    "id": 33719,
    "name": "Cofrentes",
    "state_id": 1175,
    "state_code": "V",
    "country_id": 207,
    "country_code": "ES",
    "latitude": "39.22926000",
    "longitude": "-1.06061000",
    "wikiDataId": null
  },
  {
    "id": 33774,
    "name": "Corbera",
    "state_id": 1175,
    "state_code": "V",
    "country_id": 207,
    "country_code": "ES",
    "latitude": "39.15000000",
    "longitude": "-0.35000000",
    "wikiDataId": null
  },
  {
    "id": 33811,
    "name": "Cortes de Pallás",
    "state_id": 1175,
    "state_code": "V",
    "country_id": 207,
    "country_code": "ES",
    "latitude": "39.25000000",
    "longitude": "-0.93333000",
    "wikiDataId": null
  },
  {
    "id": 33824,
    "name": "Cotes",
    "state_id": 1175,
    "state_code": "V",
    "country_id": 207,
    "country_code": "ES",
    "latitude": "39.07010000",
    "longitude": "-0.57449000",
    "wikiDataId": null
  },
  {
    "id": 33835,
    "name": "Crevillente",
    "state_id": 1175,
    "state_code": "V",
    "country_id": 207,
    "country_code": "ES",
    "latitude": "38.24994000",
    "longitude": "-0.80975000",
    "wikiDataId": null
  },
  {
    "id": 33875,
    "name": "Cuevas de Vinromá",
    "state_id": 1175,
    "state_code": "V",
    "country_id": 207,
    "country_code": "ES",
    "latitude": "40.30976000",
    "longitude": "0.12084000",
    "wikiDataId": null
  },
  {
    "id": 33881,
    "name": "Cullera",
    "state_id": 1175,
    "state_code": "V",
    "country_id": 207,
    "country_code": "ES",
    "latitude": "39.16667000",
    "longitude": "-0.25000000",
    "wikiDataId": null
  },
  {
    "id": 33910,
    "name": "Daimús",
    "state_id": 1175,
    "state_code": "V",
    "country_id": 207,
    "country_code": "ES",
    "latitude": "38.96667000",
    "longitude": "-0.15000000",
    "wikiDataId": null
  },
  {
    "id": 33937,
    "name": "Domeño",
    "state_id": 1175,
    "state_code": "V",
    "country_id": 207,
    "country_code": "ES",
    "latitude": "39.66115000",
    "longitude": "-0.67077000",
    "wikiDataId": null
  },
  {
    "id": 33948,
    "name": "Dos Aguas",
    "state_id": 1175,
    "state_code": "V",
    "country_id": 207,
    "country_code": "ES",
    "latitude": "39.28333000",
    "longitude": "-0.80000000",
    "wikiDataId": null
  },
  {
    "id": 33984,
    "name": "El Campello",
    "state_id": 1175,
    "state_code": "V",
    "country_id": 207,
    "country_code": "ES",
    "latitude": "38.42885000",
    "longitude": "-0.39774000",
    "wikiDataId": null
  },
  {
    "id": 33999,
    "name": "El Grao",
    "state_id": 1175,
    "state_code": "V",
    "country_id": 207,
    "country_code": "ES",
    "latitude": "39.97358000",
    "longitude": "0.01284000",
    "wikiDataId": null
  },
  {
    "id": 152952,
    "name": "El Palomar",
    "state_id": 1175,
    "state_code": "V",
    "country_id": 207,
    "country_code": "ES",
    "latitude": "38.85873000",
    "longitude": "-0.49035240",
    "wikiDataId": null
  },
  {
    "id": 34006,
    "name": "El Perelló",
    "state_id": 1175,
    "state_code": "V",
    "country_id": 207,
    "country_code": "ES",
    "latitude": "39.27718000",
    "longitude": "-0.27569000",
    "wikiDataId": null
  },
  {
    "id": 34030,
    "name": "Elche",
    "state_id": 1175,
    "state_code": "V",
    "country_id": 207,
    "country_code": "ES",
    "latitude": "38.26218000",
    "longitude": "-0.70107000",
    "wikiDataId": null
  },
  {
    "id": 152932,
    "name": "Eliana l",
    "state_id": 1175,
    "state_code": "V",
    "country_id": 207,
    "country_code": "ES",
    "latitude": "39.56280990",
    "longitude": "-0.53050870",
    "wikiDataId": null
  },
  {
    "id": 38533,
    "name": "els Poblets",
    "state_id": 1175,
    "state_code": "V",
    "country_id": 207,
    "country_code": "ES",
    "latitude": "38.85381000",
    "longitude": "0.02103000",
    "wikiDataId": null
  },
  {
    "id": 34042,
    "name": "Emperador",
    "state_id": 1175,
    "state_code": "V",
    "country_id": 207,
    "country_code": "ES",
    "latitude": "39.55000000",
    "longitude": "-0.33333000",
    "wikiDataId": null
  },
  {
    "id": 34058,
    "name": "Enguera",
    "state_id": 1175,
    "state_code": "V",
    "country_id": 207,
    "country_code": "ES",
    "latitude": "38.97974000",
    "longitude": "-0.68683000",
    "wikiDataId": null
  },
  {
    "id": 152933,
    "name": "Ènova l",
    "state_id": 1175,
    "state_code": "V",
    "country_id": 207,
    "country_code": "ES",
    "latitude": "39.04513020",
    "longitude": "-0.48150540",
    "wikiDataId": null
  },
  {
    "id": 34145,
    "name": "Estivella",
    "state_id": 1175,
    "state_code": "V",
    "country_id": 207,
    "country_code": "ES",
    "latitude": "39.71667000",
    "longitude": "-0.35000000",
    "wikiDataId": null
  },
  {
    "id": 34149,
    "name": "Estubeny",
    "state_id": 1175,
    "state_code": "V",
    "country_id": 207,
    "country_code": "ES",
    "latitude": "39.01792000",
    "longitude": "-0.62379000",
    "wikiDataId": null
  },
  {
    "id": 34168,
    "name": "Faura",
    "state_id": 1175,
    "state_code": "V",
    "country_id": 207,
    "country_code": "ES",
    "latitude": "39.71667000",
    "longitude": "-0.25000000",
    "wikiDataId": null
  },
  {
    "id": 34169,
    "name": "Favara",
    "state_id": 1175,
    "state_code": "V",
    "country_id": 207,
    "country_code": "ES",
    "latitude": "39.11667000",
    "longitude": "-0.28333000",
    "wikiDataId": null
  },
  {
    "id": 34198,
    "name": "Foios",
    "state_id": 1175,
    "state_code": "V",
    "country_id": 207,
    "country_code": "ES",
    "latitude": "39.53815410",
    "longitude": "-0.35613960",
    "wikiDataId": null
  },
  {
    "id": 34213,
    "name": "Fontanars dels Alforins",
    "state_id": 1175,
    "state_code": "V",
    "country_id": 207,
    "country_code": "ES",
    "latitude": "38.78423000",
    "longitude": "-0.78667000",
    "wikiDataId": null
  },
  {
    "id": 34222,
    "name": "Formentera de Segura",
    "state_id": 1175,
    "state_code": "V",
    "country_id": 207,
    "country_code": "ES",
    "latitude": "38.08509000",
    "longitude": "-0.74604000",
    "wikiDataId": null
  },
  {
    "id": 34228,
    "name": "Fortaleny",
    "state_id": 1175,
    "state_code": "V",
    "country_id": 207,
    "country_code": "ES",
    "latitude": "39.18333000",
    "longitude": "-0.30000000",
    "wikiDataId": null
  },
  {
    "id": 34334,
    "name": "Fuenterrobles",
    "state_id": 1175,
    "state_code": "V",
    "country_id": 207,
    "country_code": "ES",
    "latitude": "39.58333000",
    "longitude": "-1.35000000",
    "wikiDataId": null
  },
  {
    "id": 34403,
    "name": "Gandia",
    "state_id": 1175,
    "state_code": "V",
    "country_id": 207,
    "country_code": "ES",
    "latitude": "38.96759250",
    "longitude": "-0.18034230",
    "wikiDataId": null
  },
  {
    "id": 152968,
    "name": "Gátova",
    "state_id": 1175,
    "state_code": "V",
    "country_id": 207,
    "country_code": "ES",
    "latitude": "39.75889570",
    "longitude": "-0.53050870",
    "wikiDataId": null
  },
  {
    "id": 34439,
    "name": "Gavarda",
    "state_id": 1175,
    "state_code": "V",
    "country_id": 207,
    "country_code": "ES",
    "latitude": "39.08333000",
    "longitude": "-0.55000000",
    "wikiDataId": null
  },
  {
    "id": 34453,
    "name": "Genovés",
    "state_id": 1175,
    "state_code": "V",
    "country_id": 207,
    "country_code": "ES",
    "latitude": "38.98915000",
    "longitude": "-0.46992000",
    "wikiDataId": null
  },
  {
    "id": 34458,
    "name": "Gestalgar",
    "state_id": 1175,
    "state_code": "V",
    "country_id": 207,
    "country_code": "ES",
    "latitude": "39.60000000",
    "longitude": "-0.83333000",
    "wikiDataId": null
  },
  {
    "id": 34464,
    "name": "Gilet",
    "state_id": 1175,
    "state_code": "V",
    "country_id": 207,
    "country_code": "ES",
    "latitude": "39.68333000",
    "longitude": "-0.31667000",
    "wikiDataId": null
  },
  {
    "id": 34474,
    "name": "Godella",
    "state_id": 1175,
    "state_code": "V",
    "country_id": 207,
    "country_code": "ES",
    "latitude": "39.53333000",
    "longitude": "-0.41667000",
    "wikiDataId": null
  },
  {
    "id": 34475,
    "name": "Godelleta",
    "state_id": 1175,
    "state_code": "V",
    "country_id": 207,
    "country_code": "ES",
    "latitude": "39.41667000",
    "longitude": "-0.68333000",
    "wikiDataId": null
  },
  {
    "id": 34505,
    "name": "Grao de Murviedro",
    "state_id": 1175,
    "state_code": "V",
    "country_id": 207,
    "country_code": "ES",
    "latitude": "39.64167000",
    "longitude": "-0.23889000",
    "wikiDataId": null
  },
  {
    "id": 34529,
    "name": "Guadasequies",
    "state_id": 1175,
    "state_code": "V",
    "country_id": 207,
    "country_code": "ES",
    "latitude": "38.92539000",
    "longitude": "-0.48585000",
    "wikiDataId": null
  },
  {
    "id": 152937,
    "name": "Guadasséquies",
    "state_id": 1175,
    "state_code": "V",
    "country_id": 207,
    "country_code": "ES",
    "latitude": "38.92409630",
    "longitude": "-0.48843080",
    "wikiDataId": null
  },
  {
    "id": 34530,
    "name": "Guadassuar",
    "state_id": 1175,
    "state_code": "V",
    "country_id": 207,
    "country_code": "ES",
    "latitude": "39.18663000",
    "longitude": "-0.47859000",
    "wikiDataId": null
  },
  {
    "id": 152938,
    "name": "Guardamar de la Safor",
    "state_id": 1175,
    "state_code": "V",
    "country_id": 207,
    "country_code": "ES",
    "latitude": "38.96182000",
    "longitude": "-0.14920630",
    "wikiDataId": null
  },
  {
    "id": 34617,
    "name": "Higueruelas",
    "state_id": 1175,
    "state_code": "V",
    "country_id": 207,
    "country_code": "ES",
    "latitude": "39.78333000",
    "longitude": "-0.85000000",
    "wikiDataId": null
  },
  {
    "id": 34634,
    "name": "Hondón de las Nieves",
    "state_id": 1175,
    "state_code": "V",
    "country_id": 207,
    "country_code": "ES",
    "latitude": "38.30844000",
    "longitude": "-0.85330000",
    "wikiDataId": null
  },
  {
    "id": 34791,
    "name": "Jalance",
    "state_id": 1175,
    "state_code": "V",
    "country_id": 207,
    "country_code": "ES",
    "latitude": "39.20000000",
    "longitude": "-1.06667000",
    "wikiDataId": null
  },
  {
    "id": 34792,
    "name": "Jalón",
    "state_id": 1175,
    "state_code": "V",
    "country_id": 207,
    "country_code": "ES",
    "latitude": "38.74063000",
    "longitude": "-0.01129000",
    "wikiDataId": null
  },
  {
    "id": 34797,
    "name": "Jarafuel",
    "state_id": 1175,
    "state_code": "V",
    "country_id": 207,
    "country_code": "ES",
    "latitude": "39.14013000",
    "longitude": "-1.07306000",
    "wikiDataId": null
  },
  {
    "id": 34808,
    "name": "Javea",
    "state_id": 1175,
    "state_code": "V",
    "country_id": 207,
    "country_code": "ES",
    "latitude": "38.78333000",
    "longitude": "0.16667000",
    "wikiDataId": null
  },
  {
    "id": 34815,
    "name": "Jijona",
    "state_id": 1175,
    "state_code": "V",
    "country_id": 207,
    "country_code": "ES",
    "latitude": "38.54086000",
    "longitude": "-0.50263000",
    "wikiDataId": null
  },
  {
    "id": 38534,
    "name": "l'Alcora",
    "state_id": 1175,
    "state_code": "V",
    "country_id": 207,
    "country_code": "ES",
    "latitude": "40.06667000",
    "longitude": "-0.20000000",
    "wikiDataId": null
  },
  {
    "id": 34840,
    "name": "L'Alcúdia",
    "state_id": 1175,
    "state_code": "V",
    "country_id": 207,
    "country_code": "ES",
    "latitude": "39.19717000",
    "longitude": "-0.50537000",
    "wikiDataId": null
  },
  {
    "id": 34841,
    "name": "L'Alcúdia de Crespìns",
    "state_id": 1175,
    "state_code": "V",
    "country_id": 207,
    "country_code": "ES",
    "latitude": "38.96667000",
    "longitude": "-0.58333000",
    "wikiDataId": null
  },
  {
    "id": 38535,
    "name": "l'Alfàs del Pi",
    "state_id": 1175,
    "state_code": "V",
    "country_id": 207,
    "country_code": "ES",
    "latitude": "38.58055000",
    "longitude": "-0.10321000",
    "wikiDataId": null
  },
  {
    "id": 34842,
    "name": "L'Alqueria de la Comtessa",
    "state_id": 1175,
    "state_code": "V",
    "country_id": 207,
    "country_code": "ES",
    "latitude": "38.93333000",
    "longitude": "-0.15000000",
    "wikiDataId": null
  },
  {
    "id": 34845,
    "name": "L'Eliana",
    "state_id": 1175,
    "state_code": "V",
    "country_id": 207,
    "country_code": "ES",
    "latitude": "39.56667000",
    "longitude": "-0.53333000",
    "wikiDataId": null
  },
  {
    "id": 34847,
    "name": "L'Olleria",
    "state_id": 1175,
    "state_code": "V",
    "country_id": 207,
    "country_code": "ES",
    "latitude": "38.91667000",
    "longitude": "-0.55000000",
    "wikiDataId": null
  },
  {
    "id": 152934,
    "name": "La Font d'En Carròs",
    "state_id": 1175,
    "state_code": "V",
    "country_id": 207,
    "country_code": "ES",
    "latitude": "38.91644190",
    "longitude": "-0.17115420",
    "wikiDataId": null
  },
  {
    "id": 152935,
    "name": "La Font de la Figuera",
    "state_id": 1175,
    "state_code": "V",
    "country_id": 207,
    "country_code": "ES",
    "latitude": "38.80613110",
    "longitude": "-0.88002710",
    "wikiDataId": null
  },
  {
    "id": 34871,
    "name": "La Font de la Figuera",
    "state_id": 1175,
    "state_code": "V",
    "country_id": 207,
    "country_code": "ES",
    "latitude": "38.80000000",
    "longitude": "-0.88333000",
    "wikiDataId": null
  },
  {
    "id": 152936,
    "name": "La Granja de la Costera",
    "state_id": 1175,
    "state_code": "V",
    "country_id": 207,
    "country_code": "ES",
    "latitude": "38.99547400",
    "longitude": "-0.55769620",
    "wikiDataId": null
  },
  {
    "id": 152942,
    "name": "La Llosa de Ranes",
    "state_id": 1175,
    "state_code": "V",
    "country_id": 207,
    "country_code": "ES",
    "latitude": "39.01904820",
    "longitude": "-0.53405380",
    "wikiDataId": null
  },
  {
    "id": 38554,
    "name": "la Nucia",
    "state_id": 1175,
    "state_code": "V",
    "country_id": 207,
    "country_code": "ES",
    "latitude": "38.61372000",
    "longitude": "-0.12690000",
    "wikiDataId": null
  },
  {
    "id": 34906,
    "name": "La Pobla de Farnals",
    "state_id": 1175,
    "state_code": "V",
    "country_id": 207,
    "country_code": "ES",
    "latitude": "39.56571000",
    "longitude": "-0.28425000",
    "wikiDataId": null
  },
  {
    "id": 152953,
    "name": "La Pobla de Farnals",
    "state_id": 1175,
    "state_code": "V",
    "country_id": 207,
    "country_code": "ES",
    "latitude": "39.57649480",
    "longitude": "-0.32072990",
    "wikiDataId": null
  },
  {
    "id": 152955,
    "name": "La Pobla de Vallbona",
    "state_id": 1175,
    "state_code": "V",
    "country_id": 207,
    "country_code": "ES",
    "latitude": "39.59629650",
    "longitude": "-0.55178430",
    "wikiDataId": null
  },
  {
    "id": 34907,
    "name": "La Pobla de Vallbona",
    "state_id": 1175,
    "state_code": "V",
    "country_id": 207,
    "country_code": "ES",
    "latitude": "39.59747000",
    "longitude": "-0.55468000",
    "wikiDataId": null
  },
  {
    "id": 152954,
    "name": "La Pobla del Duc",
    "state_id": 1175,
    "state_code": "V",
    "country_id": 207,
    "country_code": "ES",
    "latitude": "38.90471460",
    "longitude": "-0.42076600",
    "wikiDataId": null
  },
  {
    "id": 152956,
    "name": "La Pobla Llarga",
    "state_id": 1175,
    "state_code": "V",
    "country_id": 207,
    "country_code": "ES",
    "latitude": "39.08508400",
    "longitude": "-0.47559930",
    "wikiDataId": null
  },
  {
    "id": 34904,
    "name": "La Pobla Llarga",
    "state_id": 1175,
    "state_code": "V",
    "country_id": 207,
    "country_code": "ES",
    "latitude": "39.08333000",
    "longitude": "-0.46667000",
    "wikiDataId": null
  },
  {
    "id": 34923,
    "name": "La Romana",
    "state_id": 1175,
    "state_code": "V",
    "country_id": 207,
    "country_code": "ES",
    "latitude": "38.36753000",
    "longitude": "-0.89862000",
    "wikiDataId": null
  },
  {
    "id": 34935,
    "name": "La Yesa",
    "state_id": 1175,
    "state_code": "V",
    "country_id": 207,
    "country_code": "ES",
    "latitude": "39.88333000",
    "longitude": "-0.95000000",
    "wikiDataId": null
  },
  {
    "id": 152967,
    "name": "La Yesa",
    "state_id": 1175,
    "state_code": "V",
    "country_id": 207,
    "country_code": "ES",
    "latitude": "39.89186730",
    "longitude": "-0.96116080",
    "wikiDataId": null
  },
  {
    "id": 35067,
    "name": "Llanera de Ranes",
    "state_id": 1175,
    "state_code": "V",
    "country_id": 207,
    "country_code": "ES",
    "latitude": "38.99507000",
    "longitude": "-0.57534000",
    "wikiDataId": null
  },
  {
    "id": 35071,
    "name": "Llaurí",
    "state_id": 1175,
    "state_code": "V",
    "country_id": 207,
    "country_code": "ES",
    "latitude": "39.14671000",
    "longitude": "-0.32944000",
    "wikiDataId": null
  },
  {
    "id": 35091,
    "name": "Llíria",
    "state_id": 1175,
    "state_code": "V",
    "country_id": 207,
    "country_code": "ES",
    "latitude": "39.62894000",
    "longitude": "-0.59783000",
    "wikiDataId": null
  },
  {
    "id": 152940,
    "name": "Llocnou d'En Fenollet",
    "state_id": 1175,
    "state_code": "V",
    "country_id": 207,
    "country_code": "ES",
    "latitude": "39.01327190",
    "longitude": "-0.46701950",
    "wikiDataId": null
  },
  {
    "id": 152941,
    "name": "Llocnou de la Corona",
    "state_id": 1175,
    "state_code": "V",
    "country_id": 207,
    "country_code": "ES",
    "latitude": "39.42123820",
    "longitude": "-0.38190270",
    "wikiDataId": null
  },
  {
    "id": 35082,
    "name": "Llocnou de Sant Jeroni",
    "state_id": 1175,
    "state_code": "V",
    "country_id": 207,
    "country_code": "ES",
    "latitude": "38.91301070",
    "longitude": "-0.28412760",
    "wikiDataId": null
  },
  {
    "id": 35083,
    "name": "Llombai",
    "state_id": 1175,
    "state_code": "V",
    "country_id": 207,
    "country_code": "ES",
    "latitude": "39.28333000",
    "longitude": "-0.56667000",
    "wikiDataId": null
  },
  {
    "id": 35086,
    "name": "Llosa de Ranes",
    "state_id": 1175,
    "state_code": "V",
    "country_id": 207,
    "country_code": "ES",
    "latitude": "39.02163000",
    "longitude": "-0.53803000",
    "wikiDataId": null
  },
  {
    "id": 35090,
    "name": "Llutxent",
    "state_id": 1175,
    "state_code": "V",
    "country_id": 207,
    "country_code": "ES",
    "latitude": "38.93333000",
    "longitude": "-0.35000000",
    "wikiDataId": null
  },
  {
    "id": 35114,
    "name": "Loriguilla",
    "state_id": 1175,
    "state_code": "V",
    "country_id": 207,
    "country_code": "ES",
    "latitude": "39.68333000",
    "longitude": "-0.91667000",
    "wikiDataId": null
  },
  {
    "id": 35128,
    "name": "Los Montesinos",
    "state_id": 1175,
    "state_code": "V",
    "country_id": 207,
    "country_code": "ES",
    "latitude": "38.02822000",
    "longitude": "-0.74501000",
    "wikiDataId": null
  },
  {
    "id": 35138,
    "name": "Losa del Obispo",
    "state_id": 1175,
    "state_code": "V",
    "country_id": 207,
    "country_code": "ES",
    "latitude": "39.70000000",
    "longitude": "-0.86667000",
    "wikiDataId": null
  },
  {
    "id": 35180,
    "name": "Macastre",
    "state_id": 1175,
    "state_code": "V",
    "country_id": 207,
    "country_code": "ES",
    "latitude": "39.38333000",
    "longitude": "-0.78333000",
    "wikiDataId": null
  },
  {
    "id": 35251,
    "name": "Manises",
    "state_id": 1175,
    "state_code": "V",
    "country_id": 207,
    "country_code": "ES",
    "latitude": "39.49139000",
    "longitude": "-0.46349000",
    "wikiDataId": null
  },
  {
    "id": 35261,
    "name": "Manuel",
    "state_id": 1175,
    "state_code": "V",
    "country_id": 207,
    "country_code": "ES",
    "latitude": "39.05059000",
    "longitude": "-0.48978000",
    "wikiDataId": null
  },
  {
    "id": 35292,
    "name": "Marines",
    "state_id": 1175,
    "state_code": "V",
    "country_id": 207,
    "country_code": "ES",
    "latitude": "39.74165000",
    "longitude": "-0.53103000",
    "wikiDataId": null
  },
  {
    "id": 35317,
    "name": "Masalavés",
    "state_id": 1175,
    "state_code": "V",
    "country_id": 207,
    "country_code": "ES",
    "latitude": "39.14377000",
    "longitude": "-0.52260000",
    "wikiDataId": null
  },
  {
    "id": 152943,
    "name": "Massalavés",
    "state_id": 1175,
    "state_code": "V",
    "country_id": 207,
    "country_code": "ES",
    "latitude": "39.14248910",
    "longitude": "-0.52263470",
    "wikiDataId": null
  },
  {
    "id": 152944,
    "name": "Massalfassar",
    "state_id": 1175,
    "state_code": "V",
    "country_id": 207,
    "country_code": "ES",
    "latitude": "39.55583490",
    "longitude": "-0.31602860",
    "wikiDataId": null
  },
  {
    "id": 35326,
    "name": "Massamagrell",
    "state_id": 1175,
    "state_code": "V",
    "country_id": 207,
    "country_code": "ES",
    "latitude": "39.56667000",
    "longitude": "-0.33333000",
    "wikiDataId": null
  },
  {
    "id": 152945,
    "name": "Massanassa",
    "state_id": 1175,
    "state_code": "V",
    "country_id": 207,
    "country_code": "ES",
    "latitude": "39.40556950",
    "longitude": "-0.37718950",
    "wikiDataId": null
  },
  {
    "id": 35390,
    "name": "Meliana",
    "state_id": 1175,
    "state_code": "V",
    "country_id": 207,
    "country_code": "ES",
    "latitude": "39.53333000",
    "longitude": "-0.33333000",
    "wikiDataId": null
  },
  {
    "id": 35432,
    "name": "Millares",
    "state_id": 1175,
    "state_code": "V",
    "country_id": 207,
    "country_code": "ES",
    "latitude": "39.25000000",
    "longitude": "-0.76667000",
    "wikiDataId": null
  },
  {
    "id": 35446,
    "name": "Miramar",
    "state_id": 1175,
    "state_code": "V",
    "country_id": 207,
    "country_code": "ES",
    "latitude": "38.95036000",
    "longitude": "-0.14007000",
    "wikiDataId": null
  },
  {
    "id": 35456,
    "name": "Mislata",
    "state_id": 1175,
    "state_code": "V",
    "country_id": 207,
    "country_code": "ES",
    "latitude": "39.47523000",
    "longitude": "-0.41825000",
    "wikiDataId": null
  },
  {
    "id": 35467,
    "name": "Mogente",
    "state_id": 1175,
    "state_code": "V",
    "country_id": 207,
    "country_code": "ES",
    "latitude": "38.87598000",
    "longitude": "-0.75150000",
    "wikiDataId": null
  },
  {
    "id": 152946,
    "name": "Mogente/Moixent",
    "state_id": 1175,
    "state_code": "V",
    "country_id": 207,
    "country_code": "ES",
    "latitude": "38.87432660",
    "longitude": "-0.75209270",
    "wikiDataId": null
  },
  {
    "id": 35499,
    "name": "Moncada",
    "state_id": 1175,
    "state_code": "V",
    "country_id": 207,
    "country_code": "ES",
    "latitude": "39.54555000",
    "longitude": "-0.39551000",
    "wikiDataId": null
  },
  {
    "id": 35592,
    "name": "Monóvar",
    "state_id": 1175,
    "state_code": "V",
    "country_id": 207,
    "country_code": "ES",
    "latitude": "38.43809000",
    "longitude": "-0.84062000",
    "wikiDataId": null
  },
  {
    "id": 35527,
    "name": "Monserrat",
    "state_id": 1175,
    "state_code": "V",
    "country_id": 207,
    "country_code": "ES",
    "latitude": "39.36667000",
    "longitude": "-0.60000000",
    "wikiDataId": null
  },
  {
    "id": 35529,
    "name": "Montaberner",
    "state_id": 1175,
    "state_code": "V",
    "country_id": 207,
    "country_code": "ES",
    "latitude": "38.89021000",
    "longitude": "-0.49582000",
    "wikiDataId": null
  },
  {
    "id": 152948,
    "name": "Montaverner",
    "state_id": 1175,
    "state_code": "V",
    "country_id": 207,
    "country_code": "ES",
    "latitude": "38.88810410",
    "longitude": "-0.49448430",
    "wikiDataId": null
  },
  {
    "id": 35570,
    "name": "Montesa",
    "state_id": 1175,
    "state_code": "V",
    "country_id": 207,
    "country_code": "ES",
    "latitude": "38.95030000",
    "longitude": "-0.65200000",
    "wikiDataId": null
  },
  {
    "id": 35574,
    "name": "Montichelvo",
    "state_id": 1175,
    "state_code": "V",
    "country_id": 207,
    "country_code": "ES",
    "latitude": "38.89129000",
    "longitude": "-0.34123000",
    "wikiDataId": null
  },
  {
    "id": 152949,
    "name": "Montitxelvo/Montichelvo",
    "state_id": 1175,
    "state_code": "V",
    "country_id": 207,
    "country_code": "ES",
    "latitude": "38.89844250",
    "longitude": "-0.34189270",
    "wikiDataId": null
  },
  {
    "id": 35584,
    "name": "Montroy",
    "state_id": 1175,
    "state_code": "V",
    "country_id": 207,
    "country_code": "ES",
    "latitude": "39.33333000",
    "longitude": "-0.61667000",
    "wikiDataId": null
  },
  {
    "id": 152947,
    "name": "Montserrat",
    "state_id": 1175,
    "state_code": "V",
    "country_id": 207,
    "country_code": "ES",
    "latitude": "39.35823960",
    "longitude": "-0.60125150",
    "wikiDataId": null
  },
  {
    "id": 35596,
    "name": "Moraira",
    "state_id": 1175,
    "state_code": "V",
    "country_id": 207,
    "country_code": "ES",
    "latitude": "38.68866000",
    "longitude": "0.13484000",
    "wikiDataId": null
  },
  {
    "id": 35683,
    "name": "Muro del Alcoy",
    "state_id": 1175,
    "state_code": "V",
    "country_id": 207,
    "country_code": "ES",
    "latitude": "38.78120000",
    "longitude": "-0.43608000",
    "wikiDataId": null
  },
  {
    "id": 35688,
    "name": "Museros",
    "state_id": 1175,
    "state_code": "V",
    "country_id": 207,
    "country_code": "ES",
    "latitude": "39.56667000",
    "longitude": "-0.35000000",
    "wikiDataId": null
  },
  {
    "id": 35843,
    "name": "Náquera",
    "state_id": 1175,
    "state_code": "V",
    "country_id": 207,
    "country_code": "ES",
    "latitude": "39.65000000",
    "longitude": "-0.41667000",
    "wikiDataId": null
  },
  {
    "id": 35775,
    "name": "Navarrés",
    "state_id": 1175,
    "state_code": "V",
    "country_id": 207,
    "country_code": "ES",
    "latitude": "39.10198000",
    "longitude": "-0.69469000",
    "wikiDataId": null
  },
  {
    "id": 152950,
    "name": "Novelé/Novetlè",
    "state_id": 1175,
    "state_code": "V",
    "country_id": 207,
    "country_code": "ES",
    "latitude": "38.98019580",
    "longitude": "-0.54853310",
    "wikiDataId": null
  },
  {
    "id": 35884,
    "name": "Oliva",
    "state_id": 1175,
    "state_code": "V",
    "country_id": 207,
    "country_code": "ES",
    "latitude": "38.91971000",
    "longitude": "-0.11935000",
    "wikiDataId": null
  },
  {
    "id": 152951,
    "name": "Olleria l",
    "state_id": 1175,
    "state_code": "V",
    "country_id": 207,
    "country_code": "ES",
    "latitude": "38.91462110",
    "longitude": "-0.55060200",
    "wikiDataId": null
  },
  {
    "id": 35908,
    "name": "Olocau",
    "state_id": 1175,
    "state_code": "V",
    "country_id": 207,
    "country_code": "ES",
    "latitude": "39.70000000",
    "longitude": "-0.53333000",
    "wikiDataId": null
  },
  {
    "id": 35926,
    "name": "Ontinyent",
    "state_id": 1175,
    "state_code": "V",
    "country_id": 207,
    "country_code": "ES",
    "latitude": "38.82191000",
    "longitude": "-0.60603000",
    "wikiDataId": null
  },
  {
    "id": 35938,
    "name": "Orcheta",
    "state_id": 1175,
    "state_code": "V",
    "country_id": 207,
    "country_code": "ES",
    "latitude": "38.56397000",
    "longitude": "-0.26299000",
    "wikiDataId": null
  },
  {
    "id": 35958,
    "name": "Oropesa del Mar",
    "state_id": 1175,
    "state_code": "V",
    "country_id": 207,
    "country_code": "ES",
    "latitude": "40.09134000",
    "longitude": "0.14115000",
    "wikiDataId": null
  },
  {
    "id": 35980,
    "name": "Otos",
    "state_id": 1175,
    "state_code": "V",
    "country_id": 207,
    "country_code": "ES",
    "latitude": "38.85427000",
    "longitude": "-0.44399000",
    "wikiDataId": null
  },
  {
    "id": 35998,
    "name": "Paiporta",
    "state_id": 1175,
    "state_code": "V",
    "country_id": 207,
    "country_code": "ES",
    "latitude": "39.42814000",
    "longitude": "-0.41765000",
    "wikiDataId": null
  },
  {
    "id": 36028,
    "name": "Palma de Gandía",
    "state_id": 1175,
    "state_code": "V",
    "country_id": 207,
    "country_code": "ES",
    "latitude": "38.92672000",
    "longitude": "-0.22028000",
    "wikiDataId": null
  },
  {
    "id": 36032,
    "name": "Palmera",
    "state_id": 1175,
    "state_code": "V",
    "country_id": 207,
    "country_code": "ES",
    "latitude": "38.93927000",
    "longitude": "-0.15411000",
    "wikiDataId": null
  },
  {
    "id": 36077,
    "name": "Paterna",
    "state_id": 1175,
    "state_code": "V",
    "country_id": 207,
    "country_code": "ES",
    "latitude": "39.50263000",
    "longitude": "-0.44079000",
    "wikiDataId": null
  },
  {
    "id": 36090,
    "name": "Pedralba",
    "state_id": 1175,
    "state_code": "V",
    "country_id": 207,
    "country_code": "ES",
    "latitude": "39.60000000",
    "longitude": "-0.71667000",
    "wikiDataId": null
  },
  {
    "id": 36128,
    "name": "Peníscola",
    "state_id": 1175,
    "state_code": "V",
    "country_id": 207,
    "country_code": "ES",
    "latitude": "40.35740000",
    "longitude": "0.40692000",
    "wikiDataId": null
  },
  {
    "id": 36158,
    "name": "Petrés",
    "state_id": 1175,
    "state_code": "V",
    "country_id": 207,
    "country_code": "ES",
    "latitude": "39.68333000",
    "longitude": "-0.30000000",
    "wikiDataId": null
  },
  {
    "id": 36177,
    "name": "Picanya",
    "state_id": 1175,
    "state_code": "V",
    "country_id": 207,
    "country_code": "ES",
    "latitude": "39.43333000",
    "longitude": "-0.43333000",
    "wikiDataId": null
  },
  {
    "id": 36178,
    "name": "Picassent",
    "state_id": 1175,
    "state_code": "V",
    "country_id": 207,
    "country_code": "ES",
    "latitude": "39.36350000",
    "longitude": "-0.45949000",
    "wikiDataId": null
  },
  {
    "id": 36189,
    "name": "Piles",
    "state_id": 1175,
    "state_code": "V",
    "country_id": 207,
    "country_code": "ES",
    "latitude": "38.94143000",
    "longitude": "-0.13286000",
    "wikiDataId": null
  },
  {
    "id": 36200,
    "name": "Pinet",
    "state_id": 1175,
    "state_code": "V",
    "country_id": 207,
    "country_code": "ES",
    "latitude": "38.98176000",
    "longitude": "-0.33870000",
    "wikiDataId": null
  },
  {
    "id": 36213,
    "name": "Pinoso",
    "state_id": 1175,
    "state_code": "V",
    "country_id": 207,
    "country_code": "ES",
    "latitude": "38.40164000",
    "longitude": "-1.04196000",
    "wikiDataId": null
  },
  {
    "id": 36261,
    "name": "Polinyà de Xúquer",
    "state_id": 1175,
    "state_code": "V",
    "country_id": 207,
    "country_code": "ES",
    "latitude": "39.20000000",
    "longitude": "-0.36667000",
    "wikiDataId": null
  },
  {
    "id": 36305,
    "name": "Potríes",
    "state_id": 1175,
    "state_code": "V",
    "country_id": 207,
    "country_code": "ES",
    "latitude": "38.91617000",
    "longitude": "-0.19594000",
    "wikiDataId": null
  },
  {
    "id": 36362,
    "name": "Provincia de Alicante",
    "state_id": 1175,
    "state_code": "V",
    "country_id": 207,
    "country_code": "ES",
    "latitude": "38.50000000",
    "longitude": "-0.50000000",
    "wikiDataId": null
  },
  {
    "id": 36396,
    "name": "Província de Castelló",
    "state_id": 1175,
    "state_code": "V",
    "country_id": 207,
    "country_code": "ES",
    "latitude": "40.16667000",
    "longitude": "-0.16667000",
    "wikiDataId": null
  },
  {
    "id": 36400,
    "name": "Província de València",
    "state_id": 1175,
    "state_code": "V",
    "country_id": 207,
    "country_code": "ES",
    "latitude": "39.33333000",
    "longitude": "-0.83333000",
    "wikiDataId": null
  },
  {
    "id": 36478,
    "name": "Puçol",
    "state_id": 1175,
    "state_code": "V",
    "country_id": 207,
    "country_code": "ES",
    "latitude": "39.61667000",
    "longitude": "-0.30000000",
    "wikiDataId": null
  },
  {
    "id": 36422,
    "name": "Puebla de San Miguel",
    "state_id": 1175,
    "state_code": "V",
    "country_id": 207,
    "country_code": "ES",
    "latitude": "40.05000000",
    "longitude": "-1.13333000",
    "wikiDataId": null
  },
  {
    "id": 36461,
    "name": "Puig",
    "state_id": 1175,
    "state_code": "V",
    "country_id": 207,
    "country_code": "ES",
    "latitude": "39.58869000",
    "longitude": "-0.30333000",
    "wikiDataId": null
  },
  {
    "id": 36488,
    "name": "Quart de les Valls",
    "state_id": 1175,
    "state_code": "V",
    "country_id": 207,
    "country_code": "ES",
    "latitude": "39.73987390",
    "longitude": "-0.27279950",
    "wikiDataId": null
  },
  {
    "id": 36487,
    "name": "Quart de Poblet",
    "state_id": 1175,
    "state_code": "V",
    "country_id": 207,
    "country_code": "ES",
    "latitude": "39.48139000",
    "longitude": "-0.43937000",
    "wikiDataId": null
  },
  {
    "id": 36490,
    "name": "Quartell",
    "state_id": 1175,
    "state_code": "V",
    "country_id": 207,
    "country_code": "ES",
    "latitude": "39.73751000",
    "longitude": "-0.26458000",
    "wikiDataId": null
  },
  {
    "id": 36491,
    "name": "Quatretonda",
    "state_id": 1175,
    "state_code": "V",
    "country_id": 207,
    "country_code": "ES",
    "latitude": "38.95000000",
    "longitude": "-0.40000000",
    "wikiDataId": null
  },
  {
    "id": 36497,
    "name": "Quesa",
    "state_id": 1175,
    "state_code": "V",
    "country_id": 207,
    "country_code": "ES",
    "latitude": "39.11970000",
    "longitude": "-0.74000000",
    "wikiDataId": null
  },
  {
    "id": 152957,
    "name": "Rafelbuñol/Rafelbunyol",
    "state_id": 1175,
    "state_code": "V",
    "country_id": 207,
    "country_code": "ES",
    "latitude": "39.58884560",
    "longitude": "-0.33064360",
    "wikiDataId": null
  },
  {
    "id": 36540,
    "name": "Rafelcofer",
    "state_id": 1175,
    "state_code": "V",
    "country_id": 207,
    "country_code": "ES",
    "latitude": "38.93248000",
    "longitude": "-0.16772000",
    "wikiDataId": null
  },
  {
    "id": 36541,
    "name": "Rafelguaraf",
    "state_id": 1175,
    "state_code": "V",
    "country_id": 207,
    "country_code": "ES",
    "latitude": "39.05126000",
    "longitude": "-0.45543000",
    "wikiDataId": null
  },
  {
    "id": 36712,
    "name": "Ráfol de Salem",
    "state_id": 1175,
    "state_code": "V",
    "country_id": 207,
    "country_code": "ES",
    "latitude": "38.86651000",
    "longitude": "-0.39991000",
    "wikiDataId": null
  },
  {
    "id": 152958,
    "name": "Real",
    "state_id": 1175,
    "state_code": "V",
    "country_id": 207,
    "country_code": "ES",
    "latitude": "39.31376340",
    "longitude": "-0.62515410",
    "wikiDataId": null
  },
  {
    "id": 36551,
    "name": "Real de Gandía",
    "state_id": 1175,
    "state_code": "V",
    "country_id": 207,
    "country_code": "ES",
    "latitude": "38.94817000",
    "longitude": "-0.19239000",
    "wikiDataId": null
  },
  {
    "id": 36552,
    "name": "Real de Montroi",
    "state_id": 1175,
    "state_code": "V",
    "country_id": 207,
    "country_code": "ES",
    "latitude": "39.33333000",
    "longitude": "-0.60000000",
    "wikiDataId": null
  },
  {
    "id": 36581,
    "name": "Requena",
    "state_id": 1175,
    "state_code": "V",
    "country_id": 207,
    "country_code": "ES",
    "latitude": "39.48834000",
    "longitude": "-1.10044000",
    "wikiDataId": null
  },
  {
    "id": 152959,
    "name": "Riba-roja de Túria",
    "state_id": 1175,
    "state_code": "V",
    "country_id": 207,
    "country_code": "ES",
    "latitude": "39.54442650",
    "longitude": "-0.57066770",
    "wikiDataId": null
  },
  {
    "id": 36611,
    "name": "Ribarroja del Turia",
    "state_id": 1175,
    "state_code": "V",
    "country_id": 207,
    "country_code": "ES",
    "latitude": "39.54595000",
    "longitude": "-0.57069000",
    "wikiDataId": null
  },
  {
    "id": 36631,
    "name": "Riola",
    "state_id": 1175,
    "state_code": "V",
    "country_id": 207,
    "country_code": "ES",
    "latitude": "39.20000000",
    "longitude": "-0.33333000",
    "wikiDataId": null
  },
  {
    "id": 36660,
    "name": "Rocafort",
    "state_id": 1175,
    "state_code": "V",
    "country_id": 207,
    "country_code": "ES",
    "latitude": "39.53333000",
    "longitude": "-0.40000000",
    "wikiDataId": null
  },
  {
    "id": 36678,
    "name": "Rosell",
    "state_id": 1175,
    "state_code": "V",
    "country_id": 207,
    "country_code": "ES",
    "latitude": "40.61792000",
    "longitude": "0.22133000",
    "wikiDataId": null
  },
  {
    "id": 152960,
    "name": "Rotglà i Corberà",
    "state_id": 1175,
    "state_code": "V",
    "country_id": 207,
    "country_code": "ES",
    "latitude": "39.00468400",
    "longitude": "-0.56531040",
    "wikiDataId": null
  },
  {
    "id": 36681,
    "name": "Rotglá y Corbera",
    "state_id": 1175,
    "state_code": "V",
    "country_id": 207,
    "country_code": "ES",
    "latitude": "39.00465000",
    "longitude": "-0.56482000",
    "wikiDataId": null
  },
  {
    "id": 36720,
    "name": "Rótova",
    "state_id": 1175,
    "state_code": "V",
    "country_id": 207,
    "country_code": "ES",
    "latitude": "38.93205000",
    "longitude": "-0.25765000",
    "wikiDataId": null
  },
  {
    "id": 36702,
    "name": "Rugat",
    "state_id": 1175,
    "state_code": "V",
    "country_id": 207,
    "country_code": "ES",
    "latitude": "38.87933000",
    "longitude": "-0.36115000",
    "wikiDataId": null
  },
  {
    "id": 36739,
    "name": "Sagunto",
    "state_id": 1175,
    "state_code": "V",
    "country_id": 207,
    "country_code": "ES",
    "latitude": "39.68333000",
    "longitude": "-0.26667000",
    "wikiDataId": null
  },
  {
    "id": 152961,
    "name": "Sagunto/Sagunt",
    "state_id": 1175,
    "state_code": "V",
    "country_id": 207,
    "country_code": "ES",
    "latitude": "39.68011210",
    "longitude": "-0.27840010",
    "wikiDataId": null
  },
  {
    "id": 152962,
    "name": "Salem",
    "state_id": 1175,
    "state_code": "V",
    "country_id": 207,
    "country_code": "ES",
    "latitude": "38.84607380",
    "longitude": "-0.37954380",
    "wikiDataId": null
  },
  {
    "id": 152969,
    "name": "San Antonio de Benagéber",
    "state_id": 1175,
    "state_code": "V",
    "country_id": 207,
    "country_code": "ES",
    "latitude": "39.56297560",
    "longitude": "-0.49271340",
    "wikiDataId": null
  },
  {
    "id": 36843,
    "name": "San Juan de Alicante",
    "state_id": 1175,
    "state_code": "V",
    "country_id": 207,
    "country_code": "ES",
    "latitude": "38.40148000",
    "longitude": "-0.43623000",
    "wikiDataId": null
  },
  {
    "id": 36849,
    "name": "San Juan de Énova",
    "state_id": 1175,
    "state_code": "V",
    "country_id": 207,
    "country_code": "ES",
    "latitude": "39.07104000",
    "longitude": "-0.48705000",
    "wikiDataId": null
  },
  {
    "id": 36845,
    "name": "San Juan de Moró",
    "state_id": 1175,
    "state_code": "V",
    "country_id": 207,
    "country_code": "ES",
    "latitude": "40.05990000",
    "longitude": "-0.13691000",
    "wikiDataId": null
  },
  {
    "id": 36925,
    "name": "San Vicent del Raspeig",
    "state_id": 1175,
    "state_code": "V",
    "country_id": 207,
    "country_code": "ES",
    "latitude": "38.39640000",
    "longitude": "-0.52550000",
    "wikiDataId": null
  },
  {
    "id": 152963,
    "name": "Sant Joanet",
    "state_id": 1175,
    "state_code": "V",
    "country_id": 207,
    "country_code": "ES",
    "latitude": "39.07141770",
    "longitude": "-0.48699630",
    "wikiDataId": null
  },
  {
    "id": 36978,
    "name": "Sant Jordi",
    "state_id": 1175,
    "state_code": "V",
    "country_id": 207,
    "country_code": "ES",
    "latitude": "40.50982000",
    "longitude": "0.33208000",
    "wikiDataId": null
  },
  {
    "id": 37187,
    "name": "Sedaví",
    "state_id": 1175,
    "state_code": "V",
    "country_id": 207,
    "country_code": "ES",
    "latitude": "39.43333000",
    "longitude": "-0.38333000",
    "wikiDataId": null
  },
  {
    "id": 37190,
    "name": "Segart",
    "state_id": 1175,
    "state_code": "V",
    "country_id": 207,
    "country_code": "ES",
    "latitude": "39.68333000",
    "longitude": "-0.36667000",
    "wikiDataId": null
  },
  {
    "id": 37204,
    "name": "Sellent",
    "state_id": 1175,
    "state_code": "V",
    "country_id": 207,
    "country_code": "ES",
    "latitude": "39.03221000",
    "longitude": "-0.58784000",
    "wikiDataId": null
  },
  {
    "id": 37207,
    "name": "Sempere",
    "state_id": 1175,
    "state_code": "V",
    "country_id": 207,
    "country_code": "ES",
    "latitude": "38.92014000",
    "longitude": "-0.48140000",
    "wikiDataId": null
  },
  {
    "id": 37213,
    "name": "Senyera",
    "state_id": 1175,
    "state_code": "V",
    "country_id": 207,
    "country_code": "ES",
    "latitude": "39.06667000",
    "longitude": "-0.50000000",
    "wikiDataId": null
  },
  {
    "id": 37218,
    "name": "Serra",
    "state_id": 1175,
    "state_code": "V",
    "country_id": 207,
    "country_code": "ES",
    "latitude": "39.68333000",
    "longitude": "-0.43333000",
    "wikiDataId": null
  },
  {
    "id": 37247,
    "name": "Sierra-Engarcerán",
    "state_id": 1175,
    "state_code": "V",
    "country_id": 207,
    "country_code": "ES",
    "latitude": "40.26929000",
    "longitude": "-0.01892000",
    "wikiDataId": null
  },
  {
    "id": 37249,
    "name": "Siete Aguas",
    "state_id": 1175,
    "state_code": "V",
    "country_id": 207,
    "country_code": "ES",
    "latitude": "39.46667000",
    "longitude": "-0.91667000",
    "wikiDataId": null
  },
  {
    "id": 37255,
    "name": "Silla",
    "state_id": 1175,
    "state_code": "V",
    "country_id": 207,
    "country_code": "ES",
    "latitude": "39.36257000",
    "longitude": "-0.41169000",
    "wikiDataId": null
  },
  {
    "id": 37259,
    "name": "Simat de la Valldigna",
    "state_id": 1175,
    "state_code": "V",
    "country_id": 207,
    "country_code": "ES",
    "latitude": "39.03333000",
    "longitude": "-0.31667000",
    "wikiDataId": null
  },
  {
    "id": 37260,
    "name": "Sinarcas",
    "state_id": 1175,
    "state_code": "V",
    "country_id": 207,
    "country_code": "ES",
    "latitude": "39.73333000",
    "longitude": "-1.23333000",
    "wikiDataId": null
  },
  {
    "id": 37283,
    "name": "Sollana",
    "state_id": 1175,
    "state_code": "V",
    "country_id": 207,
    "country_code": "ES",
    "latitude": "39.27830000",
    "longitude": "-0.38238000",
    "wikiDataId": null
  },
  {
    "id": 37309,
    "name": "Sot de Chera",
    "state_id": 1175,
    "state_code": "V",
    "country_id": 207,
    "country_code": "ES",
    "latitude": "39.63333000",
    "longitude": "-0.90000000",
    "wikiDataId": null
  },
  {
    "id": 37329,
    "name": "Sueca",
    "state_id": 1175,
    "state_code": "V",
    "country_id": 207,
    "country_code": "ES",
    "latitude": "39.20260000",
    "longitude": "-0.31114000",
    "wikiDataId": null
  },
  {
    "id": 37332,
    "name": "Sumacàrcer",
    "state_id": 1175,
    "state_code": "V",
    "country_id": 207,
    "country_code": "ES",
    "latitude": "39.10000000",
    "longitude": "-0.63333000",
    "wikiDataId": null
  },
  {
    "id": 37386,
    "name": "Tavernes Blanques",
    "state_id": 1175,
    "state_code": "V",
    "country_id": 207,
    "country_code": "ES",
    "latitude": "39.50000000",
    "longitude": "-0.36667000",
    "wikiDataId": null
  },
  {
    "id": 37387,
    "name": "Tavernes de la Valldigna",
    "state_id": 1175,
    "state_code": "V",
    "country_id": 207,
    "country_code": "ES",
    "latitude": "39.07195000",
    "longitude": "-0.26623000",
    "wikiDataId": null
  },
  {
    "id": 152964,
    "name": "Teresa de Cofrentes",
    "state_id": 1175,
    "state_code": "V",
    "country_id": 207,
    "country_code": "ES",
    "latitude": "39.10476460",
    "longitude": "-1.05083270",
    "wikiDataId": null
  },
  {
    "id": 37410,
    "name": "Terrateig",
    "state_id": 1175,
    "state_code": "V",
    "country_id": 207,
    "country_code": "ES",
    "latitude": "38.89453000",
    "longitude": "-0.31993000",
    "wikiDataId": null
  },
  {
    "id": 37430,
    "name": "Titaguas",
    "state_id": 1175,
    "state_code": "V",
    "country_id": 207,
    "country_code": "ES",
    "latitude": "39.86667000",
    "longitude": "-1.08333000",
    "wikiDataId": null
  },
  {
    "id": 37497,
    "name": "Torre de la Horadada",
    "state_id": 1175,
    "state_code": "V",
    "country_id": 207,
    "country_code": "ES",
    "latitude": "37.86970000",
    "longitude": "-0.75840000",
    "wikiDataId": null
  },
  {
    "id": 152965,
    "name": "Torrebaja",
    "state_id": 1175,
    "state_code": "V",
    "country_id": 207,
    "country_code": "ES",
    "latitude": "40.09808660",
    "longitude": "-1.25882430",
    "wikiDataId": null
  },
  {
    "id": 37547,
    "name": "Torrella",
    "state_id": 1175,
    "state_code": "V",
    "country_id": 207,
    "country_code": "ES",
    "latitude": "38.98446000",
    "longitude": "-0.56727000",
    "wikiDataId": null
  },
  {
    "id": 37564,
    "name": "Torrent",
    "state_id": 1175,
    "state_code": "V",
    "country_id": 207,
    "country_code": "ES",
    "latitude": "39.43705000",
    "longitude": "-0.46546000",
    "wikiDataId": null
  },
  {
    "id": 152966,
    "name": "Torres Torres",
    "state_id": 1175,
    "state_code": "V",
    "country_id": 207,
    "country_code": "ES",
    "latitude": "39.74345210",
    "longitude": "-0.35777240",
    "wikiDataId": null
  },
  {
    "id": 37609,
    "name": "Tous",
    "state_id": 1175,
    "state_code": "V",
    "country_id": 207,
    "country_code": "ES",
    "latitude": "39.13951000",
    "longitude": "-0.58777000",
    "wikiDataId": null
  },
  {
    "id": 37660,
    "name": "Tuéjar",
    "state_id": 1175,
    "state_code": "V",
    "country_id": 207,
    "country_code": "ES",
    "latitude": "39.76667000",
    "longitude": "-1.03333000",
    "wikiDataId": null
  },
  {
    "id": 37659,
    "name": "Turís",
    "state_id": 1175,
    "state_code": "V",
    "country_id": 207,
    "country_code": "ES",
    "latitude": "39.38333000",
    "longitude": "-0.70000000",
    "wikiDataId": null
  },
  {
    "id": 37710,
    "name": "Utiel",
    "state_id": 1175,
    "state_code": "V",
    "country_id": 207,
    "country_code": "ES",
    "latitude": "39.56667000",
    "longitude": "-1.20000000",
    "wikiDataId": null
  },
  {
    "id": 37816,
    "name": "Valencia",
    "state_id": 1175,
    "state_code": "V",
    "country_id": 207,
    "country_code": "ES",
    "latitude": "39.46975000",
    "longitude": "-0.37739000",
    "wikiDataId": null
  },
  {
    "id": 37834,
    "name": "Vall de Ebo",
    "state_id": 1175,
    "state_code": "V",
    "country_id": 207,
    "country_code": "ES",
    "latitude": "38.80561000",
    "longitude": "-0.15890000",
    "wikiDataId": null
  },
  {
    "id": 37835,
    "name": "Vallada",
    "state_id": 1175,
    "state_code": "V",
    "country_id": 207,
    "country_code": "ES",
    "latitude": "38.89575000",
    "longitude": "-0.69104000",
    "wikiDataId": null
  },
  {
    "id": 37837,
    "name": "Vallanca",
    "state_id": 1175,
    "state_code": "V",
    "country_id": 207,
    "country_code": "ES",
    "latitude": "40.06667000",
    "longitude": "-1.33333000",
    "wikiDataId": null
  },
  {
    "id": 37866,
    "name": "Vallés",
    "state_id": 1175,
    "state_code": "V",
    "country_id": 207,
    "country_code": "ES",
    "latitude": "38.98518000",
    "longitude": "-0.55696000",
    "wikiDataId": null
  },
  {
    "id": 37938,
    "name": "Venta del Moro",
    "state_id": 1175,
    "state_code": "V",
    "country_id": 207,
    "country_code": "ES",
    "latitude": "39.48333000",
    "longitude": "-1.35000000",
    "wikiDataId": null
  },
  {
    "id": 37952,
    "name": "Vergel",
    "state_id": 1175,
    "state_code": "V",
    "country_id": 207,
    "country_code": "ES",
    "latitude": "38.84709000",
    "longitude": "0.01034000",
    "wikiDataId": null
  },
  {
    "id": 37991,
    "name": "Vilamarxant",
    "state_id": 1175,
    "state_code": "V",
    "country_id": 207,
    "country_code": "ES",
    "latitude": "39.56916000",
    "longitude": "-0.62453000",
    "wikiDataId": null
  },
  {
    "id": 38049,
    "name": "Villafamés",
    "state_id": 1175,
    "state_code": "V",
    "country_id": 207,
    "country_code": "ES",
    "latitude": "40.11667000",
    "longitude": "-0.05000000",
    "wikiDataId": null
  },
  {
    "id": 38064,
    "name": "Villafranca del Cid",
    "state_id": 1175,
    "state_code": "V",
    "country_id": 207,
    "country_code": "ES",
    "latitude": "40.42885000",
    "longitude": "-0.25775000",
    "wikiDataId": null
  },
  {
    "id": 38088,
    "name": "Villajoyosa",
    "state_id": 1175,
    "state_code": "V",
    "country_id": 207,
    "country_code": "ES",
    "latitude": "38.50754000",
    "longitude": "-0.23346000",
    "wikiDataId": null
  },
  {
    "id": 38118,
    "name": "Villalonga",
    "state_id": 1175,
    "state_code": "V",
    "country_id": 207,
    "country_code": "ES",
    "latitude": "38.88566000",
    "longitude": "-0.20795000",
    "wikiDataId": null
  },
  {
    "id": 38179,
    "name": "Villanueva de Castellón",
    "state_id": 1175,
    "state_code": "V",
    "country_id": 207,
    "country_code": "ES",
    "latitude": "39.07741000",
    "longitude": "-0.51167000",
    "wikiDataId": null
  },
  {
    "id": 38251,
    "name": "Villar del Arzobispo",
    "state_id": 1175,
    "state_code": "V",
    "country_id": 207,
    "country_code": "ES",
    "latitude": "39.73333000",
    "longitude": "-0.81667000",
    "wikiDataId": null
  },
  {
    "id": 38283,
    "name": "Villargordo del Cabriel",
    "state_id": 1175,
    "state_code": "V",
    "country_id": 207,
    "country_code": "ES",
    "latitude": "39.53333000",
    "longitude": "-1.43333000",
    "wikiDataId": null
  },
  {
    "id": 38358,
    "name": "Villavieja",
    "state_id": 1175,
    "state_code": "V",
    "country_id": 207,
    "country_code": "ES",
    "latitude": "39.85000000",
    "longitude": "-0.18333000",
    "wikiDataId": null
  },
  {
    "id": 38390,
    "name": "Vinalesa",
    "state_id": 1175,
    "state_code": "V",
    "country_id": 207,
    "country_code": "ES",
    "latitude": "39.53333000",
    "longitude": "-0.36667000",
    "wikiDataId": null
  },
  {
    "id": 38424,
    "name": "Xàtiva",
    "state_id": 1175,
    "state_code": "V",
    "country_id": 207,
    "country_code": "ES",
    "latitude": "38.99042000",
    "longitude": "-0.51852000",
    "wikiDataId": null
  },
  {
    "id": 152939,
    "name": "Xeraco",
    "state_id": 1175,
    "state_code": "V",
    "country_id": 207,
    "country_code": "ES",
    "latitude": "39.03309800",
    "longitude": "-0.21625960",
    "wikiDataId": null
  },
  {
    "id": 38420,
    "name": "XeracoJaraco",
    "state_id": 1175,
    "state_code": "V",
    "country_id": 207,
    "country_code": "ES",
    "latitude": "39.03333000",
    "longitude": "-0.21667000",
    "wikiDataId": null
  },
  {
    "id": 38421,
    "name": "Xeresa",
    "state_id": 1175,
    "state_code": "V",
    "country_id": 207,
    "country_code": "ES",
    "latitude": "39.01667000",
    "longitude": "-0.21667000",
    "wikiDataId": null
  },
  {
    "id": 38423,
    "name": "Xirivella",
    "state_id": 1175,
    "state_code": "V",
    "country_id": 207,
    "country_code": "ES",
    "latitude": "39.46588000",
    "longitude": "-0.42589000",
    "wikiDataId": null
  },
  {
    "id": 38443,
    "name": "Yátova",
    "state_id": 1175,
    "state_code": "V",
    "country_id": 207,
    "country_code": "ES",
    "latitude": "39.38333000",
    "longitude": "-0.80000000",
    "wikiDataId": null
  },
  {
    "id": 38475,
    "name": "Zarra",
    "state_id": 1175,
    "state_code": "V",
    "country_id": 207,
    "country_code": "ES",
    "latitude": "39.09175000",
    "longitude": "-1.07532000",
    "wikiDataId": null
  }
]