[
  {
    "id": 48815,
    "name": "Caerwent",
    "state_id": 2402,
    "state_code": "MON",
    "country_id": 232,
    "country_code": "GB",
    "latitude": "51.61120000",
    "longitude": "-2.76865000",
    "wikiDataId": null
  },
  {
    "id": 48824,
    "name": "Caldicot",
    "state_id": 2402,
    "state_code": "MON",
    "country_id": 232,
    "country_code": "GB",
    "latitude": "51.58661000",
    "longitude": "-2.75736000",
    "wikiDataId": null
  },
  {
    "id": 48948,
    "name": "Chepstow",
    "state_id": 2402,
    "state_code": "MON",
    "country_id": 232,
    "country_code": "GB",
    "latitude": "51.64087000",
    "longitude": "-2.67683000",
    "wikiDataId": null
  },
  {
    "id": 50470,
    "name": "Magor",
    "state_id": 2402,
    "state_code": "MON",
    "country_id": 232,
    "country_code": "GB",
    "latitude": "51.57944000",
    "longitude": "-2.83139000",
    "wikiDataId": null
  },
  {
    "id": 50619,
    "name": "Monmouth",
    "state_id": 2402,
    "state_code": "MON",
    "country_id": 232,
    "country_code": "GB",
    "latitude": "51.81265000",
    "longitude": "-2.71363000",
    "wikiDataId": null
  },
  {
    "id": 50620,
    "name": "Monmouthshire",
    "state_id": 2402,
    "state_code": "MON",
    "country_id": 232,
    "country_code": "GB",
    "latitude": "51.75000000",
    "longitude": "-2.83333000",
    "wikiDataId": null
  },
  {
    "id": 51022,
    "name": "Raglan",
    "state_id": 2402,
    "state_code": "MON",
    "country_id": 232,
    "country_code": "GB",
    "latitude": "51.76500000",
    "longitude": "-2.85331000",
    "wikiDataId": null
  },
  {
    "id": 51100,
    "name": "Rogiet",
    "state_id": 2402,
    "state_code": "MON",
    "country_id": 232,
    "country_code": "GB",
    "latitude": "51.58854000",
    "longitude": "-2.77868000",
    "wikiDataId": null
  },
  {
    "id": 51629,
    "name": "Tintern",
    "state_id": 2402,
    "state_code": "MON",
    "country_id": 232,
    "country_code": "GB",
    "latitude": "51.69677000",
    "longitude": "-2.68142000",
    "wikiDataId": null
  },
  {
    "id": 51696,
    "name": "Undy",
    "state_id": 2402,
    "state_code": "MON",
    "country_id": 232,
    "country_code": "GB",
    "latitude": "51.57526000",
    "longitude": "-2.81453000",
    "wikiDataId": null
  },
  {
    "id": 51710,
    "name": "Usk",
    "state_id": 2402,
    "state_code": "MON",
    "country_id": 232,
    "country_code": "GB",
    "latitude": "51.70347000",
    "longitude": "-2.90332000",
    "wikiDataId": null
  }
]