[
  {
    "id": 64940,
    "name": "Battambang",
    "state_id": 3976,
    "state_code": "2",
    "country_id": 37,
    "country_code": "KH",
    "latitude": "13.10271000",
    "longitude": "103.19822000",
    "wikiDataId": null
  },
  {
    "id": 65028,
    "name": "Srŏk Âk Phnŭm",
    "state_id": 3976,
    "state_code": "2",
    "country_id": 37,
    "country_code": "KH",
    "latitude": "13.23621000",
    "longitude": "103.45894000",
    "wikiDataId": null
  },
  {
    "id": 64988,
    "name": "Srŏk Banăn",
    "state_id": 3976,
    "state_code": "2",
    "country_id": 37,
    "country_code": "KH",
    "latitude": "12.97067000",
    "longitude": "103.04742000",
    "wikiDataId": null
  },
  {
    "id": 64995,
    "name": "Srŏk Bâvĭl",
    "state_id": 3976,
    "state_code": "2",
    "country_id": 37,
    "country_code": "KH",
    "latitude": "13.23601000",
    "longitude": "102.82910000",
    "wikiDataId": null
  },
  {
    "id": 65017,
    "name": "Srŏk Rotanak Mondol",
    "state_id": 3976,
    "state_code": "2",
    "country_id": 37,
    "country_code": "KH",
    "latitude": "12.84048000",
    "longitude": "102.88700000",
    "wikiDataId": null
  }
]