[
  {
    "id": 48319,
    "name": "Avening",
    "state_id": 2373,
    "state_code": "GLS",
    "country_id": 232,
    "country_code": "GB",
    "latitude": "51.68010000",
    "longitude": "-2.16903000",
    "wikiDataId": null
  },
  {
    "id": 48405,
    "name": "Barnwood",
    "state_id": 2373,
    "state_code": "GLS",
    "country_id": 232,
    "country_code": "GB",
    "latitude": "51.86393000",
    "longitude": "-2.20087000",
    "wikiDataId": null
  },
  {
    "id": 48527,
    "name": "Bishops Cleeve",
    "state_id": 2373,
    "state_code": "GLS",
    "country_id": 232,
    "country_code": "GB",
    "latitude": "51.94749000",
    "longitude": "-2.06277000",
    "wikiDataId": null
  },
  {
    "id": 48572,
    "name": "Blockley",
    "state_id": 2373,
    "state_code": "GLS",
    "country_id": 232,
    "country_code": "GB",
    "latitude": "52.01220000",
    "longitude": "-1.76268000",
    "wikiDataId": null
  },
  {
    "id": 48627,
    "name": "Bourton on the Water",
    "state_id": 2373,
    "state_code": "GLS",
    "country_id": 232,
    "country_code": "GB",
    "latitude": "51.88584000",
    "longitude": "-1.75492000",
    "wikiDataId": null
  },
  {
    "id": 48700,
    "name": "Brimscombe",
    "state_id": 2373,
    "state_code": "GLS",
    "country_id": 232,
    "country_code": "GB",
    "latitude": "51.71973000",
    "longitude": "-2.18553000",
    "wikiDataId": null
  },
  {
    "id": 48911,
    "name": "Chalford",
    "state_id": 2373,
    "state_code": "GLS",
    "country_id": 232,
    "country_code": "GB",
    "latitude": "51.72583000",
    "longitude": "-2.15139000",
    "wikiDataId": null
  },
  {
    "id": 48925,
    "name": "Charlton Kings",
    "state_id": 2373,
    "state_code": "GLS",
    "country_id": 232,
    "country_code": "GB",
    "latitude": "51.88374000",
    "longitude": "-2.04239000",
    "wikiDataId": null
  },
  {
    "id": 48947,
    "name": "Cheltenham",
    "state_id": 2373,
    "state_code": "GLS",
    "country_id": 232,
    "country_code": "GB",
    "latitude": "51.90006000",
    "longitude": "-2.07972000",
    "wikiDataId": null
  },
  {
    "id": 48996,
    "name": "Churchdown",
    "state_id": 2373,
    "state_code": "GLS",
    "country_id": 232,
    "country_code": "GB",
    "latitude": "51.87739000",
    "longitude": "-2.17087000",
    "wikiDataId": null
  },
  {
    "id": 48999,
    "name": "Cinderford",
    "state_id": 2373,
    "state_code": "GLS",
    "country_id": 232,
    "country_code": "GB",
    "latitude": "51.82421000",
    "longitude": "-2.49870000",
    "wikiDataId": null
  },
  {
    "id": 49000,
    "name": "Cirencester",
    "state_id": 2373,
    "state_code": "GLS",
    "country_id": 232,
    "country_code": "GB",
    "latitude": "51.71927000",
    "longitude": "-1.97145000",
    "wikiDataId": null
  },
  {
    "id": 49049,
    "name": "Coates",
    "state_id": 2373,
    "state_code": "GLS",
    "country_id": 232,
    "country_code": "GB",
    "latitude": "51.70750000",
    "longitude": "-2.03389000",
    "wikiDataId": null
  },
  {
    "id": 49108,
    "name": "Corse",
    "state_id": 2373,
    "state_code": "GLS",
    "country_id": 232,
    "country_code": "GB",
    "latitude": "51.95943000",
    "longitude": "-2.30636000",
    "wikiDataId": null
  },
  {
    "id": 49306,
    "name": "Donnington",
    "state_id": 2373,
    "state_code": "GLS",
    "country_id": 232,
    "country_code": "GB",
    "latitude": "51.95135000",
    "longitude": "-1.72142000",
    "wikiDataId": null
  },
  {
    "id": 49333,
    "name": "Drybrook",
    "state_id": 2373,
    "state_code": "GLS",
    "country_id": 232,
    "country_code": "GB",
    "latitude": "51.85550000",
    "longitude": "-2.51681000",
    "wikiDataId": null
  },
  {
    "id": 49418,
    "name": "Eastington",
    "state_id": 2373,
    "state_code": "GLS",
    "country_id": 232,
    "country_code": "GB",
    "latitude": "51.74722000",
    "longitude": "-2.32639000",
    "wikiDataId": null
  },
  {
    "id": 49602,
    "name": "Frampton on Severn",
    "state_id": 2373,
    "state_code": "GLS",
    "country_id": 232,
    "country_code": "GB",
    "latitude": "51.77054000",
    "longitude": "-2.36382000",
    "wikiDataId": null
  },
  {
    "id": 49663,
    "name": "Gloucester",
    "state_id": 2373,
    "state_code": "GLS",
    "country_id": 232,
    "country_code": "GB",
    "latitude": "51.86568000",
    "longitude": "-2.24310000",
    "wikiDataId": null
  },
  {
    "id": 49664,
    "name": "Gloucestershire",
    "state_id": 2373,
    "state_code": "GLS",
    "country_id": 232,
    "country_code": "GB",
    "latitude": "51.83333000",
    "longitude": "-2.16667000",
    "wikiDataId": null
  },
  {
    "id": 50027,
    "name": "Huntley",
    "state_id": 2373,
    "state_code": "GLS",
    "country_id": 232,
    "country_code": "GB",
    "latitude": "51.87172000",
    "longitude": "-2.40137000",
    "wikiDataId": null
  },
  {
    "id": 50405,
    "name": "Longhope",
    "state_id": 2373,
    "state_code": "GLS",
    "country_id": 232,
    "country_code": "GB",
    "latitude": "51.86667000",
    "longitude": "-2.45000000",
    "wikiDataId": null
  },
  {
    "id": 50441,
    "name": "Lydbrook",
    "state_id": 2373,
    "state_code": "GLS",
    "country_id": 232,
    "country_code": "GB",
    "latitude": "51.83763000",
    "longitude": "-2.57818000",
    "wikiDataId": null
  },
  {
    "id": 50597,
    "name": "Minchinhampton",
    "state_id": 2373,
    "state_code": "GLS",
    "country_id": 232,
    "country_code": "GB",
    "latitude": "51.70675000",
    "longitude": "-2.18502000",
    "wikiDataId": null
  },
  {
    "id": 50607,
    "name": "Mitcheldean",
    "state_id": 2373,
    "state_code": "GLS",
    "country_id": 232,
    "country_code": "GB",
    "latitude": "51.86440000",
    "longitude": "-2.48950000",
    "wikiDataId": null
  },
  {
    "id": 50660,
    "name": "Nailsworth",
    "state_id": 2373,
    "state_code": "GLS",
    "country_id": 232,
    "country_code": "GB",
    "latitude": "51.69382000",
    "longitude": "-2.21990000",
    "wikiDataId": null
  },
  {
    "id": 50712,
    "name": "Newent",
    "state_id": 2373,
    "state_code": "GLS",
    "country_id": 232,
    "country_code": "GB",
    "latitude": "51.93365000",
    "longitude": "-2.40815000",
    "wikiDataId": null
  },
  {
    "id": 50777,
    "name": "Northleach",
    "state_id": 2373,
    "state_code": "GLS",
    "country_id": 232,
    "country_code": "GB",
    "latitude": "51.82994000",
    "longitude": "-1.83712000",
    "wikiDataId": null
  },
  {
    "id": 50847,
    "name": "Painswick",
    "state_id": 2373,
    "state_code": "GLS",
    "country_id": 232,
    "country_code": "GB",
    "latitude": "51.78568000",
    "longitude": "-2.19555000",
    "wikiDataId": null
  },
  {
    "id": 51137,
    "name": "Ruardean",
    "state_id": 2373,
    "state_code": "GLS",
    "country_id": 232,
    "country_code": "GB",
    "latitude": "51.85501000",
    "longitude": "-2.55054000",
    "wikiDataId": null
  },
  {
    "id": 51299,
    "name": "Shurdington",
    "state_id": 2373,
    "state_code": "GLS",
    "country_id": 232,
    "country_code": "GB",
    "latitude": "51.86264000",
    "longitude": "-2.12060000",
    "wikiDataId": null
  },
  {
    "id": 51474,
    "name": "Stonehouse",
    "state_id": 2373,
    "state_code": "GLS",
    "country_id": 232,
    "country_code": "GB",
    "latitude": "51.75000000",
    "longitude": "-2.28333000",
    "wikiDataId": null
  },
  {
    "id": 51484,
    "name": "Stow on the Wold",
    "state_id": 2373,
    "state_code": "GLS",
    "country_id": 232,
    "country_code": "GB",
    "latitude": "51.93008000",
    "longitude": "-1.72382000",
    "wikiDataId": null
  },
  {
    "id": 51494,
    "name": "Stratton",
    "state_id": 2373,
    "state_code": "GLS",
    "country_id": 232,
    "country_code": "GB",
    "latitude": "51.73394000",
    "longitude": "-1.97968000",
    "wikiDataId": null
  },
  {
    "id": 51503,
    "name": "Stroud",
    "state_id": 2373,
    "state_code": "GLS",
    "country_id": 232,
    "country_code": "GB",
    "latitude": "51.75000000",
    "longitude": "-2.20000000",
    "wikiDataId": null
  },
  {
    "id": 51580,
    "name": "Tetbury",
    "state_id": 2373,
    "state_code": "GLS",
    "country_id": 232,
    "country_code": "GB",
    "latitude": "51.63944000",
    "longitude": "-2.16222000",
    "wikiDataId": null
  },
  {
    "id": 51582,
    "name": "Tewkesbury",
    "state_id": 2373,
    "state_code": "GLS",
    "country_id": 232,
    "country_code": "GB",
    "latitude": "51.99244000",
    "longitude": "-2.16010000",
    "wikiDataId": null
  },
  {
    "id": 51841,
    "name": "Westfield",
    "state_id": 2373,
    "state_code": "GLS",
    "country_id": 232,
    "country_code": "GB",
    "latitude": "51.88333000",
    "longitude": "-1.86667000",
    "wikiDataId": null
  },
  {
    "id": 51920,
    "name": "Winchcombe",
    "state_id": 2373,
    "state_code": "GLS",
    "country_id": 232,
    "country_code": "GB",
    "latitude": "51.95363000",
    "longitude": "-1.96398000",
    "wikiDataId": null
  }
]