[
  {
    "id": 48214,
    "name": "Aldford",
    "state_id": 2442,
    "state_code": "CHW",
    "country_id": 232,
    "country_code": "GB",
    "latitude": "53.12762000",
    "longitude": "-2.86812000",
    "wikiDataId": null
  },
  {
    "id": 48554,
    "name": "Blacon",
    "state_id": 2442,
    "state_code": "CHW",
    "country_id": 232,
    "country_code": "GB",
    "latitude": "53.20832000",
    "longitude": "-2.92530000",
    "wikiDataId": null
  },
  {
    "id": 48760,
    "name": "Bunbury",
    "state_id": 2442,
    "state_code": "CHW",
    "country_id": 232,
    "country_code": "GB",
    "latitude": "53.11559000",
    "longitude": "-2.65151000",
    "wikiDataId": null
  },
  {
    "id": 48953,
    "name": "Cheshire West and Chester",
    "state_id": 2442,
    "state_code": "CHW",
    "country_id": 232,
    "country_code": "GB",
    "latitude": "53.16352000",
    "longitude": "-2.73595000",
    "wikiDataId": null
  },
  {
    "id": 48956,
    "name": "Chester",
    "state_id": 2442,
    "state_code": "CHW",
    "country_id": 232,
    "country_code": "GB",
    "latitude": "53.19050000",
    "longitude": "-2.89189000",
    "wikiDataId": null
  },
  {
    "id": 49194,
    "name": "Cuddington",
    "state_id": 2442,
    "state_code": "CHW",
    "country_id": 232,
    "country_code": "GB",
    "latitude": "53.24488000",
    "longitude": "-2.61879000",
    "wikiDataId": null
  },
  {
    "id": 49761,
    "name": "Guilden Sutton",
    "state_id": 2442,
    "state_code": "CHW",
    "country_id": 232,
    "country_code": "GB",
    "latitude": "53.20809000",
    "longitude": "-2.82984000",
    "wikiDataId": null
  },
  {
    "id": 49893,
    "name": "Helsby",
    "state_id": 2442,
    "state_code": "CHW",
    "country_id": 232,
    "country_code": "GB",
    "latitude": "53.27396000",
    "longitude": "-2.76905000",
    "wikiDataId": null
  },
  {
    "id": 49982,
    "name": "Hoole",
    "state_id": 2442,
    "state_code": "CHW",
    "country_id": 232,
    "country_code": "GB",
    "latitude": "53.19980000",
    "longitude": "-2.87689000",
    "wikiDataId": null
  },
  {
    "id": 50108,
    "name": "Kelsall",
    "state_id": 2442,
    "state_code": "CHW",
    "country_id": 232,
    "country_code": "GB",
    "latitude": "53.20775000",
    "longitude": "-2.71242000",
    "wikiDataId": null
  },
  {
    "id": 50175,
    "name": "Kingsley",
    "state_id": 2442,
    "state_code": "CHW",
    "country_id": 232,
    "country_code": "GB",
    "latitude": "53.26667000",
    "longitude": "-2.66667000",
    "wikiDataId": null
  },
  {
    "id": 50477,
    "name": "Malpas",
    "state_id": 2442,
    "state_code": "CHW",
    "country_id": 232,
    "country_code": "GB",
    "latitude": "53.01667000",
    "longitude": "-2.76667000",
    "wikiDataId": null
  },
  {
    "id": 50564,
    "name": "Mickle Trafford",
    "state_id": 2442,
    "state_code": "CHW",
    "country_id": 232,
    "country_code": "GB",
    "latitude": "53.22146000",
    "longitude": "-2.83225000",
    "wikiDataId": null
  },
  {
    "id": 50615,
    "name": "Mollington",
    "state_id": 2442,
    "state_code": "CHW",
    "country_id": 232,
    "country_code": "GB",
    "latitude": "53.22934000",
    "longitude": "-2.92159000",
    "wikiDataId": null
  },
  {
    "id": 50639,
    "name": "Mouldsworth",
    "state_id": 2442,
    "state_code": "CHW",
    "country_id": 232,
    "country_code": "GB",
    "latitude": "53.23333000",
    "longitude": "-2.73333000",
    "wikiDataId": null
  },
  {
    "id": 50663,
    "name": "Nantwich",
    "state_id": 2442,
    "state_code": "CHW",
    "country_id": 232,
    "country_code": "GB",
    "latitude": "53.06878000",
    "longitude": "-2.52051000",
    "wikiDataId": null
  },
  {
    "id": 51561,
    "name": "Tarporley",
    "state_id": 2442,
    "state_code": "CHW",
    "country_id": 232,
    "country_code": "GB",
    "latitude": "53.15918000",
    "longitude": "-2.66867000",
    "wikiDataId": null
  },
  {
    "id": 51562,
    "name": "Tarvin",
    "state_id": 2442,
    "state_code": "CHW",
    "country_id": 232,
    "country_code": "GB",
    "latitude": "53.19737000",
    "longitude": "-2.76548000",
    "wikiDataId": null
  },
  {
    "id": 51563,
    "name": "Tattenhall",
    "state_id": 2442,
    "state_code": "CHW",
    "country_id": 232,
    "country_code": "GB",
    "latitude": "53.12188000",
    "longitude": "-2.76746000",
    "wikiDataId": null
  },
  {
    "id": 51869,
    "name": "Whitchurch",
    "state_id": 2442,
    "state_code": "CHW",
    "country_id": 232,
    "country_code": "GB",
    "latitude": "52.96667000",
    "longitude": "-2.68333000",
    "wikiDataId": null
  },
  {
    "id": 51935,
    "name": "Winsford",
    "state_id": 2442,
    "state_code": "CHW",
    "country_id": 232,
    "country_code": "GB",
    "latitude": "53.19146000",
    "longitude": "-2.52398000",
    "wikiDataId": null
  }
]