[
  {
    "id": 48256,
    "name": "Annfield Plain",
    "state_id": 2431,
    "state_code": "GAT",
    "country_id": 232,
    "country_code": "GB",
    "latitude": "54.85749000",
    "longitude": "-1.73827000",
    "wikiDataId": null
  },
  {
    "id": 48779,
    "name": "Burnopfield",
    "state_id": 2431,
    "state_code": "GAT",
    "country_id": 232,
    "country_code": "GB",
    "latitude": "54.90624000",
    "longitude": "-1.72486000",
    "wikiDataId": null
  },
  {
    "id": 48957,
    "name": "Chester-le-Street",
    "state_id": 2431,
    "state_code": "GAT",
    "country_id": 232,
    "country_code": "GB",
    "latitude": "54.85862000",
    "longitude": "-1.57408000",
    "wikiDataId": null
  },
  {
    "id": 49092,
    "name": "Consett",
    "state_id": 2431,
    "state_code": "GAT",
    "country_id": 232,
    "country_code": "GB",
    "latitude": "54.85404000",
    "longitude": "-1.83160000",
    "wikiDataId": null
  },
  {
    "id": 49539,
    "name": "Felling",
    "state_id": 2431,
    "state_code": "GAT",
    "country_id": 232,
    "country_code": "GB",
    "latitude": "54.95297000",
    "longitude": "-1.57152000",
    "wikiDataId": null
  },
  {
    "id": 49633,
    "name": "Gateshead",
    "state_id": 2431,
    "state_code": "GAT",
    "country_id": 232,
    "country_code": "GB",
    "latitude": "54.93333000",
    "longitude": "-1.66667000",
    "wikiDataId": null
  },
  {
    "id": 50231,
    "name": "Lamesley",
    "state_id": 2431,
    "state_code": "GAT",
    "country_id": 232,
    "country_code": "GB",
    "latitude": "54.91567000",
    "longitude": "-1.60945000",
    "wikiDataId": null
  },
  {
    "id": 50870,
    "name": "Pelton",
    "state_id": 2431,
    "state_code": "GAT",
    "country_id": 232,
    "country_code": "GB",
    "latitude": "54.87305000",
    "longitude": "-1.60950000",
    "wikiDataId": null
  },
  {
    "id": 51126,
    "name": "Rowlands Gill",
    "state_id": 2431,
    "state_code": "GAT",
    "country_id": 232,
    "country_code": "GB",
    "latitude": "54.91922000",
    "longitude": "-1.74489000",
    "wikiDataId": null
  },
  {
    "id": 51160,
    "name": "Sacriston",
    "state_id": 2431,
    "state_code": "GAT",
    "country_id": 232,
    "country_code": "GB",
    "latitude": "54.81769000",
    "longitude": "-1.62410000",
    "wikiDataId": null
  },
  {
    "id": 51426,
    "name": "Stanley",
    "state_id": 2431,
    "state_code": "GAT",
    "country_id": 232,
    "country_code": "GB",
    "latitude": "54.86796000",
    "longitude": "-1.69846000",
    "wikiDataId": null
  },
  {
    "id": 51554,
    "name": "Tanfield",
    "state_id": 2431,
    "state_code": "GAT",
    "country_id": 232,
    "country_code": "GB",
    "latitude": "54.89288000",
    "longitude": "-1.71316000",
    "wikiDataId": null
  },
  {
    "id": 51864,
    "name": "Whickham",
    "state_id": 2431,
    "state_code": "GAT",
    "country_id": 232,
    "country_code": "GB",
    "latitude": "54.94561000",
    "longitude": "-1.67635000",
    "wikiDataId": null
  }
]