[
  {
    "id": 48224,
    "name": "Almondsbury",
    "state_id": 2400,
    "state_code": "SGC",
    "country_id": 232,
    "country_code": "GB",
    "latitude": "51.55407000",
    "longitude": "-2.57114000",
    "wikiDataId": null
  },
  {
    "id": 48237,
    "name": "Alveston",
    "state_id": 2400,
    "state_code": "SGC",
    "country_id": 232,
    "country_code": "GB",
    "latitude": "51.58806000",
    "longitude": "-2.53139000",
    "wikiDataId": null
  },
  {
    "id": 48478,
    "name": "Berkeley",
    "state_id": 2400,
    "state_code": "SGC",
    "country_id": 232,
    "country_code": "GB",
    "latitude": "51.69111000",
    "longitude": "-2.45917000",
    "wikiDataId": null
  },
  {
    "id": 48495,
    "name": "Biddestone",
    "state_id": 2400,
    "state_code": "SGC",
    "country_id": 232,
    "country_code": "GB",
    "latitude": "51.46083000",
    "longitude": "-2.19833000",
    "wikiDataId": null
  },
  {
    "id": 48668,
    "name": "Bream",
    "state_id": 2400,
    "state_code": "SGC",
    "country_id": 232,
    "country_code": "GB",
    "latitude": "51.74822000",
    "longitude": "-2.57747000",
    "wikiDataId": null
  },
  {
    "id": 48921,
    "name": "Charfield",
    "state_id": 2400,
    "state_code": "SGC",
    "country_id": 232,
    "country_code": "GB",
    "latitude": "51.62722000",
    "longitude": "-2.40667000",
    "wikiDataId": null
  },
  {
    "id": 48975,
    "name": "Chipping Sodbury",
    "state_id": 2400,
    "state_code": "SGC",
    "country_id": 232,
    "country_code": "GB",
    "latitude": "51.53813000",
    "longitude": "-2.39379000",
    "wikiDataId": null
  },
  {
    "id": 49066,
    "name": "Coleford",
    "state_id": 2400,
    "state_code": "SGC",
    "country_id": 232,
    "country_code": "GB",
    "latitude": "51.79535000",
    "longitude": "-2.61354000",
    "wikiDataId": null
  },
  {
    "id": 49367,
    "name": "Dursley",
    "state_id": 2400,
    "state_code": "SGC",
    "country_id": 232,
    "country_code": "GB",
    "latitude": "51.68139000",
    "longitude": "-2.35333000",
    "wikiDataId": null
  },
  {
    "id": 50431,
    "name": "Luckington",
    "state_id": 2400,
    "state_code": "SGC",
    "country_id": 232,
    "country_code": "GB",
    "latitude": "51.55444000",
    "longitude": "-2.24222000",
    "wikiDataId": null
  },
  {
    "id": 50444,
    "name": "Lydney",
    "state_id": 2400,
    "state_code": "SGC",
    "country_id": 232,
    "country_code": "GB",
    "latitude": "51.72598000",
    "longitude": "-2.52605000",
    "wikiDataId": null
  },
  {
    "id": 50483,
    "name": "Mangotsfield",
    "state_id": 2400,
    "state_code": "SGC",
    "country_id": 232,
    "country_code": "GB",
    "latitude": "51.48780000",
    "longitude": "-2.50403000",
    "wikiDataId": null
  },
  {
    "id": 50517,
    "name": "Marshfield",
    "state_id": 2400,
    "state_code": "SGC",
    "country_id": 232,
    "country_code": "GB",
    "latitude": "51.46194000",
    "longitude": "-2.32000000",
    "wikiDataId": null
  },
  {
    "id": 50810,
    "name": "Olveston",
    "state_id": 2400,
    "state_code": "SGC",
    "country_id": 232,
    "country_code": "GB",
    "latitude": "51.58032000",
    "longitude": "-2.57750000",
    "wikiDataId": null
  },
  {
    "id": 50910,
    "name": "Pilning",
    "state_id": 2400,
    "state_code": "SGC",
    "country_id": 232,
    "country_code": "GB",
    "latitude": "51.56337000",
    "longitude": "-2.64264000",
    "wikiDataId": null
  },
  {
    "id": 50999,
    "name": "Pucklechurch",
    "state_id": 2400,
    "state_code": "SGC",
    "country_id": 232,
    "country_code": "GB",
    "latitude": "51.48583000",
    "longitude": "-2.43389000",
    "wikiDataId": null
  },
  {
    "id": 51241,
    "name": "Severn Beach",
    "state_id": 2400,
    "state_code": "SGC",
    "country_id": 232,
    "country_code": "GB",
    "latitude": "51.56036000",
    "longitude": "-2.66279000",
    "wikiDataId": null
  },
  {
    "id": 51251,
    "name": "Sharpness",
    "state_id": 2400,
    "state_code": "SGC",
    "country_id": 232,
    "country_code": "GB",
    "latitude": "51.71972000",
    "longitude": "-2.47750000",
    "wikiDataId": null
  },
  {
    "id": 51273,
    "name": "Sherston",
    "state_id": 2400,
    "state_code": "SGC",
    "country_id": 232,
    "country_code": "GB",
    "latitude": "51.57205000",
    "longitude": "-2.21278000",
    "wikiDataId": null
  },
  {
    "id": 51353,
    "name": "South Gloucestershire",
    "state_id": 2400,
    "state_code": "SGC",
    "country_id": 232,
    "country_code": "GB",
    "latitude": "51.50000000",
    "longitude": "-2.41667000",
    "wikiDataId": null
  },
  {
    "id": 51463,
    "name": "Stoke Gifford",
    "state_id": 2400,
    "state_code": "SGC",
    "country_id": 232,
    "country_code": "GB",
    "latitude": "51.51686000",
    "longitude": "-2.54053000",
    "wikiDataId": null
  },
  {
    "id": 51595,
    "name": "Thornbury",
    "state_id": 2400,
    "state_code": "SGC",
    "country_id": 232,
    "country_code": "GB",
    "latitude": "51.60889000",
    "longitude": "-2.52028000",
    "wikiDataId": null
  },
  {
    "id": 51687,
    "name": "Tytherington",
    "state_id": 2400,
    "state_code": "SGC",
    "country_id": 232,
    "country_code": "GB",
    "latitude": "51.59250000",
    "longitude": "-2.47972000",
    "wikiDataId": null
  },
  {
    "id": 51889,
    "name": "Wick",
    "state_id": 2400,
    "state_code": "SGC",
    "country_id": 232,
    "country_code": "GB",
    "latitude": "51.45306000",
    "longitude": "-2.42361000",
    "wikiDataId": null
  },
  {
    "id": 51895,
    "name": "Wickwar",
    "state_id": 2400,
    "state_code": "SGC",
    "country_id": 232,
    "country_code": "GB",
    "latitude": "51.59404000",
    "longitude": "-2.39968000",
    "wikiDataId": null
  },
  {
    "id": 51993,
    "name": "Wotton-under-Edge",
    "state_id": 2400,
    "state_code": "SGC",
    "country_id": 232,
    "country_code": "GB",
    "latitude": "51.63242000",
    "longitude": "-2.34512000",
    "wikiDataId": null
  },
  {
    "id": 52014,
    "name": "Yate",
    "state_id": 2400,
    "state_code": "SGC",
    "country_id": 232,
    "country_code": "GB",
    "latitude": "51.54074000",
    "longitude": "-2.41839000",
    "wikiDataId": null
  }
]