[
  {
    "id": 23490,
    "name": "Adlershof",
    "state_id": 3010,
    "state_code": "BE",
    "country_id": 82,
    "country_code": "DE",
    "latitude": "52.43548000",
    "longitude": "13.54825000",
    "wikiDataId": null
  },
  {
    "id": 23579,
    "name": "Alt-Hohenschönhausen",
    "state_id": 3010,
    "state_code": "BE",
    "country_id": 82,
    "country_code": "DE",
    "latitude": "52.54608000",
    "longitude": "13.50130000",
    "wikiDataId": null
  },
  {
    "id": 23581,
    "name": "Alt-Treptow",
    "state_id": 3010,
    "state_code": "BE",
    "country_id": 82,
    "country_code": "DE",
    "latitude": "52.48863000",
    "longitude": "13.45860000",
    "wikiDataId": null
  },
  {
    "id": 23621,
    "name": "Altglienicke",
    "state_id": 3010,
    "state_code": "BE",
    "country_id": 82,
    "country_code": "DE",
    "latitude": "52.41116000",
    "longitude": "13.53550000",
    "wikiDataId": null
  },
  {
    "id": 23959,
    "name": "Baumschulenweg",
    "state_id": 3010,
    "state_code": "BE",
    "country_id": 82,
    "country_code": "DE",
    "latitude": "52.46583000",
    "longitude": "13.48523000",
    "wikiDataId": null
  },
  {
    "id": 24053,
    "name": "Berlin",
    "state_id": 3010,
    "state_code": "BE",
    "country_id": 82,
    "country_code": "DE",
    "latitude": "52.52437000",
    "longitude": "13.41053000",
    "wikiDataId": null
  },
  {
    "id": 24054,
    "name": "Berlin Köpenick",
    "state_id": 3010,
    "state_code": "BE",
    "country_id": 82,
    "country_code": "DE",
    "latitude": "52.44254000",
    "longitude": "13.58228000",
    "wikiDataId": null
  },
  {
    "id": 24055,
    "name": "Berlin Treptow",
    "state_id": 3010,
    "state_code": "BE",
    "country_id": 82,
    "country_code": "DE",
    "latitude": "52.49376000",
    "longitude": "13.44469000",
    "wikiDataId": null
  },
  {
    "id": 24111,
    "name": "Biesdorf",
    "state_id": 3010,
    "state_code": "BE",
    "country_id": 82,
    "country_code": "DE",
    "latitude": "52.50906000",
    "longitude": "13.55340000",
    "wikiDataId": null
  },
  {
    "id": 24165,
    "name": "Blankenburg",
    "state_id": 3010,
    "state_code": "BE",
    "country_id": 82,
    "country_code": "DE",
    "latitude": "52.59293000",
    "longitude": "13.45516000",
    "wikiDataId": null
  },
  {
    "id": 24167,
    "name": "Blankenfelde",
    "state_id": 3010,
    "state_code": "BE",
    "country_id": 82,
    "country_code": "DE",
    "latitude": "52.61863000",
    "longitude": "13.39057000",
    "wikiDataId": null
  },
  {
    "id": 24217,
    "name": "Bohnsdorf",
    "state_id": 3010,
    "state_code": "BE",
    "country_id": 82,
    "country_code": "DE",
    "latitude": "52.39434000",
    "longitude": "13.57339000",
    "wikiDataId": null
  },
  {
    "id": 24338,
    "name": "Britz",
    "state_id": 3010,
    "state_code": "BE",
    "country_id": 82,
    "country_code": "DE",
    "latitude": "52.44293000",
    "longitude": "13.43388000",
    "wikiDataId": null
  },
  {
    "id": 24379,
    "name": "Buch",
    "state_id": 3010,
    "state_code": "BE",
    "country_id": 82,
    "country_code": "DE",
    "latitude": "52.63470000",
    "longitude": "13.49679000",
    "wikiDataId": null
  },
  {
    "id": 24397,
    "name": "Buckow",
    "state_id": 3010,
    "state_code": "BE",
    "country_id": 82,
    "country_code": "DE",
    "latitude": "52.43200000",
    "longitude": "13.46018000",
    "wikiDataId": null
  },
  {
    "id": 24531,
    "name": "Charlottenburg",
    "state_id": 3010,
    "state_code": "BE",
    "country_id": 82,
    "country_code": "DE",
    "latitude": "52.51667000",
    "longitude": "13.28333000",
    "wikiDataId": null
  },
  {
    "id": 24532,
    "name": "Charlottenburg-Nord",
    "state_id": 3010,
    "state_code": "BE",
    "country_id": 82,
    "country_code": "DE",
    "latitude": "52.53048000",
    "longitude": "13.29371000",
    "wikiDataId": null
  },
  {
    "id": 24578,
    "name": "Dahlem",
    "state_id": 3010,
    "state_code": "BE",
    "country_id": 82,
    "country_code": "DE",
    "latitude": "52.45810000",
    "longitude": "13.28702000",
    "wikiDataId": null
  },
  {
    "id": 25134,
    "name": "Falkenberg",
    "state_id": 3010,
    "state_code": "BE",
    "country_id": 82,
    "country_code": "DE",
    "latitude": "52.56800000",
    "longitude": "13.54597000",
    "wikiDataId": null
  },
  {
    "id": 25136,
    "name": "Falkenhagener Feld",
    "state_id": 3010,
    "state_code": "BE",
    "country_id": 82,
    "country_code": "DE",
    "latitude": "52.55191000",
    "longitude": "13.16802000",
    "wikiDataId": null
  },
  {
    "id": 25163,
    "name": "Fennpfuhl",
    "state_id": 3010,
    "state_code": "BE",
    "country_id": 82,
    "country_code": "DE",
    "latitude": "52.52921000",
    "longitude": "13.47267000",
    "wikiDataId": null
  },
  {
    "id": 25225,
    "name": "Französisch Buchholz",
    "state_id": 3010,
    "state_code": "BE",
    "country_id": 82,
    "country_code": "DE",
    "latitude": "52.60242000",
    "longitude": "13.43019000",
    "wikiDataId": null
  },
  {
    "id": 25274,
    "name": "Friedenau",
    "state_id": 3010,
    "state_code": "BE",
    "country_id": 82,
    "country_code": "DE",
    "latitude": "52.47133000",
    "longitude": "13.32813000",
    "wikiDataId": null
  },
  {
    "id": 25287,
    "name": "Friedrichsfelde",
    "state_id": 3010,
    "state_code": "BE",
    "country_id": 82,
    "country_code": "DE",
    "latitude": "52.50575000",
    "longitude": "13.50812000",
    "wikiDataId": null
  },
  {
    "id": 25289,
    "name": "Friedrichshagen",
    "state_id": 3010,
    "state_code": "BE",
    "country_id": 82,
    "country_code": "DE",
    "latitude": "52.45052000",
    "longitude": "13.62463000",
    "wikiDataId": null
  },
  {
    "id": 25290,
    "name": "Friedrichshain",
    "state_id": 3010,
    "state_code": "BE",
    "country_id": 82,
    "country_code": "DE",
    "latitude": "52.51559000",
    "longitude": "13.45482000",
    "wikiDataId": null
  },
  {
    "id": 25305,
    "name": "Frohnau",
    "state_id": 3010,
    "state_code": "BE",
    "country_id": 82,
    "country_code": "DE",
    "latitude": "52.63336000",
    "longitude": "13.29024000",
    "wikiDataId": null
  },
  {
    "id": 25376,
    "name": "Gatow",
    "state_id": 3010,
    "state_code": "BE",
    "country_id": 82,
    "country_code": "DE",
    "latitude": "52.48324000",
    "longitude": "13.18285000",
    "wikiDataId": null
  },
  {
    "id": 25475,
    "name": "Gesundbrunnen",
    "state_id": 3010,
    "state_code": "BE",
    "country_id": 82,
    "country_code": "DE",
    "latitude": "52.55035000",
    "longitude": "13.39139000",
    "wikiDataId": null
  },
  {
    "id": 25616,
    "name": "Gropiusstadt",
    "state_id": 3010,
    "state_code": "BE",
    "country_id": 82,
    "country_code": "DE",
    "latitude": "52.42500000",
    "longitude": "13.46667000",
    "wikiDataId": null
  },
  {
    "id": 25734,
    "name": "Grünau",
    "state_id": 3010,
    "state_code": "BE",
    "country_id": 82,
    "country_code": "DE",
    "latitude": "52.41642000",
    "longitude": "13.58039000",
    "wikiDataId": null
  },
  {
    "id": 25719,
    "name": "Grunewald",
    "state_id": 3010,
    "state_code": "BE",
    "country_id": 82,
    "country_code": "DE",
    "latitude": "52.48338000",
    "longitude": "13.26586000",
    "wikiDataId": null
  },
  {
    "id": 25841,
    "name": "Hakenfelde",
    "state_id": 3010,
    "state_code": "BE",
    "country_id": 82,
    "country_code": "DE",
    "latitude": "52.55877000",
    "longitude": "13.20831000",
    "wikiDataId": null
  },
  {
    "id": 25848,
    "name": "Halensee",
    "state_id": 3010,
    "state_code": "BE",
    "country_id": 82,
    "country_code": "DE",
    "latitude": "52.49005000",
    "longitude": "13.29602000",
    "wikiDataId": null
  },
  {
    "id": 25892,
    "name": "Hansaviertel",
    "state_id": 3010,
    "state_code": "BE",
    "country_id": 82,
    "country_code": "DE",
    "latitude": "52.51853000",
    "longitude": "13.34178000",
    "wikiDataId": null
  },
  {
    "id": 25926,
    "name": "Haselhorst",
    "state_id": 3010,
    "state_code": "BE",
    "country_id": 82,
    "country_code": "DE",
    "latitude": "52.54409000",
    "longitude": "13.23743000",
    "wikiDataId": null
  },
  {
    "id": 26000,
    "name": "Heiligensee",
    "state_id": 3010,
    "state_code": "BE",
    "country_id": 82,
    "country_code": "DE",
    "latitude": "52.61449000",
    "longitude": "13.24501000",
    "wikiDataId": null
  },
  {
    "id": 26013,
    "name": "Heinersdorf",
    "state_id": 3010,
    "state_code": "BE",
    "country_id": 82,
    "country_code": "DE",
    "latitude": "52.57173000",
    "longitude": "13.43757000",
    "wikiDataId": null
  },
  {
    "id": 26026,
    "name": "Hellersdorf",
    "state_id": 3010,
    "state_code": "BE",
    "country_id": 82,
    "country_code": "DE",
    "latitude": "52.53319000",
    "longitude": "13.60880000",
    "wikiDataId": null
  },
  {
    "id": 26082,
    "name": "Hermsdorf",
    "state_id": 3010,
    "state_code": "BE",
    "country_id": 82,
    "country_code": "DE",
    "latitude": "52.61421000",
    "longitude": "13.30587000",
    "wikiDataId": null
  },
  {
    "id": 26457,
    "name": "Johannisthal",
    "state_id": 3010,
    "state_code": "BE",
    "country_id": 82,
    "country_code": "DE",
    "latitude": "52.44653000",
    "longitude": "13.50660000",
    "wikiDataId": null
  },
  {
    "id": 26517,
    "name": "Karlshorst",
    "state_id": 3010,
    "state_code": "BE",
    "country_id": 82,
    "country_code": "DE",
    "latitude": "52.48419000",
    "longitude": "13.53185000",
    "wikiDataId": null
  },
  {
    "id": 26523,
    "name": "Karow",
    "state_id": 3010,
    "state_code": "BE",
    "country_id": 82,
    "country_code": "DE",
    "latitude": "52.60904000",
    "longitude": "13.48117000",
    "wikiDataId": null
  },
  {
    "id": 26545,
    "name": "Kaulsdorf",
    "state_id": 3010,
    "state_code": "BE",
    "country_id": 82,
    "country_code": "DE",
    "latitude": "52.51732000",
    "longitude": "13.58871000",
    "wikiDataId": null
  },
  {
    "id": 26655,
    "name": "Kladow",
    "state_id": 3010,
    "state_code": "BE",
    "country_id": 82,
    "country_code": "DE",
    "latitude": "52.45423000",
    "longitude": "13.14445000",
    "wikiDataId": null
  },
  {
    "id": 26716,
    "name": "Konradshöhe",
    "state_id": 3010,
    "state_code": "BE",
    "country_id": 82,
    "country_code": "DE",
    "latitude": "52.58535000",
    "longitude": "13.22758000",
    "wikiDataId": null
  },
  {
    "id": 26842,
    "name": "Köpenick",
    "state_id": 3010,
    "state_code": "BE",
    "country_id": 82,
    "country_code": "DE",
    "latitude": "52.44550000",
    "longitude": "13.57455000",
    "wikiDataId": null
  },
  {
    "id": 26756,
    "name": "Kreuzberg",
    "state_id": 3010,
    "state_code": "BE",
    "country_id": 82,
    "country_code": "DE",
    "latitude": "52.49973000",
    "longitude": "13.40338000",
    "wikiDataId": null
  },
  {
    "id": 26948,
    "name": "Lankwitz",
    "state_id": 3010,
    "state_code": "BE",
    "country_id": 82,
    "country_code": "DE",
    "latitude": "52.43623000",
    "longitude": "13.34590000",
    "wikiDataId": null
  },
  {
    "id": 27078,
    "name": "Lichtenberg",
    "state_id": 3010,
    "state_code": "BE",
    "country_id": 82,
    "country_code": "DE",
    "latitude": "52.51395000",
    "longitude": "13.49975000",
    "wikiDataId": null
  },
  {
    "id": 27082,
    "name": "Lichtenrade",
    "state_id": 3010,
    "state_code": "BE",
    "country_id": 82,
    "country_code": "DE",
    "latitude": "52.39844000",
    "longitude": "13.40637000",
    "wikiDataId": null
  },
  {
    "id": 27085,
    "name": "Lichterfelde",
    "state_id": 3010,
    "state_code": "BE",
    "country_id": 82,
    "country_code": "DE",
    "latitude": "52.43330000",
    "longitude": "13.30762000",
    "wikiDataId": null
  },
  {
    "id": 27201,
    "name": "Lübars",
    "state_id": 3010,
    "state_code": "BE",
    "country_id": 82,
    "country_code": "DE",
    "latitude": "52.61591000",
    "longitude": "13.35350000",
    "wikiDataId": null
  },
  {
    "id": 27233,
    "name": "Mahlsdorf",
    "state_id": 3010,
    "state_code": "BE",
    "country_id": 82,
    "country_code": "DE",
    "latitude": "52.50935000",
    "longitude": "13.61373000",
    "wikiDataId": null
  },
  {
    "id": 27274,
    "name": "Mariendorf",
    "state_id": 3010,
    "state_code": "BE",
    "country_id": 82,
    "country_code": "DE",
    "latitude": "52.43780000",
    "longitude": "13.38109000",
    "wikiDataId": null
  },
  {
    "id": 27275,
    "name": "Marienfelde",
    "state_id": 3010,
    "state_code": "BE",
    "country_id": 82,
    "country_code": "DE",
    "latitude": "52.41868000",
    "longitude": "13.36723000",
    "wikiDataId": null
  },
  {
    "id": 27554,
    "name": "Märkisches Viertel",
    "state_id": 3010,
    "state_code": "BE",
    "country_id": 82,
    "country_code": "DE",
    "latitude": "52.59841000",
    "longitude": "13.35766000",
    "wikiDataId": null
  },
  {
    "id": 27334,
    "name": "Marzahn",
    "state_id": 3010,
    "state_code": "BE",
    "country_id": 82,
    "country_code": "DE",
    "latitude": "52.54525000",
    "longitude": "13.56983000",
    "wikiDataId": null
  },
  {
    "id": 27478,
    "name": "Mitte",
    "state_id": 3010,
    "state_code": "BE",
    "country_id": 82,
    "country_code": "DE",
    "latitude": "52.52003000",
    "longitude": "13.40489000",
    "wikiDataId": null
  },
  {
    "id": 27496,
    "name": "Moabit",
    "state_id": 3010,
    "state_code": "BE",
    "country_id": 82,
    "country_code": "DE",
    "latitude": "52.52635000",
    "longitude": "13.33903000",
    "wikiDataId": null
  },
  {
    "id": 27587,
    "name": "Müggelheim",
    "state_id": 3010,
    "state_code": "BE",
    "country_id": 82,
    "country_code": "DE",
    "latitude": "52.41137000",
    "longitude": "13.66403000",
    "wikiDataId": null
  },
  {
    "id": 27693,
    "name": "Neu-Hohenschönhausen",
    "state_id": 3010,
    "state_code": "BE",
    "country_id": 82,
    "country_code": "DE",
    "latitude": "52.56681000",
    "longitude": "13.51255000",
    "wikiDataId": null
  },
  {
    "id": 27765,
    "name": "Neukölln",
    "state_id": 3010,
    "state_code": "BE",
    "country_id": 82,
    "country_code": "DE",
    "latitude": "52.47719000",
    "longitude": "13.43126000",
    "wikiDataId": null
  },
  {
    "id": 27873,
    "name": "Niederschöneweide",
    "state_id": 3010,
    "state_code": "BE",
    "country_id": 82,
    "country_code": "DE",
    "latitude": "52.45564000",
    "longitude": "13.51554000",
    "wikiDataId": null
  },
  {
    "id": 27874,
    "name": "Niederschönhausen",
    "state_id": 3010,
    "state_code": "BE",
    "country_id": 82,
    "country_code": "DE",
    "latitude": "52.58483000",
    "longitude": "13.40272000",
    "wikiDataId": null
  },
  {
    "id": 27899,
    "name": "Nikolassee",
    "state_id": 3010,
    "state_code": "BE",
    "country_id": 82,
    "country_code": "DE",
    "latitude": "52.43440000",
    "longitude": "13.20095000",
    "wikiDataId": null
  },
  {
    "id": 28034,
    "name": "Oberschöneweide",
    "state_id": 3010,
    "state_code": "BE",
    "country_id": 82,
    "country_code": "DE",
    "latitude": "52.46106000",
    "longitude": "13.52108000",
    "wikiDataId": null
  },
  {
    "id": 28216,
    "name": "Pankow",
    "state_id": 3010,
    "state_code": "BE",
    "country_id": 82,
    "country_code": "DE",
    "latitude": "52.56926000",
    "longitude": "13.40186000",
    "wikiDataId": null
  },
  {
    "id": 28330,
    "name": "Plänterwald",
    "state_id": 3010,
    "state_code": "BE",
    "country_id": 82,
    "country_code": "DE",
    "latitude": "52.48106000",
    "longitude": "13.47276000",
    "wikiDataId": null
  },
  {
    "id": 28375,
    "name": "Prenzlauer Berg",
    "state_id": 3010,
    "state_code": "BE",
    "country_id": 82,
    "country_code": "DE",
    "latitude": "52.53878000",
    "longitude": "13.42443000",
    "wikiDataId": null
  },
  {
    "id": 28452,
    "name": "Rahnsdorf",
    "state_id": 3010,
    "state_code": "BE",
    "country_id": 82,
    "country_code": "DE",
    "latitude": "52.44115000",
    "longitude": "13.68708000",
    "wikiDataId": null
  },
  {
    "id": 28562,
    "name": "Reinickendorf",
    "state_id": 3010,
    "state_code": "BE",
    "country_id": 82,
    "country_code": "DE",
    "latitude": "52.56667000",
    "longitude": "13.33333000",
    "wikiDataId": null
  },
  {
    "id": 28710,
    "name": "Rosenthal",
    "state_id": 3010,
    "state_code": "BE",
    "country_id": 82,
    "country_code": "DE",
    "latitude": "52.59976000",
    "longitude": "13.37774000",
    "wikiDataId": null
  },
  {
    "id": 28753,
    "name": "Rudow",
    "state_id": 3010,
    "state_code": "BE",
    "country_id": 82,
    "country_code": "DE",
    "latitude": "52.42407000",
    "longitude": "13.48529000",
    "wikiDataId": null
  },
  {
    "id": 28762,
    "name": "Rummelsburg",
    "state_id": 3010,
    "state_code": "BE",
    "country_id": 82,
    "country_code": "DE",
    "latitude": "52.50146000",
    "longitude": "13.49340000",
    "wikiDataId": null
  },
  {
    "id": 28989,
    "name": "Schmargendorf",
    "state_id": 3010,
    "state_code": "BE",
    "country_id": 82,
    "country_code": "DE",
    "latitude": "52.47517000",
    "longitude": "13.29071000",
    "wikiDataId": null
  },
  {
    "id": 28998,
    "name": "Schmöckwitz",
    "state_id": 3010,
    "state_code": "BE",
    "country_id": 82,
    "country_code": "DE",
    "latitude": "52.37513000",
    "longitude": "13.64948000",
    "wikiDataId": null
  },
  {
    "id": 29116,
    "name": "Schöneberg",
    "state_id": 3010,
    "state_code": "BE",
    "country_id": 82,
    "country_code": "DE",
    "latitude": "52.46667000",
    "longitude": "13.35000000",
    "wikiDataId": null
  },
  {
    "id": 29218,
    "name": "Siemensstadt",
    "state_id": 3010,
    "state_code": "BE",
    "country_id": 82,
    "country_code": "DE",
    "latitude": "52.54053000",
    "longitude": "13.26294000",
    "wikiDataId": null
  },
  {
    "id": 29286,
    "name": "Spandau",
    "state_id": 3010,
    "state_code": "BE",
    "country_id": 82,
    "country_code": "DE",
    "latitude": "52.55110000",
    "longitude": "13.19921000",
    "wikiDataId": null
  },
  {
    "id": 29313,
    "name": "Staaken",
    "state_id": 3010,
    "state_code": "BE",
    "country_id": 82,
    "country_code": "DE",
    "latitude": "52.53661000",
    "longitude": "13.15057000",
    "wikiDataId": null
  },
  {
    "id": 29329,
    "name": "Stadtrandsiedlung Malchow",
    "state_id": 3010,
    "state_code": "BE",
    "country_id": 82,
    "country_code": "DE",
    "latitude": "52.58295000",
    "longitude": "13.47811000",
    "wikiDataId": null
  },
  {
    "id": 29353,
    "name": "Steglitz",
    "state_id": 3010,
    "state_code": "BE",
    "country_id": 82,
    "country_code": "DE",
    "latitude": "52.45606000",
    "longitude": "13.33200000",
    "wikiDataId": null
  },
  {
    "id": 29543,
    "name": "Tegel",
    "state_id": 3010,
    "state_code": "BE",
    "country_id": 82,
    "country_code": "DE",
    "latitude": "52.57601000",
    "longitude": "13.29389000",
    "wikiDataId": null
  },
  {
    "id": 29555,
    "name": "Tempelhof",
    "state_id": 3010,
    "state_code": "BE",
    "country_id": 82,
    "country_code": "DE",
    "latitude": "52.46667000",
    "longitude": "13.40000000",
    "wikiDataId": null
  },
  {
    "id": 29612,
    "name": "Tiergarten",
    "state_id": 3010,
    "state_code": "BE",
    "country_id": 82,
    "country_code": "DE",
    "latitude": "52.51667000",
    "longitude": "13.36667000",
    "wikiDataId": null
  },
  {
    "id": 29926,
    "name": "Waidmannslust",
    "state_id": 3010,
    "state_code": "BE",
    "country_id": 82,
    "country_code": "DE",
    "latitude": "52.60691000",
    "longitude": "13.31968000",
    "wikiDataId": null
  },
  {
    "id": 30008,
    "name": "Wannsee",
    "state_id": 3010,
    "state_code": "BE",
    "country_id": 82,
    "country_code": "DE",
    "latitude": "52.41915000",
    "longitude": "13.15531000",
    "wikiDataId": null
  },
  {
    "id": 30025,
    "name": "Wartenberg",
    "state_id": 3010,
    "state_code": "BE",
    "country_id": 82,
    "country_code": "DE",
    "latitude": "52.57520000",
    "longitude": "13.51559000",
    "wikiDataId": null
  },
  {
    "id": 30048,
    "name": "Wedding",
    "state_id": 3010,
    "state_code": "BE",
    "country_id": 82,
    "country_code": "DE",
    "latitude": "52.54734000",
    "longitude": "13.35594000",
    "wikiDataId": null
  },
  {
    "id": 30134,
    "name": "Weißensee",
    "state_id": 3010,
    "state_code": "BE",
    "country_id": 82,
    "country_code": "DE",
    "latitude": "52.55632000",
    "longitude": "13.46649000",
    "wikiDataId": null
  },
  {
    "id": 30200,
    "name": "Westend",
    "state_id": 3010,
    "state_code": "BE",
    "country_id": 82,
    "country_code": "DE",
    "latitude": "52.51708000",
    "longitude": "13.27636000",
    "wikiDataId": null
  },
  {
    "id": 30287,
    "name": "Wilhelmsruh",
    "state_id": 3010,
    "state_code": "BE",
    "country_id": 82,
    "country_code": "DE",
    "latitude": "52.58710000",
    "longitude": "13.36855000",
    "wikiDataId": null
  },
  {
    "id": 30288,
    "name": "Wilhelmstadt",
    "state_id": 3010,
    "state_code": "BE",
    "country_id": 82,
    "country_code": "DE",
    "latitude": "52.52462000",
    "longitude": "13.17707000",
    "wikiDataId": null
  },
  {
    "id": 30299,
    "name": "Wilmersdorf",
    "state_id": 3010,
    "state_code": "BE",
    "country_id": 82,
    "country_code": "DE",
    "latitude": "52.48333000",
    "longitude": "13.31667000",
    "wikiDataId": null
  },
  {
    "id": 30350,
    "name": "Wittenau",
    "state_id": 3010,
    "state_code": "BE",
    "country_id": 82,
    "country_code": "DE",
    "latitude": "52.59319000",
    "longitude": "13.32127000",
    "wikiDataId": null
  },
  {
    "id": 30475,
    "name": "Zehlendorf",
    "state_id": 3010,
    "state_code": "BE",
    "country_id": 82,
    "country_code": "DE",
    "latitude": "52.43333000",
    "longitude": "13.25000000",
    "wikiDataId": null
  }
]