[
  {
    "id": 107309,
    "name": "Bağlar",
    "state_id": 2226,
    "state_code": "21",
    "country_id": 225,
    "country_code": "TR",
    "latitude": "37.91068000",
    "longitude": "40.22627000",
    "wikiDataId": null
  },
  {
    "id": 107362,
    "name": "Bismil",
    "state_id": 2226,
    "state_code": "21",
    "country_id": 225,
    "country_code": "TR",
    "latitude": "37.84514000",
    "longitude": "40.65931000",
    "wikiDataId": null
  },
  {
    "id": 108822,
    "name": "Çermik",
    "state_id": 2226,
    "state_code": "21",
    "country_id": 225,
    "country_code": "TR",
    "latitude": "38.13538000",
    "longitude": "39.44500000",
    "wikiDataId": null
  },
  {
    "id": 108854,
    "name": "Çınar",
    "state_id": 2226,
    "state_code": "21",
    "country_id": 225,
    "country_code": "TR",
    "latitude": "37.72562000",
    "longitude": "40.41484000",
    "wikiDataId": null
  },
  {
    "id": 108851,
    "name": "Çüngüş",
    "state_id": 2226,
    "state_code": "21",
    "country_id": 225,
    "country_code": "TR",
    "latitude": "38.20798000",
    "longitude": "39.28554000",
    "wikiDataId": null
  },
  {
    "id": 107491,
    "name": "Dicle",
    "state_id": 2226,
    "state_code": "21",
    "country_id": 225,
    "country_code": "TR",
    "latitude": "38.36571000",
    "longitude": "40.06450000",
    "wikiDataId": null
  },
  {
    "id": 107625,
    "name": "Eğil",
    "state_id": 2226,
    "state_code": "21",
    "country_id": 225,
    "country_code": "TR",
    "latitude": "38.25748000",
    "longitude": "40.07435000",
    "wikiDataId": null
  },
  {
    "id": 107592,
    "name": "Ergani",
    "state_id": 2226,
    "state_code": "21",
    "country_id": 225,
    "country_code": "TR",
    "latitude": "38.26899000",
    "longitude": "39.75446000",
    "wikiDataId": null
  },
  {
    "id": 107790,
    "name": "Hani",
    "state_id": 2226,
    "state_code": "21",
    "country_id": 225,
    "country_code": "TR",
    "latitude": "38.40741000",
    "longitude": "40.38578000",
    "wikiDataId": null
  },
  {
    "id": 107817,
    "name": "Hazro",
    "state_id": 2226,
    "state_code": "21",
    "country_id": 225,
    "country_code": "TR",
    "latitude": "38.24903000",
    "longitude": "40.77129000",
    "wikiDataId": null
  },
  {
    "id": 107948,
    "name": "Kayapınar",
    "state_id": 2226,
    "state_code": "21",
    "country_id": 225,
    "country_code": "TR",
    "latitude": "37.93800000",
    "longitude": "40.17310000",
    "wikiDataId": null
  },
  {
    "id": 108008,
    "name": "Kocaköy",
    "state_id": 2226,
    "state_code": "21",
    "country_id": 225,
    "country_code": "TR",
    "latitude": "38.28889000",
    "longitude": "40.49786000",
    "wikiDataId": null
  },
  {
    "id": 108040,
    "name": "Kulp",
    "state_id": 2226,
    "state_code": "21",
    "country_id": 225,
    "country_code": "TR",
    "latitude": "38.49754000",
    "longitude": "41.00668000",
    "wikiDataId": null
  },
  {
    "id": 108130,
    "name": "Lice",
    "state_id": 2226,
    "state_code": "21",
    "country_id": 225,
    "country_code": "TR",
    "latitude": "38.45821000",
    "longitude": "40.63888000",
    "wikiDataId": null
  },
  {
    "id": 108463,
    "name": "Silvan",
    "state_id": 2226,
    "state_code": "21",
    "country_id": 225,
    "country_code": "TR",
    "latitude": "38.13708000",
    "longitude": "41.00817000",
    "wikiDataId": null
  },
  {
    "id": 108506,
    "name": "Sur",
    "state_id": 2226,
    "state_code": "21",
    "country_id": 225,
    "country_code": "TR",
    "latitude": "37.91356000",
    "longitude": "40.23743000",
    "wikiDataId": null
  },
  {
    "id": 108716,
    "name": "Yenişehir",
    "state_id": 2226,
    "state_code": "21",
    "country_id": 225,
    "country_code": "TR",
    "latitude": "37.91373000",
    "longitude": "40.20610000",
    "wikiDataId": null
  }
]