[
  {
    "id": 20485,
    "name": "Abejorral",
    "state_id": 2890,
    "state_code": "ANT",
    "country_id": 48,
    "country_code": "CO",
    "latitude": "5.78928000",
    "longitude": "-75.42725000",
    "wikiDataId": null
  },
  {
    "id": 20487,
    "name": "Abriaquí",
    "state_id": 2890,
    "state_code": "ANT",
    "country_id": 48,
    "country_code": "CO",
    "latitude": "6.63148000",
    "longitude": "-76.06444000",
    "wikiDataId": null
  },
  {
    "id": 20504,
    "name": "Alejandría",
    "state_id": 2890,
    "state_code": "ANT",
    "country_id": 48,
    "country_code": "CO",
    "latitude": "6.36667000",
    "longitude": "-75.08333000",
    "wikiDataId": null
  },
  {
    "id": 20512,
    "name": "Amagá",
    "state_id": 2890,
    "state_code": "ANT",
    "country_id": 48,
    "country_code": "CO",
    "latitude": "6.04001000",
    "longitude": "-75.70315000",
    "wikiDataId": null
  },
  {
    "id": 20513,
    "name": "Amalfi",
    "state_id": 2890,
    "state_code": "ANT",
    "country_id": 48,
    "country_code": "CO",
    "latitude": "6.91016000",
    "longitude": "-75.07764000",
    "wikiDataId": null
  },
  {
    "id": 20520,
    "name": "Andes",
    "state_id": 2890,
    "state_code": "ANT",
    "country_id": 48,
    "country_code": "CO",
    "latitude": "5.66974000",
    "longitude": "-75.89905000",
    "wikiDataId": null
  },
  {
    "id": 20521,
    "name": "Angelópolis",
    "state_id": 2890,
    "state_code": "ANT",
    "country_id": 48,
    "country_code": "CO",
    "latitude": "6.12228000",
    "longitude": "-75.71432000",
    "wikiDataId": null
  },
  {
    "id": 20522,
    "name": "Angostura",
    "state_id": 2890,
    "state_code": "ANT",
    "country_id": 48,
    "country_code": "CO",
    "latitude": "6.87120000",
    "longitude": "-75.35947000",
    "wikiDataId": null
  },
  {
    "id": 20747,
    "name": "Anorí",
    "state_id": 2890,
    "state_code": "ANT",
    "country_id": 48,
    "country_code": "CO",
    "latitude": "7.07361111",
    "longitude": "-75.14694444",
    "wikiDataId": null
  },
  {
    "id": 20527,
    "name": "Anza",
    "state_id": 2890,
    "state_code": "ANT",
    "country_id": 48,
    "country_code": "CO",
    "latitude": "6.33333000",
    "longitude": "-75.91667000",
    "wikiDataId": null
  },
  {
    "id": 20529,
    "name": "Apartadó",
    "state_id": 2890,
    "state_code": "ANT",
    "country_id": 48,
    "country_code": "CO",
    "latitude": "7.88299000",
    "longitude": "-76.62587000",
    "wikiDataId": null
  },
  {
    "id": 20541,
    "name": "Arboletes",
    "state_id": 2890,
    "state_code": "ANT",
    "country_id": 48,
    "country_code": "CO",
    "latitude": "8.85051000",
    "longitude": "-76.42694000",
    "wikiDataId": null
  },
  {
    "id": 20544,
    "name": "Argelia",
    "state_id": 2890,
    "state_code": "ANT",
    "country_id": 48,
    "country_code": "CO",
    "latitude": "5.73127000",
    "longitude": "-75.14257000",
    "wikiDataId": null
  },
  {
    "id": 20551,
    "name": "Armenia",
    "state_id": 2890,
    "state_code": "ANT",
    "country_id": 48,
    "country_code": "CO",
    "latitude": "6.17554000",
    "longitude": "-75.81230000",
    "wikiDataId": null
  },
  {
    "id": 20566,
    "name": "Barbosa",
    "state_id": 2890,
    "state_code": "ANT",
    "country_id": 48,
    "country_code": "CO",
    "latitude": "6.43809000",
    "longitude": "-75.33136000",
    "wikiDataId": null
  },
  {
    "id": 20579,
    "name": "Bello",
    "state_id": 2890,
    "state_code": "ANT",
    "country_id": 48,
    "country_code": "CO",
    "latitude": "6.36160000",
    "longitude": "-75.58728000",
    "wikiDataId": null
  },
  {
    "id": 20580,
    "name": "Belmira",
    "state_id": 2890,
    "state_code": "ANT",
    "country_id": 48,
    "country_code": "CO",
    "latitude": "6.60508000",
    "longitude": "-75.66619000",
    "wikiDataId": null
  },
  {
    "id": 20588,
    "name": "Betania",
    "state_id": 2890,
    "state_code": "ANT",
    "country_id": 48,
    "country_code": "CO",
    "latitude": "5.73571000",
    "longitude": "-75.98964000",
    "wikiDataId": null
  },
  {
    "id": 20589,
    "name": "Betulia",
    "state_id": 2890,
    "state_code": "ANT",
    "country_id": 48,
    "country_code": "CO",
    "latitude": "6.11284000",
    "longitude": "-75.98378000",
    "wikiDataId": null
  },
  {
    "id": 20602,
    "name": "Briceño",
    "state_id": 2890,
    "state_code": "ANT",
    "country_id": 48,
    "country_code": "CO",
    "latitude": "7.05001000",
    "longitude": "-75.50903000",
    "wikiDataId": null
  },
  {
    "id": 20613,
    "name": "Buriticá",
    "state_id": 2890,
    "state_code": "ANT",
    "country_id": 48,
    "country_code": "CO",
    "latitude": "6.80549000",
    "longitude": "-75.92093000",
    "wikiDataId": null
  },
  {
    "id": 20763,
    "name": "Cáceres",
    "state_id": 2890,
    "state_code": "ANT",
    "country_id": 48,
    "country_code": "CO",
    "latitude": "7.68252000",
    "longitude": "-75.22481000",
    "wikiDataId": null
  },
  {
    "id": 20621,
    "name": "Caicedo",
    "state_id": 2890,
    "state_code": "ANT",
    "country_id": 48,
    "country_code": "CO",
    "latitude": "6.42805000",
    "longitude": "-75.99715000",
    "wikiDataId": null
  },
  {
    "id": 20631,
    "name": "Caldas",
    "state_id": 2890,
    "state_code": "ANT",
    "country_id": 48,
    "country_code": "CO",
    "latitude": "6.09106000",
    "longitude": "-75.63569000",
    "wikiDataId": null
  },
  {
    "id": 20638,
    "name": "Campamento",
    "state_id": 2890,
    "state_code": "ANT",
    "country_id": 48,
    "country_code": "CO",
    "latitude": "7.03910000",
    "longitude": "-75.28938000",
    "wikiDataId": null
  },
  {
    "id": 20667,
    "name": "Cañasgordas",
    "state_id": 2890,
    "state_code": "ANT",
    "country_id": 48,
    "country_code": "CO",
    "latitude": "6.80951000",
    "longitude": "-76.03954000",
    "wikiDataId": null
  },
  {
    "id": 20649,
    "name": "Caracolí",
    "state_id": 2890,
    "state_code": "ANT",
    "country_id": 48,
    "country_code": "CO",
    "latitude": "6.40920000",
    "longitude": "-74.75715000",
    "wikiDataId": null
  },
  {
    "id": 20650,
    "name": "Caramanta",
    "state_id": 2890,
    "state_code": "ANT",
    "country_id": 48,
    "country_code": "CO",
    "latitude": "5.54144000",
    "longitude": "-75.66961000",
    "wikiDataId": null
  },
  {
    "id": 20652,
    "name": "Carepa",
    "state_id": 2890,
    "state_code": "ANT",
    "country_id": 48,
    "country_code": "CO",
    "latitude": "7.75849000",
    "longitude": "-76.65255000",
    "wikiDataId": null
  },
  {
    "id": 20658,
    "name": "Carolina",
    "state_id": 2890,
    "state_code": "ANT",
    "country_id": 48,
    "country_code": "CO",
    "latitude": "6.74807000",
    "longitude": "-75.32131000",
    "wikiDataId": null
  },
  {
    "id": 20666,
    "name": "Caucasia",
    "state_id": 2890,
    "state_code": "ANT",
    "country_id": 48,
    "country_code": "CO",
    "latitude": "7.98654000",
    "longitude": "-75.19349000",
    "wikiDataId": null
  },
  {
    "id": 20683,
    "name": "Chigorodó",
    "state_id": 2890,
    "state_code": "ANT",
    "country_id": 48,
    "country_code": "CO",
    "latitude": "7.66638000",
    "longitude": "-76.68106000",
    "wikiDataId": null
  },
  {
    "id": 20710,
    "name": "Cisneros",
    "state_id": 2890,
    "state_code": "ANT",
    "country_id": 48,
    "country_code": "CO",
    "latitude": "6.54507000",
    "longitude": "-75.09415000",
    "wikiDataId": null
  },
  {
    "id": 20711,
    "name": "Ciudad Bolívar",
    "state_id": 2890,
    "state_code": "ANT",
    "country_id": 48,
    "country_code": "CO",
    "latitude": "5.85389000",
    "longitude": "-76.02528000",
    "wikiDataId": null
  },
  {
    "id": 20716,
    "name": "Cocorná",
    "state_id": 2890,
    "state_code": "ANT",
    "country_id": 48,
    "country_code": "CO",
    "latitude": "6.00579000",
    "longitude": "-75.16984000",
    "wikiDataId": null
  },
  {
    "id": 20724,
    "name": "Concepción",
    "state_id": 2890,
    "state_code": "ANT",
    "country_id": 48,
    "country_code": "CO",
    "latitude": "6.39408000",
    "longitude": "-75.25830000",
    "wikiDataId": null
  },
  {
    "id": 20727,
    "name": "Concordia",
    "state_id": 2890,
    "state_code": "ANT",
    "country_id": 48,
    "country_code": "CO",
    "latitude": "6.04639000",
    "longitude": "-75.90705000",
    "wikiDataId": null
  },
  {
    "id": 20735,
    "name": "Copacabana",
    "state_id": 2890,
    "state_code": "ANT",
    "country_id": 48,
    "country_code": "CO",
    "latitude": "6.36230000",
    "longitude": "-75.49922000",
    "wikiDataId": null
  },
  {
    "id": 20773,
    "name": "Dabeiba",
    "state_id": 2890,
    "state_code": "ANT",
    "country_id": 48,
    "country_code": "CO",
    "latitude": "7.03367000",
    "longitude": "-76.34161000",
    "wikiDataId": null
  },
  {
    "id": 20781,
    "name": "Donmatías",
    "state_id": 2890,
    "state_code": "ANT",
    "country_id": 48,
    "country_code": "CO",
    "latitude": "6.48569000",
    "longitude": "-75.39496000",
    "wikiDataId": null
  },
  {
    "id": 20785,
    "name": "Ebéjico",
    "state_id": 2890,
    "state_code": "ANT",
    "country_id": 48,
    "country_code": "CO",
    "latitude": "6.32598000",
    "longitude": "-75.76835000",
    "wikiDataId": null
  },
  {
    "id": 20786,
    "name": "El Bagre",
    "state_id": 2890,
    "state_code": "ANT",
    "country_id": 48,
    "country_code": "CO",
    "latitude": "7.60347000",
    "longitude": "-74.80951000",
    "wikiDataId": null
  },
  {
    "id": 20656,
    "name": "El Carmen de Viboral",
    "state_id": 2890,
    "state_code": "ANT",
    "country_id": 48,
    "country_code": "CO",
    "latitude": "6.08236000",
    "longitude": "-75.33509000",
    "wikiDataId": null
  },
  {
    "id": 21441,
    "name": "El Santuario",
    "state_id": 2890,
    "state_code": "ANT",
    "country_id": 48,
    "country_code": "CO",
    "latitude": "6.13833000",
    "longitude": "-75.26417000",
    "wikiDataId": null
  },
  {
    "id": 20838,
    "name": "Entrerrios",
    "state_id": 2890,
    "state_code": "ANT",
    "country_id": 48,
    "country_code": "CO",
    "latitude": "6.58333000",
    "longitude": "-75.58333000",
    "wikiDataId": null
  },
  {
    "id": 20840,
    "name": "Envigado",
    "state_id": 2890,
    "state_code": "ANT",
    "country_id": 48,
    "country_code": "CO",
    "latitude": "6.17591000",
    "longitude": "-75.59174000",
    "wikiDataId": null
  },
  {
    "id": 20859,
    "name": "Fredonia",
    "state_id": 2890,
    "state_code": "ANT",
    "country_id": 48,
    "country_code": "CO",
    "latitude": "5.89239000",
    "longitude": "-75.68546000",
    "wikiDataId": null
  },
  {
    "id": 20861,
    "name": "Frontino",
    "state_id": 2890,
    "state_code": "ANT",
    "country_id": 48,
    "country_code": "CO",
    "latitude": "6.77133000",
    "longitude": "-76.13324000",
    "wikiDataId": null
  },
  {
    "id": 20885,
    "name": "Giraldo",
    "state_id": 2890,
    "state_code": "ANT",
    "country_id": 48,
    "country_code": "CO",
    "latitude": "6.66667000",
    "longitude": "-75.95346000",
    "wikiDataId": null
  },
  {
    "id": 20888,
    "name": "Girardota",
    "state_id": 2890,
    "state_code": "ANT",
    "country_id": 48,
    "country_code": "CO",
    "latitude": "6.36789000",
    "longitude": "-75.46231000",
    "wikiDataId": null
  },
  {
    "id": 20931,
    "name": "Gómez Plata",
    "state_id": 2890,
    "state_code": "ANT",
    "country_id": 48,
    "country_code": "CO",
    "latitude": "6.68178000",
    "longitude": "-75.21907000",
    "wikiDataId": null
  },
  {
    "id": 20893,
    "name": "Granada",
    "state_id": 2890,
    "state_code": "ANT",
    "country_id": 48,
    "country_code": "CO",
    "latitude": "6.14353000",
    "longitude": "-75.18532000",
    "wikiDataId": null
  },
  {
    "id": 20901,
    "name": "Guadalupe",
    "state_id": 2890,
    "state_code": "ANT",
    "country_id": 48,
    "country_code": "CO",
    "latitude": "6.81449000",
    "longitude": "-75.24063000",
    "wikiDataId": null
  },
  {
    "id": 20913,
    "name": "Guarne",
    "state_id": 2890,
    "state_code": "ANT",
    "country_id": 48,
    "country_code": "CO",
    "latitude": "6.28345000",
    "longitude": "-75.44363000",
    "wikiDataId": null
  },
  {
    "id": 20915,
    "name": "Guatapé",
    "state_id": 2890,
    "state_code": "ANT",
    "country_id": 48,
    "country_code": "CO",
    "latitude": "6.25548000",
    "longitude": "-75.16432000",
    "wikiDataId": null
  },
  {
    "id": 20939,
    "name": "Heliconia",
    "state_id": 2890,
    "state_code": "ANT",
    "country_id": 48,
    "country_code": "CO",
    "latitude": "6.20831000",
    "longitude": "-75.73565000",
    "wikiDataId": null
  },
  {
    "id": 20942,
    "name": "Hispania",
    "state_id": 2890,
    "state_code": "ANT",
    "country_id": 48,
    "country_code": "CO",
    "latitude": "5.79925000",
    "longitude": "-75.90718000",
    "wikiDataId": null
  },
  {
    "id": 20953,
    "name": "Itagui",
    "state_id": 2890,
    "state_code": "ANT",
    "country_id": 48,
    "country_code": "CO",
    "latitude": "6.17874000",
    "longitude": "-75.63117000",
    "wikiDataId": null
  },
  {
    "id": 20955,
    "name": "Ituango",
    "state_id": 2890,
    "state_code": "ANT",
    "country_id": 48,
    "country_code": "CO",
    "latitude": "7.17117000",
    "longitude": "-75.76404000",
    "wikiDataId": null
  },
  {
    "id": 20959,
    "name": "Jardín",
    "state_id": 2890,
    "state_code": "ANT",
    "country_id": 48,
    "country_code": "CO",
    "latitude": "5.59038000",
    "longitude": "-75.81846000",
    "wikiDataId": null
  },
  {
    "id": 20961,
    "name": "Jericó",
    "state_id": 2890,
    "state_code": "ANT",
    "country_id": 48,
    "country_code": "CO",
    "latitude": "5.79211000",
    "longitude": "-75.78601000",
    "wikiDataId": null
  },
  {
    "id": 20974,
    "name": "La Ceja",
    "state_id": 2890,
    "state_code": "ANT",
    "country_id": 48,
    "country_code": "CO",
    "latitude": "6.00000000",
    "longitude": "-75.43311000",
    "wikiDataId": null
  },
  {
    "id": 20983,
    "name": "La Estrella",
    "state_id": 2890,
    "state_code": "ANT",
    "country_id": 48,
    "country_code": "CO",
    "latitude": "6.14239000",
    "longitude": "-75.65257000",
    "wikiDataId": null
  },
  {
    "id": 21000,
    "name": "La Pintada",
    "state_id": 2890,
    "state_code": "ANT",
    "country_id": 48,
    "country_code": "CO",
    "latitude": "5.74867000",
    "longitude": "-75.60626000",
    "wikiDataId": null
  },
  {
    "id": 21009,
    "name": "La Unión",
    "state_id": 2890,
    "state_code": "ANT",
    "country_id": 48,
    "country_code": "CO",
    "latitude": "5.94642000",
    "longitude": "-75.35917000",
    "wikiDataId": null
  },
  {
    "id": 21028,
    "name": "Liborina",
    "state_id": 2890,
    "state_code": "ANT",
    "country_id": 48,
    "country_code": "CO",
    "latitude": "6.67790000",
    "longitude": "-75.81218000",
    "wikiDataId": null
  },
  {
    "id": 21044,
    "name": "Maceo",
    "state_id": 2890,
    "state_code": "ANT",
    "country_id": 48,
    "country_code": "CO",
    "latitude": "6.55196000",
    "longitude": "-74.78741000",
    "wikiDataId": null
  },
  {
    "id": 21066,
    "name": "Marinilla",
    "state_id": 2890,
    "state_code": "ANT",
    "country_id": 48,
    "country_code": "CO",
    "latitude": "6.19609000",
    "longitude": "-75.30313000",
    "wikiDataId": null
  },
  {
    "id": 21074,
    "name": "Medellín",
    "state_id": 2890,
    "state_code": "ANT",
    "country_id": 48,
    "country_code": "CO",
    "latitude": "6.25184000",
    "longitude": "-75.56359000",
    "wikiDataId": null
  },
  {
    "id": 21097,
    "name": "Montebello",
    "state_id": 2890,
    "state_code": "ANT",
    "country_id": 48,
    "country_code": "CO",
    "latitude": "5.93703000",
    "longitude": "-75.52741000",
    "wikiDataId": null
  },
  {
    "id": 21120,
    "name": "Murindó",
    "state_id": 2890,
    "state_code": "ANT",
    "country_id": 48,
    "country_code": "CO",
    "latitude": "6.84698000",
    "longitude": "-76.71544000",
    "wikiDataId": null
  },
  {
    "id": 21121,
    "name": "Mutatá",
    "state_id": 2890,
    "state_code": "ANT",
    "country_id": 48,
    "country_code": "CO",
    "latitude": "7.24407000",
    "longitude": "-76.43564000",
    "wikiDataId": null
  },
  {
    "id": 21126,
    "name": "Nariño",
    "state_id": 2890,
    "state_code": "ANT",
    "country_id": 48,
    "country_code": "CO",
    "latitude": "5.60893000",
    "longitude": "-75.17656000",
    "wikiDataId": null
  },
  {
    "id": 21129,
    "name": "Nechí",
    "state_id": 2890,
    "state_code": "ANT",
    "country_id": 48,
    "country_code": "CO",
    "latitude": "8.09419000",
    "longitude": "-74.77573000",
    "wikiDataId": null
  },
  {
    "id": 21130,
    "name": "Necoclí",
    "state_id": 2890,
    "state_code": "ANT",
    "country_id": 48,
    "country_code": "CO",
    "latitude": "8.42627000",
    "longitude": "-76.78926000",
    "wikiDataId": null
  },
  {
    "id": 21149,
    "name": "Olaya",
    "state_id": 2890,
    "state_code": "ANT",
    "country_id": 48,
    "country_code": "CO",
    "latitude": "6.62773000",
    "longitude": "-75.81270000",
    "wikiDataId": null
  },
  {
    "id": 21197,
    "name": "Peñol",
    "state_id": 2890,
    "state_code": "ANT",
    "country_id": 48,
    "country_code": "CO",
    "latitude": "6.23434000",
    "longitude": "-75.22573000",
    "wikiDataId": null
  },
  {
    "id": 21194,
    "name": "Peque",
    "state_id": 2890,
    "state_code": "ANT",
    "country_id": 48,
    "country_code": "CO",
    "latitude": "7.02123000",
    "longitude": "-75.90926000",
    "wikiDataId": null
  },
  {
    "id": 21227,
    "name": "Pueblorrico",
    "state_id": 2890,
    "state_code": "ANT",
    "country_id": 48,
    "country_code": "CO",
    "latitude": "5.80000000",
    "longitude": "-75.85000000",
    "wikiDataId": null
  },
  {
    "id": 21234,
    "name": "Puerto Berrío",
    "state_id": 2890,
    "state_code": "ANT",
    "country_id": 48,
    "country_code": "CO",
    "latitude": "6.50749000",
    "longitude": "-74.52271000",
    "wikiDataId": null
  },
  {
    "id": 21248,
    "name": "Puerto Nare",
    "state_id": 2890,
    "state_code": "ANT",
    "country_id": 48,
    "country_code": "CO",
    "latitude": "6.19167000",
    "longitude": "-74.58670000",
    "wikiDataId": null
  },
  {
    "id": 21258,
    "name": "Puerto Triunfo",
    "state_id": 2890,
    "state_code": "ANT",
    "country_id": 48,
    "country_code": "CO",
    "latitude": "5.87259000",
    "longitude": "-74.64050000",
    "wikiDataId": null
  },
  {
    "id": 21281,
    "name": "Remedios",
    "state_id": 2890,
    "state_code": "ANT",
    "country_id": 48,
    "country_code": "CO",
    "latitude": "7.02835000",
    "longitude": "-74.69379000",
    "wikiDataId": null
  },
  {
    "id": 21286,
    "name": "Retiro",
    "state_id": 2890,
    "state_code": "ANT",
    "country_id": 48,
    "country_code": "CO",
    "latitude": "6.05906000",
    "longitude": "-75.51488000",
    "wikiDataId": null
  },
  {
    "id": 21293,
    "name": "Rionegro",
    "state_id": 2890,
    "state_code": "ANT",
    "country_id": 48,
    "country_code": "CO",
    "latitude": "6.16667000",
    "longitude": "-75.41667000",
    "wikiDataId": null
  },
  {
    "id": 21311,
    "name": "Sabanalarga",
    "state_id": 2890,
    "state_code": "ANT",
    "country_id": 48,
    "country_code": "CO",
    "latitude": "6.84893000",
    "longitude": "-75.81711000",
    "wikiDataId": null
  },
  {
    "id": 21314,
    "name": "Sabaneta",
    "state_id": 2890,
    "state_code": "ANT",
    "country_id": 48,
    "country_code": "CO",
    "latitude": "6.15153000",
    "longitude": "-75.61657000",
    "wikiDataId": null
  },
  {
    "id": 21323,
    "name": "Salgar",
    "state_id": 2890,
    "state_code": "ANT",
    "country_id": 48,
    "country_code": "CO",
    "latitude": "5.96711000",
    "longitude": "-75.98747000",
    "wikiDataId": null
  },
  {
    "id": 21330,
    "name": "San Andrés de Cuerquía",
    "state_id": 2890,
    "state_code": "ANT",
    "country_id": 48,
    "country_code": "CO",
    "latitude": "6.90333000",
    "longitude": "-75.68250000",
    "wikiDataId": null
  },
  {
    "id": 21345,
    "name": "San Carlos",
    "state_id": 2890,
    "state_code": "ANT",
    "country_id": 48,
    "country_code": "CO",
    "latitude": "7.79177000",
    "longitude": "-74.77316000",
    "wikiDataId": null
  },
  {
    "id": 21357,
    "name": "San Francisco",
    "state_id": 2890,
    "state_code": "ANT",
    "country_id": 48,
    "country_code": "CO",
    "latitude": "6.11667000",
    "longitude": "-75.98333000",
    "wikiDataId": null
  },
  {
    "id": 21362,
    "name": "San Jerónimo",
    "state_id": 2890,
    "state_code": "ANT",
    "country_id": 48,
    "country_code": "CO",
    "latitude": "6.44139000",
    "longitude": "-75.70783000",
    "wikiDataId": null
  },
  {
    "id": 21366,
    "name": "San José de la Montaña",
    "state_id": 2890,
    "state_code": "ANT",
    "country_id": 48,
    "country_code": "CO",
    "latitude": "6.82205000",
    "longitude": "-75.69757000",
    "wikiDataId": null
  },
  {
    "id": 21376,
    "name": "San Juan de Urabá",
    "state_id": 2890,
    "state_code": "ANT",
    "country_id": 48,
    "country_code": "CO",
    "latitude": "8.75924000",
    "longitude": "-76.52969000",
    "wikiDataId": null
  },
  {
    "id": 149253,
    "name": "San Luis",
    "state_id": 2890,
    "state_code": "ANT",
    "country_id": 48,
    "country_code": "CO",
    "latitude": "6.04222222",
    "longitude": "-74.99333333",
    "wikiDataId": null
  },
  {
    "id": 21117,
    "name": "San Pedro de los Milagros",
    "state_id": 2890,
    "state_code": "ANT",
    "country_id": 48,
    "country_code": "CO",
    "latitude": "6.45944444",
    "longitude": "-75.55777888",
    "wikiDataId": null
  },
  {
    "id": 21399,
    "name": "San Pedro de Uraba",
    "state_id": 2890,
    "state_code": "ANT",
    "country_id": 48,
    "country_code": "CO",
    "latitude": "8.42291000",
    "longitude": "-76.31747000",
    "wikiDataId": null
  },
  {
    "id": 21402,
    "name": "San Rafael",
    "state_id": 2890,
    "state_code": "ANT",
    "country_id": 48,
    "country_code": "CO",
    "latitude": "6.31234000",
    "longitude": "-75.02426000",
    "wikiDataId": null
  },
  {
    "id": 21403,
    "name": "San Roque",
    "state_id": 2890,
    "state_code": "ANT",
    "country_id": 48,
    "country_code": "CO",
    "latitude": "6.48511000",
    "longitude": "-75.01960000",
    "wikiDataId": null
  },
  {
    "id": 21407,
    "name": "San Vicente Ferrer",
    "state_id": 2890,
    "state_code": "ANT",
    "country_id": 48,
    "country_code": "CO",
    "latitude": "6.32237000",
    "longitude": "-75.33020000",
    "wikiDataId": null
  },
  {
    "id": 21414,
    "name": "Santa Bárbara",
    "state_id": 2890,
    "state_code": "ANT",
    "country_id": 48,
    "country_code": "CO",
    "latitude": "5.88937000",
    "longitude": "-75.58255000",
    "wikiDataId": null
  },
  {
    "id": 21417,
    "name": "Santa Fe de Antioquia",
    "state_id": 2890,
    "state_code": "ANT",
    "country_id": 48,
    "country_code": "CO",
    "latitude": "6.55687000",
    "longitude": "-75.82806000",
    "wikiDataId": null
  },
  {
    "id": 21425,
    "name": "Santa Rosa de Osos",
    "state_id": 2890,
    "state_code": "ANT",
    "country_id": 48,
    "country_code": "CO",
    "latitude": "6.64738000",
    "longitude": "-75.46031000",
    "wikiDataId": null
  },
  {
    "id": 21439,
    "name": "Santo Domingo",
    "state_id": 2890,
    "state_code": "ANT",
    "country_id": 48,
    "country_code": "CO",
    "latitude": "6.47282000",
    "longitude": "-75.16547000",
    "wikiDataId": null
  },
  {
    "id": 21449,
    "name": "Segovia",
    "state_id": 2890,
    "state_code": "ANT",
    "country_id": 48,
    "country_code": "CO",
    "latitude": "7.28132000",
    "longitude": "-74.64273000",
    "wikiDataId": null
  },
  {
    "id": 21474,
    "name": "Sonson",
    "state_id": 2890,
    "state_code": "ANT",
    "country_id": 48,
    "country_code": "CO",
    "latitude": "5.75000000",
    "longitude": "-75.00000000",
    "wikiDataId": null
  },
  {
    "id": 21476,
    "name": "Sopetrán",
    "state_id": 2890,
    "state_code": "ANT",
    "country_id": 48,
    "country_code": "CO",
    "latitude": "6.52271000",
    "longitude": "-75.74608000",
    "wikiDataId": null
  },
  {
    "id": 21562,
    "name": "Támesis",
    "state_id": 2890,
    "state_code": "ANT",
    "country_id": 48,
    "country_code": "CO",
    "latitude": "5.66462000",
    "longitude": "-75.71339000",
    "wikiDataId": null
  },
  {
    "id": 21513,
    "name": "Tarazá",
    "state_id": 2890,
    "state_code": "ANT",
    "country_id": 48,
    "country_code": "CO",
    "latitude": "7.58358000",
    "longitude": "-75.40068000",
    "wikiDataId": null
  },
  {
    "id": 21514,
    "name": "Tarso",
    "state_id": 2890,
    "state_code": "ANT",
    "country_id": 48,
    "country_code": "CO",
    "latitude": "5.86467000",
    "longitude": "-75.82192000",
    "wikiDataId": null
  },
  {
    "id": 21532,
    "name": "Titiribí",
    "state_id": 2890,
    "state_code": "ANT",
    "country_id": 48,
    "country_code": "CO",
    "latitude": "6.06276000",
    "longitude": "-75.79370000",
    "wikiDataId": null
  },
  {
    "id": 21537,
    "name": "Toledo",
    "state_id": 2890,
    "state_code": "ANT",
    "country_id": 48,
    "country_code": "CO",
    "latitude": "7.01306000",
    "longitude": "-75.69528000",
    "wikiDataId": null
  },
  {
    "id": 21557,
    "name": "Turbo",
    "state_id": 2890,
    "state_code": "ANT",
    "country_id": 48,
    "country_code": "CO",
    "latitude": "8.09263000",
    "longitude": "-76.72822000",
    "wikiDataId": null
  },
  {
    "id": 21572,
    "name": "Uramita",
    "state_id": 2890,
    "state_code": "ANT",
    "country_id": 48,
    "country_code": "CO",
    "latitude": "6.89944000",
    "longitude": "-76.17417000",
    "wikiDataId": null
  },
  {
    "id": 21574,
    "name": "Urrao",
    "state_id": 2890,
    "state_code": "ANT",
    "country_id": 48,
    "country_code": "CO",
    "latitude": "6.31696000",
    "longitude": "-76.13420000",
    "wikiDataId": null
  },
  {
    "id": 21577,
    "name": "Valdivia",
    "state_id": 2890,
    "state_code": "ANT",
    "country_id": 48,
    "country_code": "CO",
    "latitude": "7.29382000",
    "longitude": "-75.39190000",
    "wikiDataId": null
  },
  {
    "id": 21584,
    "name": "Valparaíso",
    "state_id": 2890,
    "state_code": "ANT",
    "country_id": 48,
    "country_code": "CO",
    "latitude": "5.61500000",
    "longitude": "-75.62422000",
    "wikiDataId": null
  },
  {
    "id": 21585,
    "name": "Vegachí",
    "state_id": 2890,
    "state_code": "ANT",
    "country_id": 48,
    "country_code": "CO",
    "latitude": "6.76141000",
    "longitude": "-74.79473000",
    "wikiDataId": null
  },
  {
    "id": 21588,
    "name": "Venecia",
    "state_id": 2890,
    "state_code": "ANT",
    "country_id": 48,
    "country_code": "CO",
    "latitude": "5.95417000",
    "longitude": "-75.79904000",
    "wikiDataId": null
  },
  {
    "id": 21595,
    "name": "Vigía del Fuerte",
    "state_id": 2890,
    "state_code": "ANT",
    "country_id": 48,
    "country_code": "CO",
    "latitude": "6.58933000",
    "longitude": "-76.89599000",
    "wikiDataId": null
  },
  {
    "id": 21621,
    "name": "Yalí",
    "state_id": 2890,
    "state_code": "ANT",
    "country_id": 48,
    "country_code": "CO",
    "latitude": "6.70257000",
    "longitude": "-74.79018000",
    "wikiDataId": null
  },
  {
    "id": 21622,
    "name": "Yarumal",
    "state_id": 2890,
    "state_code": "ANT",
    "country_id": 48,
    "country_code": "CO",
    "latitude": "6.98532000",
    "longitude": "-75.45402000",
    "wikiDataId": null
  },
  {
    "id": 21624,
    "name": "Yolombó",
    "state_id": 2890,
    "state_code": "ANT",
    "country_id": 48,
    "country_code": "CO",
    "latitude": "6.66569000",
    "longitude": "-74.99120000",
    "wikiDataId": null
  },
  {
    "id": 21625,
    "name": "Yondó",
    "state_id": 2890,
    "state_code": "ANT",
    "country_id": 48,
    "country_code": "CO",
    "latitude": "6.90738000",
    "longitude": "-74.17686000",
    "wikiDataId": null
  },
  {
    "id": 21632,
    "name": "Zaragoza",
    "state_id": 2890,
    "state_code": "ANT",
    "country_id": 48,
    "country_code": "CO",
    "latitude": "7.48971000",
    "longitude": "-74.86919000",
    "wikiDataId": null
  }
]