[
  {
    "id": 80573,
    "name": "Bambamarca",
    "state_id": 3688,
    "state_code": "CAJ",
    "country_id": 173,
    "country_code": "PE",
    "latitude": "-6.68333000",
    "longitude": "-78.53333000",
    "wikiDataId": null
  },
  {
    "id": 80575,
    "name": "Bellavista",
    "state_id": 3688,
    "state_code": "CAJ",
    "country_id": 173,
    "country_code": "PE",
    "latitude": "-5.66417000",
    "longitude": "-78.67722000",
    "wikiDataId": null
  },
  {
    "id": 80580,
    "name": "Cajabamba",
    "state_id": 3688,
    "state_code": "CAJ",
    "country_id": 173,
    "country_code": "PE",
    "latitude": "-7.61667000",
    "longitude": "-78.05000000",
    "wikiDataId": null
  },
  {
    "id": 80581,
    "name": "Cajamarca",
    "state_id": 3688,
    "state_code": "CAJ",
    "country_id": 173,
    "country_code": "PE",
    "latitude": "-7.16378000",
    "longitude": "-78.50027000",
    "wikiDataId": null
  },
  {
    "id": 80600,
    "name": "Celendín",
    "state_id": 3688,
    "state_code": "CAJ",
    "country_id": 173,
    "country_code": "PE",
    "latitude": "-6.86590000",
    "longitude": "-78.14585000",
    "wikiDataId": null
  },
  {
    "id": 80623,
    "name": "Chota",
    "state_id": 3688,
    "state_code": "CAJ",
    "country_id": 173,
    "country_code": "PE",
    "latitude": "-6.55000000",
    "longitude": "-78.65000000",
    "wikiDataId": null
  },
  {
    "id": 80678,
    "name": "Jaén",
    "state_id": 3688,
    "state_code": "CAJ",
    "country_id": 173,
    "country_code": "PE",
    "latitude": "-5.70729000",
    "longitude": "-78.80785000",
    "wikiDataId": null
  },
  {
    "id": 80785,
    "name": "Provincia de Cajabamba",
    "state_id": 3688,
    "state_code": "CAJ",
    "country_id": 173,
    "country_code": "PE",
    "latitude": "-7.50000000",
    "longitude": "-78.16667000",
    "wikiDataId": null
  },
  {
    "id": 80786,
    "name": "Provincia de Cajamarca",
    "state_id": 3688,
    "state_code": "CAJ",
    "country_id": 173,
    "country_code": "PE",
    "latitude": "-7.33333000",
    "longitude": "-78.41667000",
    "wikiDataId": null
  },
  {
    "id": 80802,
    "name": "Provincia de Celendín",
    "state_id": 3688,
    "state_code": "CAJ",
    "country_id": 173,
    "country_code": "PE",
    "latitude": "-6.83333000",
    "longitude": "-78.25000000",
    "wikiDataId": null
  },
  {
    "id": 80806,
    "name": "Provincia de Chota",
    "state_id": 3688,
    "state_code": "CAJ",
    "country_id": 173,
    "country_code": "PE",
    "latitude": "-6.38332000",
    "longitude": "-79.18055000",
    "wikiDataId": null
  },
  {
    "id": 80814,
    "name": "Provincia de Contumazá",
    "state_id": 3688,
    "state_code": "CAJ",
    "country_id": 173,
    "country_code": "PE",
    "latitude": "-7.33333000",
    "longitude": "-78.91667000",
    "wikiDataId": null
  },
  {
    "id": 80819,
    "name": "Provincia de Cutervo",
    "state_id": 3688,
    "state_code": "CAJ",
    "country_id": 173,
    "country_code": "PE",
    "latitude": "-6.36667000",
    "longitude": "-78.85000000",
    "wikiDataId": null
  },
  {
    "id": 80826,
    "name": "Provincia de Hualgayoc",
    "state_id": 3688,
    "state_code": "CAJ",
    "country_id": 173,
    "country_code": "PE",
    "latitude": "-6.68000000",
    "longitude": "-78.53000000",
    "wikiDataId": null
  },
  {
    "id": 80847,
    "name": "Provincia de Jaén",
    "state_id": 3688,
    "state_code": "CAJ",
    "country_id": 173,
    "country_code": "PE",
    "latitude": "-5.71074000",
    "longitude": "-79.00438000",
    "wikiDataId": null
  },
  {
    "id": 80886,
    "name": "Provincia de San Ignacio",
    "state_id": 3688,
    "state_code": "CAJ",
    "country_id": 173,
    "country_code": "PE",
    "latitude": "-5.08333000",
    "longitude": "-79.00000000",
    "wikiDataId": null
  },
  {
    "id": 80888,
    "name": "Provincia de San Miguel",
    "state_id": 3688,
    "state_code": "CAJ",
    "country_id": 173,
    "country_code": "PE",
    "latitude": "-7.00000000",
    "longitude": "-79.00000000",
    "wikiDataId": null
  },
  {
    "id": 80891,
    "name": "Provincia de Santa Cruz",
    "state_id": 3688,
    "state_code": "CAJ",
    "country_id": 173,
    "country_code": "PE",
    "latitude": "-6.83333000",
    "longitude": "-79.00000000",
    "wikiDataId": null
  },
  {
    "id": 80944,
    "name": "San Ignacio",
    "state_id": 3688,
    "state_code": "CAJ",
    "country_id": 173,
    "country_code": "PE",
    "latitude": "-5.14583000",
    "longitude": "-79.00139000",
    "wikiDataId": null
  }
]