[
  {
    "id": 89880,
    "name": "Adea",
    "state_id": 4739,
    "state_code": "AR",
    "country_id": 181,
    "country_code": "RO",
    "latitude": "46.55511000",
    "longitude": "21.58433000",
    "wikiDataId": null
  },
  {
    "id": 89902,
    "name": "Agrișu Mare",
    "state_id": 4739,
    "state_code": "AR",
    "country_id": 181,
    "country_code": "RO",
    "latitude": "46.27243000",
    "longitude": "21.75558000",
    "wikiDataId": null
  },
  {
    "id": 89935,
    "name": "Almaş",
    "state_id": 4739,
    "state_code": "AR",
    "country_id": 181,
    "country_code": "RO",
    "latitude": "46.28333000",
    "longitude": "22.23333000",
    "wikiDataId": null
  },
  {
    "id": 89955,
    "name": "Andrei Șaguna",
    "state_id": 4739,
    "state_code": "AR",
    "country_id": 181,
    "country_code": "RO",
    "latitude": "46.28810000",
    "longitude": "21.39175000",
    "wikiDataId": null
  },
  {
    "id": 89970,
    "name": "Apateu",
    "state_id": 4739,
    "state_code": "AR",
    "country_id": 181,
    "country_code": "RO",
    "latitude": "46.61667000",
    "longitude": "21.78333000",
    "wikiDataId": null
  },
  {
    "id": 89977,
    "name": "Arad",
    "state_id": 4739,
    "state_code": "AR",
    "country_id": 181,
    "country_code": "RO",
    "latitude": "46.18333000",
    "longitude": "21.31667000",
    "wikiDataId": null
  },
  {
    "id": 89980,
    "name": "Archiş",
    "state_id": 4739,
    "state_code": "AR",
    "country_id": 181,
    "country_code": "RO",
    "latitude": "46.48333000",
    "longitude": "22.05000000",
    "wikiDataId": null
  },
  {
    "id": 90454,
    "name": "Bârsa",
    "state_id": 4739,
    "state_code": "AR",
    "country_id": 181,
    "country_code": "RO",
    "latitude": "46.38333000",
    "longitude": "22.06667000",
    "wikiDataId": null
  },
  {
    "id": 90460,
    "name": "Bârzava",
    "state_id": 4739,
    "state_code": "AR",
    "country_id": 181,
    "country_code": "RO",
    "latitude": "46.11667000",
    "longitude": "21.98333000",
    "wikiDataId": null
  },
  {
    "id": 90069,
    "name": "Bata",
    "state_id": 4739,
    "state_code": "AR",
    "country_id": 181,
    "country_code": "RO",
    "latitude": "46.01667000",
    "longitude": "22.03333000",
    "wikiDataId": null
  },
  {
    "id": 90090,
    "name": "Beliu",
    "state_id": 4739,
    "state_code": "AR",
    "country_id": 181,
    "country_code": "RO",
    "latitude": "46.48333000",
    "longitude": "21.98333000",
    "wikiDataId": null
  },
  {
    "id": 90139,
    "name": "Birchiş",
    "state_id": 4739,
    "state_code": "AR",
    "country_id": 181,
    "country_code": "RO",
    "latitude": "45.96667000",
    "longitude": "22.16667000",
    "wikiDataId": null
  },
  {
    "id": 90176,
    "name": "Bocsig",
    "state_id": 4739,
    "state_code": "AR",
    "country_id": 181,
    "country_code": "RO",
    "latitude": "46.41667000",
    "longitude": "21.95000000",
    "wikiDataId": null
  },
  {
    "id": 90279,
    "name": "Brazii",
    "state_id": 4739,
    "state_code": "AR",
    "country_id": 181,
    "country_code": "RO",
    "latitude": "46.23333000",
    "longitude": "22.33333000",
    "wikiDataId": null
  },
  {
    "id": 90426,
    "name": "Buteni",
    "state_id": 4739,
    "state_code": "AR",
    "country_id": 181,
    "country_code": "RO",
    "latitude": "46.31667000",
    "longitude": "22.11667000",
    "wikiDataId": null
  },
  {
    "id": 90568,
    "name": "Caporal Alexa",
    "state_id": 4739,
    "state_code": "AR",
    "country_id": 181,
    "country_code": "RO",
    "latitude": "46.33793000",
    "longitude": "21.58316000",
    "wikiDataId": null
  },
  {
    "id": 93866,
    "name": "Cărand",
    "state_id": 4739,
    "state_code": "AR",
    "country_id": 181,
    "country_code": "RO",
    "latitude": "46.45000000",
    "longitude": "22.08333000",
    "wikiDataId": null
  },
  {
    "id": 90627,
    "name": "Cermei",
    "state_id": 4739,
    "state_code": "AR",
    "country_id": 181,
    "country_code": "RO",
    "latitude": "46.55000000",
    "longitude": "21.85000000",
    "wikiDataId": null
  },
  {
    "id": 90657,
    "name": "Chereluș",
    "state_id": 4739,
    "state_code": "AR",
    "country_id": 181,
    "country_code": "RO",
    "latitude": "46.46860000",
    "longitude": "21.70706000",
    "wikiDataId": null
  },
  {
    "id": 90658,
    "name": "Chesinț",
    "state_id": 4739,
    "state_code": "AR",
    "country_id": 181,
    "country_code": "RO",
    "latitude": "46.04973000",
    "longitude": "21.57944000",
    "wikiDataId": null
  },
  {
    "id": 90664,
    "name": "Chier",
    "state_id": 4739,
    "state_code": "AR",
    "country_id": 181,
    "country_code": "RO",
    "latitude": "46.34199000",
    "longitude": "21.82488000",
    "wikiDataId": null
  },
  {
    "id": 90683,
    "name": "Chisindia",
    "state_id": 4739,
    "state_code": "AR",
    "country_id": 181,
    "country_code": "RO",
    "latitude": "46.28333000",
    "longitude": "22.10000000",
    "wikiDataId": null
  },
  {
    "id": 90687,
    "name": "Chişineu-Criş",
    "state_id": 4739,
    "state_code": "AR",
    "country_id": 181,
    "country_code": "RO",
    "latitude": "46.52509000",
    "longitude": "21.51844000",
    "wikiDataId": null
  },
  {
    "id": 90704,
    "name": "Cintei",
    "state_id": 4739,
    "state_code": "AR",
    "country_id": 181,
    "country_code": "RO",
    "latitude": "46.44434000",
    "longitude": "21.56556000",
    "wikiDataId": null
  },
  {
    "id": 90855,
    "name": "Comuna Almaş",
    "state_id": 4739,
    "state_code": "AR",
    "country_id": 181,
    "country_code": "RO",
    "latitude": "46.28480000",
    "longitude": "22.23173000",
    "wikiDataId": null
  },
  {
    "id": 90877,
    "name": "Comuna Apateu",
    "state_id": 4739,
    "state_code": "AR",
    "country_id": 181,
    "country_code": "RO",
    "latitude": "46.62598000",
    "longitude": "21.82530000",
    "wikiDataId": null
  },
  {
    "id": 90884,
    "name": "Comuna Archiş",
    "state_id": 4739,
    "state_code": "AR",
    "country_id": 181,
    "country_code": "RO",
    "latitude": "46.48333000",
    "longitude": "22.09663000",
    "wikiDataId": null
  },
  {
    "id": 91191,
    "name": "Comuna Bârsa",
    "state_id": 4739,
    "state_code": "AR",
    "country_id": 181,
    "country_code": "RO",
    "latitude": "46.38410000",
    "longitude": "22.04459000",
    "wikiDataId": null
  },
  {
    "id": 91197,
    "name": "Comuna Bârzava",
    "state_id": 4739,
    "state_code": "AR",
    "country_id": 181,
    "country_code": "RO",
    "latitude": "46.09910000",
    "longitude": "22.06096000",
    "wikiDataId": null
  },
  {
    "id": 90939,
    "name": "Comuna Bata",
    "state_id": 4739,
    "state_code": "AR",
    "country_id": 181,
    "country_code": "RO",
    "latitude": "45.99641000",
    "longitude": "22.07805000",
    "wikiDataId": null
  },
  {
    "id": 90954,
    "name": "Comuna Beliu",
    "state_id": 4739,
    "state_code": "AR",
    "country_id": 181,
    "country_code": "RO",
    "latitude": "46.52965000",
    "longitude": "21.99566000",
    "wikiDataId": null
  },
  {
    "id": 90992,
    "name": "Comuna Birchiş",
    "state_id": 4739,
    "state_code": "AR",
    "country_id": 181,
    "country_code": "RO",
    "latitude": "45.96987000",
    "longitude": "22.16845000",
    "wikiDataId": null
  },
  {
    "id": 91015,
    "name": "Comuna Bocsig",
    "state_id": 4739,
    "state_code": "AR",
    "country_id": 181,
    "country_code": "RO",
    "latitude": "46.41893000",
    "longitude": "21.98424000",
    "wikiDataId": null
  },
  {
    "id": 91087,
    "name": "Comuna Brazii",
    "state_id": 4739,
    "state_code": "AR",
    "country_id": 181,
    "country_code": "RO",
    "latitude": "46.22177000",
    "longitude": "22.32613000",
    "wikiDataId": null
  },
  {
    "id": 91174,
    "name": "Comuna Buteni",
    "state_id": 4739,
    "state_code": "AR",
    "country_id": 181,
    "country_code": "RO",
    "latitude": "46.33119000",
    "longitude": "22.11472000",
    "wikiDataId": null
  },
  {
    "id": 91586,
    "name": "Comuna Cărand",
    "state_id": 4739,
    "state_code": "AR",
    "country_id": 181,
    "country_code": "RO",
    "latitude": "46.45551000",
    "longitude": "22.05755000",
    "wikiDataId": null
  },
  {
    "id": 91290,
    "name": "Comuna Cermei",
    "state_id": 4739,
    "state_code": "AR",
    "country_id": 181,
    "country_code": "RO",
    "latitude": "46.55433000",
    "longitude": "21.87084000",
    "wikiDataId": null
  },
  {
    "id": 91326,
    "name": "Comuna Chisindia",
    "state_id": 4739,
    "state_code": "AR",
    "country_id": 181,
    "country_code": "RO",
    "latitude": "46.26509000",
    "longitude": "22.08572000",
    "wikiDataId": null
  },
  {
    "id": 91412,
    "name": "Comuna Conop",
    "state_id": 4739,
    "state_code": "AR",
    "country_id": 181,
    "country_code": "RO",
    "latitude": "46.10401000",
    "longitude": "21.88047000",
    "wikiDataId": null
  },
  {
    "id": 91467,
    "name": "Comuna Covăsinţ",
    "state_id": 4739,
    "state_code": "AR",
    "country_id": 181,
    "country_code": "RO",
    "latitude": "46.20571000",
    "longitude": "21.60944000",
    "wikiDataId": null
  },
  {
    "id": 91485,
    "name": "Comuna Craiva",
    "state_id": 4739,
    "state_code": "AR",
    "country_id": 181,
    "country_code": "RO",
    "latitude": "46.59969000",
    "longitude": "21.97908000",
    "wikiDataId": null
  },
  {
    "id": 91621,
    "name": "Comuna Dezna",
    "state_id": 4739,
    "state_code": "AR",
    "country_id": 181,
    "country_code": "RO",
    "latitude": "46.40997000",
    "longitude": "22.22726000",
    "wikiDataId": null
  },
  {
    "id": 91625,
    "name": "Comuna Dieci",
    "state_id": 4739,
    "state_code": "AR",
    "country_id": 181,
    "country_code": "RO",
    "latitude": "46.32071000",
    "longitude": "22.22373000",
    "wikiDataId": null
  },
  {
    "id": 91810,
    "name": "Comuna Fântânele",
    "state_id": 4739,
    "state_code": "AR",
    "country_id": 181,
    "country_code": "RO",
    "latitude": "46.12441000",
    "longitude": "21.38111000",
    "wikiDataId": null
  },
  {
    "id": 91758,
    "name": "Comuna Felnac",
    "state_id": 4739,
    "state_code": "AR",
    "country_id": 181,
    "country_code": "RO",
    "latitude": "46.12223000",
    "longitude": "21.16704000",
    "wikiDataId": null
  },
  {
    "id": 91787,
    "name": "Comuna Frumuşeni",
    "state_id": 4739,
    "state_code": "AR",
    "country_id": 181,
    "country_code": "RO",
    "latitude": "46.10180000",
    "longitude": "21.45836000",
    "wikiDataId": null
  },
  {
    "id": 91861,
    "name": "Comuna Ghioroc",
    "state_id": 4739,
    "state_code": "AR",
    "country_id": 181,
    "country_code": "RO",
    "latitude": "46.15322000",
    "longitude": "21.59651000",
    "wikiDataId": null
  },
  {
    "id": 91943,
    "name": "Comuna Grăniceri",
    "state_id": 4739,
    "state_code": "AR",
    "country_id": 181,
    "country_code": "RO",
    "latitude": "46.50539000",
    "longitude": "21.33672000",
    "wikiDataId": null
  },
  {
    "id": 91957,
    "name": "Comuna Gurahonţ",
    "state_id": 4739,
    "state_code": "AR",
    "country_id": 181,
    "country_code": "RO",
    "latitude": "46.29220000",
    "longitude": "22.33506000",
    "wikiDataId": null
  },
  {
    "id": 92039,
    "name": "Comuna Hălmăgel",
    "state_id": 4739,
    "state_code": "AR",
    "country_id": 181,
    "country_code": "RO",
    "latitude": "46.27662000",
    "longitude": "22.63180000",
    "wikiDataId": null
  },
  {
    "id": 92038,
    "name": "Comuna Hălmagiu",
    "state_id": 4739,
    "state_code": "AR",
    "country_id": 181,
    "country_code": "RO",
    "latitude": "46.27536000",
    "longitude": "22.58183000",
    "wikiDataId": null
  },
  {
    "id": 92046,
    "name": "Comuna Hăşmaş",
    "state_id": 4739,
    "state_code": "AR",
    "country_id": 181,
    "country_code": "RO",
    "latitude": "46.52217000",
    "longitude": "22.07003000",
    "wikiDataId": null
  },
  {
    "id": 92067,
    "name": "Comuna Igneşti",
    "state_id": 4739,
    "state_code": "AR",
    "country_id": 181,
    "country_code": "RO",
    "latitude": "46.43388000",
    "longitude": "22.18227000",
    "wikiDataId": null
  },
  {
    "id": 92092,
    "name": "Comuna Iratoşu",
    "state_id": 4739,
    "state_code": "AR",
    "country_id": 181,
    "country_code": "RO",
    "latitude": "46.29414000",
    "longitude": "21.18750000",
    "wikiDataId": null
  },
  {
    "id": 92173,
    "name": "Comuna Livada",
    "state_id": 4739,
    "state_code": "AR",
    "country_id": 181,
    "country_code": "RO",
    "latitude": "46.21924000",
    "longitude": "21.38746000",
    "wikiDataId": null
  },
  {
    "id": 92227,
    "name": "Comuna Macea",
    "state_id": 4739,
    "state_code": "AR",
    "country_id": 181,
    "country_code": "RO",
    "latitude": "46.40094000",
    "longitude": "21.33187000",
    "wikiDataId": null
  },
  {
    "id": 92310,
    "name": "Comuna Mişca",
    "state_id": 4739,
    "state_code": "AR",
    "country_id": 181,
    "country_code": "RO",
    "latitude": "46.62016000",
    "longitude": "21.65353000",
    "wikiDataId": null
  },
  {
    "id": 92329,
    "name": "Comuna Moneasa",
    "state_id": 4739,
    "state_code": "AR",
    "country_id": 181,
    "country_code": "RO",
    "latitude": "46.44443000",
    "longitude": "22.25323000",
    "wikiDataId": null
  },
  {
    "id": 92493,
    "name": "Comuna Olari",
    "state_id": 4739,
    "state_code": "AR",
    "country_id": 181,
    "country_code": "RO",
    "latitude": "46.38673000",
    "longitude": "21.54522000",
    "wikiDataId": null
  },
  {
    "id": 92728,
    "name": "Comuna Păuliş",
    "state_id": 4739,
    "state_code": "AR",
    "country_id": 181,
    "country_code": "RO",
    "latitude": "46.12506000",
    "longitude": "21.60246000",
    "wikiDataId": null
  },
  {
    "id": 92546,
    "name": "Comuna Peregu Mare",
    "state_id": 4739,
    "state_code": "AR",
    "country_id": 181,
    "country_code": "RO",
    "latitude": "46.23377000",
    "longitude": "20.90612000",
    "wikiDataId": null
  },
  {
    "id": 92566,
    "name": "Comuna Petriş",
    "state_id": 4739,
    "state_code": "AR",
    "country_id": 181,
    "country_code": "RO",
    "latitude": "46.06770000",
    "longitude": "22.39523000",
    "wikiDataId": null
  },
  {
    "id": 92584,
    "name": "Comuna Pilu",
    "state_id": 4739,
    "state_code": "AR",
    "country_id": 181,
    "country_code": "RO",
    "latitude": "46.59727000",
    "longitude": "21.34711000",
    "wikiDataId": null
  },
  {
    "id": 92593,
    "name": "Comuna Pleşcuţa",
    "state_id": 4739,
    "state_code": "AR",
    "country_id": 181,
    "country_code": "RO",
    "latitude": "46.28315000",
    "longitude": "22.43178000",
    "wikiDataId": null
  },
  {
    "id": 93496,
    "name": "Comuna Şagu",
    "state_id": 4739,
    "state_code": "AR",
    "country_id": 181,
    "country_code": "RO",
    "latitude": "46.04254000",
    "longitude": "21.34239000",
    "wikiDataId": null
  },
  {
    "id": 93118,
    "name": "Comuna Săvârşin",
    "state_id": 4739,
    "state_code": "AR",
    "country_id": 181,
    "country_code": "RO",
    "latitude": "46.02527000",
    "longitude": "22.26514000",
    "wikiDataId": null
  },
  {
    "id": 92916,
    "name": "Comuna Secusigiu",
    "state_id": 4739,
    "state_code": "AR",
    "country_id": 181,
    "country_code": "RO",
    "latitude": "46.09260000",
    "longitude": "21.00295000",
    "wikiDataId": null
  },
  {
    "id": 93503,
    "name": "Comuna Şeitin",
    "state_id": 4739,
    "state_code": "AR",
    "country_id": 181,
    "country_code": "RO",
    "latitude": "46.10858000",
    "longitude": "20.84464000",
    "wikiDataId": null
  },
  {
    "id": 92920,
    "name": "Comuna Seleuş",
    "state_id": 4739,
    "state_code": "AR",
    "country_id": 181,
    "country_code": "RO",
    "latitude": "46.37886000",
    "longitude": "21.74875000",
    "wikiDataId": null
  },
  {
    "id": 92921,
    "name": "Comuna Semlac",
    "state_id": 4739,
    "state_code": "AR",
    "country_id": 181,
    "country_code": "RO",
    "latitude": "46.11260000",
    "longitude": "20.93210000",
    "wikiDataId": null
  },
  {
    "id": 93513,
    "name": "Comuna Şicula",
    "state_id": 4739,
    "state_code": "AR",
    "country_id": 181,
    "country_code": "RO",
    "latitude": "46.45723000",
    "longitude": "21.75137000",
    "wikiDataId": null
  },
  {
    "id": 93519,
    "name": "Comuna Şilindia",
    "state_id": 4739,
    "state_code": "AR",
    "country_id": 181,
    "country_code": "RO",
    "latitude": "46.33611000",
    "longitude": "21.93488000",
    "wikiDataId": null
  },
  {
    "id": 93520,
    "name": "Comuna Şimand",
    "state_id": 4739,
    "state_code": "AR",
    "country_id": 181,
    "country_code": "RO",
    "latitude": "46.42400000",
    "longitude": "21.45145000",
    "wikiDataId": null
  },
  {
    "id": 92941,
    "name": "Comuna Sintea Mare",
    "state_id": 4739,
    "state_code": "AR",
    "country_id": 181,
    "country_code": "RO",
    "latitude": "46.51684000",
    "longitude": "21.60800000",
    "wikiDataId": null
  },
  {
    "id": 93529,
    "name": "Comuna Şiria",
    "state_id": 4739,
    "state_code": "AR",
    "country_id": 181,
    "country_code": "RO",
    "latitude": "46.28470000",
    "longitude": "21.65419000",
    "wikiDataId": null
  },
  {
    "id": 93533,
    "name": "Comuna Şiştarovăţ",
    "state_id": 4739,
    "state_code": "AR",
    "country_id": 181,
    "country_code": "RO",
    "latitude": "45.98649000",
    "longitude": "21.75589000",
    "wikiDataId": null
  },
  {
    "id": 92968,
    "name": "Comuna Socodor",
    "state_id": 4739,
    "state_code": "AR",
    "country_id": 181,
    "country_code": "RO",
    "latitude": "46.51010000",
    "longitude": "21.44128000",
    "wikiDataId": null
  },
  {
    "id": 93535,
    "name": "Comuna Şofronea",
    "state_id": 4739,
    "state_code": "AR",
    "country_id": 181,
    "country_code": "RO",
    "latitude": "46.26814000",
    "longitude": "21.29059000",
    "wikiDataId": null
  },
  {
    "id": 93230,
    "name": "Comuna Târnova",
    "state_id": 4739,
    "state_code": "AR",
    "country_id": 181,
    "country_code": "RO",
    "latitude": "46.29054000",
    "longitude": "21.80388000",
    "wikiDataId": null
  },
  {
    "id": 93128,
    "name": "Comuna Tauţ",
    "state_id": 4739,
    "state_code": "AR",
    "country_id": 181,
    "country_code": "RO",
    "latitude": "46.26383000",
    "longitude": "21.96747000",
    "wikiDataId": null
  },
  {
    "id": 93288,
    "name": "Comuna Ususău",
    "state_id": 4739,
    "state_code": "AR",
    "country_id": 181,
    "country_code": "RO",
    "latitude": "46.06781000",
    "longitude": "21.81490000",
    "wikiDataId": null
  },
  {
    "id": 93465,
    "name": "Comuna Vărădia de Mureş",
    "state_id": 4739,
    "state_code": "AR",
    "country_id": 181,
    "country_code": "RO",
    "latitude": "46.04619000",
    "longitude": "22.15651000",
    "wikiDataId": null
  },
  {
    "id": 93441,
    "name": "Comuna Vârfurile",
    "state_id": 4739,
    "state_code": "AR",
    "country_id": 181,
    "country_code": "RO",
    "latitude": "46.33689000",
    "longitude": "22.51984000",
    "wikiDataId": null
  },
  {
    "id": 93365,
    "name": "Comuna Vinga",
    "state_id": 4739,
    "state_code": "AR",
    "country_id": 181,
    "country_code": "RO",
    "latitude": "46.02249000",
    "longitude": "21.15244000",
    "wikiDataId": null
  },
  {
    "id": 93383,
    "name": "Comuna Vladimirescu",
    "state_id": 4739,
    "state_code": "AR",
    "country_id": 181,
    "country_code": "RO",
    "latitude": "46.16509000",
    "longitude": "21.40411000",
    "wikiDataId": null
  },
  {
    "id": 93484,
    "name": "Comuna Zăbrani",
    "state_id": 4739,
    "state_code": "AR",
    "country_id": 181,
    "country_code": "RO",
    "latitude": "46.06310000",
    "longitude": "21.58529000",
    "wikiDataId": null
  },
  {
    "id": 93485,
    "name": "Comuna Zădăreni",
    "state_id": 4739,
    "state_code": "AR",
    "country_id": 181,
    "country_code": "RO",
    "latitude": "46.13077000",
    "longitude": "21.20866000",
    "wikiDataId": null
  },
  {
    "id": 93488,
    "name": "Comuna Zărand",
    "state_id": 4739,
    "state_code": "AR",
    "country_id": 181,
    "country_code": "RO",
    "latitude": "46.43911000",
    "longitude": "21.56909000",
    "wikiDataId": null
  },
  {
    "id": 93474,
    "name": "Comuna Zerind",
    "state_id": 4739,
    "state_code": "AR",
    "country_id": 181,
    "country_code": "RO",
    "latitude": "46.63087000",
    "longitude": "21.50777000",
    "wikiDataId": null
  },
  {
    "id": 93477,
    "name": "Comuna Zimandu Nou",
    "state_id": 4739,
    "state_code": "AR",
    "country_id": 181,
    "country_code": "RO",
    "latitude": "46.27496000",
    "longitude": "21.39162000",
    "wikiDataId": null
  },
  {
    "id": 93592,
    "name": "Conop",
    "state_id": 4739,
    "state_code": "AR",
    "country_id": 181,
    "country_code": "RO",
    "latitude": "46.10186000",
    "longitude": "21.87970000",
    "wikiDataId": null
  },
  {
    "id": 93682,
    "name": "Covăsinţ",
    "state_id": 4739,
    "state_code": "AR",
    "country_id": 181,
    "country_code": "RO",
    "latitude": "46.20000000",
    "longitude": "21.60000000",
    "wikiDataId": null
  },
  {
    "id": 93705,
    "name": "Craiva",
    "state_id": 4739,
    "state_code": "AR",
    "country_id": 181,
    "country_code": "RO",
    "latitude": "46.58333000",
    "longitude": "21.96667000",
    "wikiDataId": null
  },
  {
    "id": 93776,
    "name": "Curtici",
    "state_id": 4739,
    "state_code": "AR",
    "country_id": 181,
    "country_code": "RO",
    "latitude": "46.35000000",
    "longitude": "21.30000000",
    "wikiDataId": null
  },
  {
    "id": 93782,
    "name": "Cuvin",
    "state_id": 4739,
    "state_code": "AR",
    "country_id": 181,
    "country_code": "RO",
    "latitude": "46.17001000",
    "longitude": "21.59360000",
    "wikiDataId": null
  },
  {
    "id": 93932,
    "name": "Dezna",
    "state_id": 4739,
    "state_code": "AR",
    "country_id": 181,
    "country_code": "RO",
    "latitude": "46.40000000",
    "longitude": "22.25000000",
    "wikiDataId": null
  },
  {
    "id": 93936,
    "name": "Dieci",
    "state_id": 4739,
    "state_code": "AR",
    "country_id": 181,
    "country_code": "RO",
    "latitude": "46.31667000",
    "longitude": "22.25000000",
    "wikiDataId": null
  },
  {
    "id": 93996,
    "name": "Dorgoş",
    "state_id": 4739,
    "state_code": "AR",
    "country_id": 181,
    "country_code": "RO",
    "latitude": "46.05000000",
    "longitude": "21.83333000",
    "wikiDataId": null
  },
  {
    "id": 94003,
    "name": "Dorobanți",
    "state_id": 4739,
    "state_code": "AR",
    "country_id": 181,
    "country_code": "RO",
    "latitude": "46.34996460",
    "longitude": "21.24266110",
    "wikiDataId": null
  },
  {
    "id": 94029,
    "name": "Drauț",
    "state_id": 4739,
    "state_code": "AR",
    "country_id": 181,
    "country_code": "RO",
    "latitude": "46.26048000",
    "longitude": "21.80924000",
    "wikiDataId": null
  },
  {
    "id": 94238,
    "name": "Fântânele",
    "state_id": 4739,
    "state_code": "AR",
    "country_id": 181,
    "country_code": "RO",
    "latitude": "46.12370000",
    "longitude": "21.38420000",
    "wikiDataId": null
  },
  {
    "id": 94156,
    "name": "Felnac",
    "state_id": 4739,
    "state_code": "AR",
    "country_id": 181,
    "country_code": "RO",
    "latitude": "46.11667000",
    "longitude": "21.15000000",
    "wikiDataId": null
  },
  {
    "id": 94214,
    "name": "Frumușeni",
    "state_id": 4739,
    "state_code": "AR",
    "country_id": 181,
    "country_code": "RO",
    "latitude": "46.10252000",
    "longitude": "21.46167000",
    "wikiDataId": null
  },
  {
    "id": 94281,
    "name": "Galșa",
    "state_id": 4739,
    "state_code": "AR",
    "country_id": 181,
    "country_code": "RO",
    "latitude": "46.28810000",
    "longitude": "21.65137000",
    "wikiDataId": null
  },
  {
    "id": 94333,
    "name": "Ghioroc",
    "state_id": 4739,
    "state_code": "AR",
    "country_id": 181,
    "country_code": "RO",
    "latitude": "46.15000000",
    "longitude": "21.58333000",
    "wikiDataId": null
  },
  {
    "id": 94444,
    "name": "Grăniceri",
    "state_id": 4739,
    "state_code": "AR",
    "country_id": 181,
    "country_code": "RO",
    "latitude": "46.51667000",
    "longitude": "21.30000000",
    "wikiDataId": null
  },
  {
    "id": 94468,
    "name": "Gurahonţ",
    "state_id": 4739,
    "state_code": "AR",
    "country_id": 181,
    "country_code": "RO",
    "latitude": "46.26667000",
    "longitude": "22.35000000",
    "wikiDataId": null
  },
  {
    "id": 94470,
    "name": "Gurba",
    "state_id": 4739,
    "state_code": "AR",
    "country_id": 181,
    "country_code": "RO",
    "latitude": "46.46756000",
    "longitude": "21.78789000",
    "wikiDataId": null
  },
  {
    "id": 94600,
    "name": "Hălmăgel",
    "state_id": 4739,
    "state_code": "AR",
    "country_id": 181,
    "country_code": "RO",
    "latitude": "46.26667000",
    "longitude": "22.61667000",
    "wikiDataId": null
  },
  {
    "id": 94599,
    "name": "Hălmagiu",
    "state_id": 4739,
    "state_code": "AR",
    "country_id": 181,
    "country_code": "RO",
    "latitude": "46.26667000",
    "longitude": "22.58333000",
    "wikiDataId": null
  },
  {
    "id": 94610,
    "name": "Hășmaș",
    "state_id": 4739,
    "state_code": "AR",
    "country_id": 181,
    "country_code": "RO",
    "latitude": "46.50000000",
    "longitude": "22.08333000",
    "wikiDataId": null
  },
  {
    "id": 94561,
    "name": "Horia",
    "state_id": 4739,
    "state_code": "AR",
    "country_id": 181,
    "country_code": "RO",
    "latitude": "46.20847000",
    "longitude": "21.46287000",
    "wikiDataId": null
  },
  {
    "id": 94650,
    "name": "Igneşti",
    "state_id": 4739,
    "state_code": "AR",
    "country_id": 181,
    "country_code": "RO",
    "latitude": "46.40000000",
    "longitude": "22.16667000",
    "wikiDataId": null
  },
  {
    "id": 94667,
    "name": "Ineu",
    "state_id": 4739,
    "state_code": "AR",
    "country_id": 181,
    "country_code": "RO",
    "latitude": "46.43372000",
    "longitude": "21.84048000",
    "wikiDataId": null
  },
  {
    "id": 94686,
    "name": "Iratoşu",
    "state_id": 4739,
    "state_code": "AR",
    "country_id": 181,
    "country_code": "RO",
    "latitude": "46.31667000",
    "longitude": "21.20000000",
    "wikiDataId": null
  },
  {
    "id": 94804,
    "name": "Lipova",
    "state_id": 4739,
    "state_code": "AR",
    "country_id": 181,
    "country_code": "RO",
    "latitude": "46.09085000",
    "longitude": "21.69628000",
    "wikiDataId": null
  },
  {
    "id": 94814,
    "name": "Livada",
    "state_id": 4739,
    "state_code": "AR",
    "country_id": 181,
    "country_code": "RO",
    "latitude": "46.22284000",
    "longitude": "21.38403000",
    "wikiDataId": null
  },
  {
    "id": 94903,
    "name": "Macea",
    "state_id": 4739,
    "state_code": "AR",
    "country_id": 181,
    "country_code": "RO",
    "latitude": "46.38333000",
    "longitude": "21.30000000",
    "wikiDataId": null
  },
  {
    "id": 95230,
    "name": "Măderat",
    "state_id": 4739,
    "state_code": "AR",
    "country_id": 181,
    "country_code": "RO",
    "latitude": "46.29493000",
    "longitude": "21.71137000",
    "wikiDataId": null
  },
  {
    "id": 94908,
    "name": "Mailat",
    "state_id": 4739,
    "state_code": "AR",
    "country_id": 181,
    "country_code": "RO",
    "latitude": "46.04189000",
    "longitude": "21.10702000",
    "wikiDataId": null
  },
  {
    "id": 95264,
    "name": "Mănăștur",
    "state_id": 4739,
    "state_code": "AR",
    "country_id": 181,
    "country_code": "RO",
    "latitude": "46.00949000",
    "longitude": "21.13362000",
    "wikiDataId": null
  },
  {
    "id": 95215,
    "name": "Mândruloc",
    "state_id": 4739,
    "state_code": "AR",
    "country_id": 181,
    "country_code": "RO",
    "latitude": "46.14863000",
    "longitude": "21.46570000",
    "wikiDataId": null
  },
  {
    "id": 95226,
    "name": "Mâsca",
    "state_id": 4739,
    "state_code": "AR",
    "country_id": 181,
    "country_code": "RO",
    "latitude": "46.30000000",
    "longitude": "21.68333000",
    "wikiDataId": null
  },
  {
    "id": 95035,
    "name": "Mișca",
    "state_id": 4739,
    "state_code": "AR",
    "country_id": 181,
    "country_code": "RO",
    "latitude": "46.60280000",
    "longitude": "21.59998000",
    "wikiDataId": null
  },
  {
    "id": 95068,
    "name": "Moneasa",
    "state_id": 4739,
    "state_code": "AR",
    "country_id": 181,
    "country_code": "RO",
    "latitude": "46.45000000",
    "longitude": "22.25000000",
    "wikiDataId": null
  },
  {
    "id": 95109,
    "name": "Municipiul Arad",
    "state_id": 4739,
    "state_code": "AR",
    "country_id": 181,
    "country_code": "RO",
    "latitude": "46.17745000",
    "longitude": "21.31348000",
    "wikiDataId": null
  },
  {
    "id": 95296,
    "name": "Nadab",
    "state_id": 4739,
    "state_code": "AR",
    "country_id": 181,
    "country_code": "RO",
    "latitude": "46.48195000",
    "longitude": "21.51178000",
    "wikiDataId": null
  },
  {
    "id": 95297,
    "name": "Nadăș",
    "state_id": 4739,
    "state_code": "AR",
    "country_id": 181,
    "country_code": "RO",
    "latitude": "46.22490000",
    "longitude": "21.95036000",
    "wikiDataId": null
  },
  {
    "id": 95367,
    "name": "Nădlac",
    "state_id": 4739,
    "state_code": "AR",
    "country_id": 181,
    "country_code": "RO",
    "latitude": "46.16667000",
    "longitude": "20.75000000",
    "wikiDataId": null
  },
  {
    "id": 95332,
    "name": "Neudorf",
    "state_id": 4739,
    "state_code": "AR",
    "country_id": 181,
    "country_code": "RO",
    "latitude": "46.06960000",
    "longitude": "21.61899000",
    "wikiDataId": null
  },
  {
    "id": 95424,
    "name": "Olari",
    "state_id": 4739,
    "state_code": "AR",
    "country_id": 181,
    "country_code": "RO",
    "latitude": "46.38333000",
    "longitude": "21.55000000",
    "wikiDataId": null
  },
  {
    "id": 95492,
    "name": "Oraş Chişineu-Criş",
    "state_id": 4739,
    "state_code": "AR",
    "country_id": 181,
    "country_code": "RO",
    "latitude": "46.52178000",
    "longitude": "21.51295000",
    "wikiDataId": null
  },
  {
    "id": 95502,
    "name": "Oraş Curtici",
    "state_id": 4739,
    "state_code": "AR",
    "country_id": 181,
    "country_code": "RO",
    "latitude": "46.34358000",
    "longitude": "21.31051000",
    "wikiDataId": null
  },
  {
    "id": 95534,
    "name": "Oraş Ineu",
    "state_id": 4739,
    "state_code": "AR",
    "country_id": 181,
    "country_code": "RO",
    "latitude": "46.42709000",
    "longitude": "21.84185000",
    "wikiDataId": null
  },
  {
    "id": 95538,
    "name": "Oraş Lipova",
    "state_id": 4739,
    "state_code": "AR",
    "country_id": 181,
    "country_code": "RO",
    "latitude": "46.09061000",
    "longitude": "21.69465000",
    "wikiDataId": null
  },
  {
    "id": 95553,
    "name": "Oraş Nãdlac",
    "state_id": 4739,
    "state_code": "AR",
    "country_id": 181,
    "country_code": "RO",
    "latitude": "46.16664000",
    "longitude": "20.74871000",
    "wikiDataId": null
  },
  {
    "id": 95575,
    "name": "Oraş Pâncota",
    "state_id": 4739,
    "state_code": "AR",
    "country_id": 181,
    "country_code": "RO",
    "latitude": "46.31205000",
    "longitude": "21.70163000",
    "wikiDataId": null
  },
  {
    "id": 95597,
    "name": "Oraş Sântana",
    "state_id": 4739,
    "state_code": "AR",
    "country_id": 181,
    "country_code": "RO",
    "latitude": "46.34622000",
    "longitude": "21.50402000",
    "wikiDataId": null
  },
  {
    "id": 95585,
    "name": "Oraş Sebiş",
    "state_id": 4739,
    "state_code": "AR",
    "country_id": 181,
    "country_code": "RO",
    "latitude": "46.38771000",
    "longitude": "22.15480000",
    "wikiDataId": null
  },
  {
    "id": 95994,
    "name": "Pâncota",
    "state_id": 4739,
    "state_code": "AR",
    "country_id": 181,
    "country_code": "RO",
    "latitude": "46.33333000",
    "longitude": "21.70000000",
    "wikiDataId": null
  },
  {
    "id": 96032,
    "name": "Păuliş",
    "state_id": 4739,
    "state_code": "AR",
    "country_id": 181,
    "country_code": "RO",
    "latitude": "46.11667000",
    "longitude": "21.58333000",
    "wikiDataId": null
  },
  {
    "id": 95722,
    "name": "Pecica",
    "state_id": 4739,
    "state_code": "AR",
    "country_id": 181,
    "country_code": "RO",
    "latitude": "46.16667000",
    "longitude": "21.06667000",
    "wikiDataId": null
  },
  {
    "id": 95725,
    "name": "Peregu Mare",
    "state_id": 4739,
    "state_code": "AR",
    "country_id": 181,
    "country_code": "RO",
    "latitude": "46.23333000",
    "longitude": "20.90000000",
    "wikiDataId": null
  },
  {
    "id": 95726,
    "name": "Peregu Mic",
    "state_id": 4739,
    "state_code": "AR",
    "country_id": 181,
    "country_code": "RO",
    "latitude": "46.25021000",
    "longitude": "20.94885000",
    "wikiDataId": null
  },
  {
    "id": 95753,
    "name": "Petriş",
    "state_id": 4739,
    "state_code": "AR",
    "country_id": 181,
    "country_code": "RO",
    "latitude": "46.05000000",
    "longitude": "22.38333000",
    "wikiDataId": null
  },
  {
    "id": 95793,
    "name": "Pilu",
    "state_id": 4739,
    "state_code": "AR",
    "country_id": 181,
    "country_code": "RO",
    "latitude": "46.56667000",
    "longitude": "21.35000000",
    "wikiDataId": null
  },
  {
    "id": 95811,
    "name": "Pleşcuţa",
    "state_id": 4739,
    "state_code": "AR",
    "country_id": 181,
    "country_code": "RO",
    "latitude": "46.30000000",
    "longitude": "22.43333000",
    "wikiDataId": null
  },
  {
    "id": 96051,
    "name": "Radna",
    "state_id": 4739,
    "state_code": "AR",
    "country_id": 181,
    "country_code": "RO",
    "latitude": "46.09444000",
    "longitude": "21.68732000",
    "wikiDataId": null
  },
  {
    "id": 97028,
    "name": "Şagu",
    "state_id": 4739,
    "state_code": "AR",
    "country_id": 181,
    "country_code": "RO",
    "latitude": "46.05000000",
    "longitude": "21.28333000",
    "wikiDataId": null
  },
  {
    "id": 96521,
    "name": "Sâmbăteni",
    "state_id": 4739,
    "state_code": "AR",
    "country_id": 181,
    "country_code": "RO",
    "latitude": "46.14110000",
    "longitude": "21.52689000",
    "wikiDataId": null
  },
  {
    "id": 96532,
    "name": "Sânmartin",
    "state_id": 4739,
    "state_code": "AR",
    "country_id": 181,
    "country_code": "RO",
    "latitude": "46.41653000",
    "longitude": "21.34821000",
    "wikiDataId": null
  },
  {
    "id": 96544,
    "name": "Sânpetru German",
    "state_id": 4739,
    "state_code": "AR",
    "country_id": 181,
    "country_code": "RO",
    "latitude": "46.11327000",
    "longitude": "21.04932000",
    "wikiDataId": null
  },
  {
    "id": 105976,
    "name": "Sântana",
    "state_id": 4739,
    "state_code": "AR",
    "country_id": 181,
    "country_code": "RO",
    "latitude": "46.35000000",
    "longitude": "21.50000000",
    "wikiDataId": null
  },
  {
    "id": 96254,
    "name": "Satu Mare",
    "state_id": 4739,
    "state_code": "AR",
    "country_id": 181,
    "country_code": "RO",
    "latitude": "46.06628000",
    "longitude": "20.95826000",
    "wikiDataId": null
  },
  {
    "id": 106048,
    "name": "Săvârşin",
    "state_id": 4739,
    "state_code": "AR",
    "country_id": 181,
    "country_code": "RO",
    "latitude": "46.01667000",
    "longitude": "22.23333000",
    "wikiDataId": null
  },
  {
    "id": 96304,
    "name": "Sebiş",
    "state_id": 4739,
    "state_code": "AR",
    "country_id": 181,
    "country_code": "RO",
    "latitude": "46.36667000",
    "longitude": "22.11667000",
    "wikiDataId": null
  },
  {
    "id": 96317,
    "name": "Secusigiu",
    "state_id": 4739,
    "state_code": "AR",
    "country_id": 181,
    "country_code": "RO",
    "latitude": "46.08333000",
    "longitude": "20.98333000",
    "wikiDataId": null
  },
  {
    "id": 97034,
    "name": "Şeitin",
    "state_id": 4739,
    "state_code": "AR",
    "country_id": 181,
    "country_code": "RO",
    "latitude": "46.10000000",
    "longitude": "20.85000000",
    "wikiDataId": null
  },
  {
    "id": 96324,
    "name": "Seleuş",
    "state_id": 4739,
    "state_code": "AR",
    "country_id": 181,
    "country_code": "RO",
    "latitude": "46.38333000",
    "longitude": "21.71667000",
    "wikiDataId": null
  },
  {
    "id": 96325,
    "name": "Semlac",
    "state_id": 4739,
    "state_code": "AR",
    "country_id": 181,
    "country_code": "RO",
    "latitude": "46.11667000",
    "longitude": "20.93333000",
    "wikiDataId": null
  },
  {
    "id": 97116,
    "name": "Șepreuș",
    "state_id": 4739,
    "state_code": "AR",
    "country_id": 181,
    "country_code": "RO",
    "latitude": "46.57124910",
    "longitude": "21.73417450",
    "wikiDataId": null
  },
  {
    "id": 97121,
    "name": "Șiclău",
    "state_id": 4739,
    "state_code": "AR",
    "country_id": 181,
    "country_code": "RO",
    "latitude": "46.49124000",
    "longitude": "21.36834000",
    "wikiDataId": null
  },
  {
    "id": 97043,
    "name": "Şicula",
    "state_id": 4739,
    "state_code": "AR",
    "country_id": 181,
    "country_code": "RO",
    "latitude": "46.43333000",
    "longitude": "21.75000000",
    "wikiDataId": null
  },
  {
    "id": 97048,
    "name": "Şilindia",
    "state_id": 4739,
    "state_code": "AR",
    "country_id": 181,
    "country_code": "RO",
    "latitude": "46.35000000",
    "longitude": "21.91667000",
    "wikiDataId": null
  },
  {
    "id": 97049,
    "name": "Şimand",
    "state_id": 4739,
    "state_code": "AR",
    "country_id": 181,
    "country_code": "RO",
    "latitude": "46.43333000",
    "longitude": "21.45000000",
    "wikiDataId": null
  },
  {
    "id": 96356,
    "name": "Sintea Mare",
    "state_id": 4739,
    "state_code": "AR",
    "country_id": 181,
    "country_code": "RO",
    "latitude": "46.51667000",
    "longitude": "21.60000000",
    "wikiDataId": null
  },
  {
    "id": 97058,
    "name": "Şiria",
    "state_id": 4739,
    "state_code": "AR",
    "country_id": 181,
    "country_code": "RO",
    "latitude": "46.26667000",
    "longitude": "21.63333000",
    "wikiDataId": null
  },
  {
    "id": 97062,
    "name": "Şiştarovăţ",
    "state_id": 4739,
    "state_code": "AR",
    "country_id": 181,
    "country_code": "RO",
    "latitude": "46.01667000",
    "longitude": "21.73333000",
    "wikiDataId": null
  },
  {
    "id": 96396,
    "name": "Socodor",
    "state_id": 4739,
    "state_code": "AR",
    "country_id": 181,
    "country_code": "RO",
    "latitude": "46.51667000",
    "longitude": "21.43333000",
    "wikiDataId": null
  },
  {
    "id": 97064,
    "name": "Şofronea",
    "state_id": 4739,
    "state_code": "AR",
    "country_id": 181,
    "country_code": "RO",
    "latitude": "46.26667000",
    "longitude": "21.30000000",
    "wikiDataId": null
  },
  {
    "id": 96595,
    "name": "Târnova",
    "state_id": 4739,
    "state_code": "AR",
    "country_id": 181,
    "country_code": "RO",
    "latitude": "46.31667000",
    "longitude": "21.80000000",
    "wikiDataId": null
  },
  {
    "id": 106063,
    "name": "Tauţ",
    "state_id": 4739,
    "state_code": "AR",
    "country_id": 181,
    "country_code": "RO",
    "latitude": "46.28333000",
    "longitude": "21.91667000",
    "wikiDataId": null
  },
  {
    "id": 97140,
    "name": "Țipar",
    "state_id": 4739,
    "state_code": "AR",
    "country_id": 181,
    "country_code": "RO",
    "latitude": "46.47563000",
    "longitude": "21.63431000",
    "wikiDataId": null
  },
  {
    "id": 96564,
    "name": "Turnu",
    "state_id": 4739,
    "state_code": "AR",
    "country_id": 181,
    "country_code": "RO",
    "latitude": "46.25764000",
    "longitude": "21.12657000",
    "wikiDataId": null
  },
  {
    "id": 96691,
    "name": "Ususău",
    "state_id": 4739,
    "state_code": "AR",
    "country_id": 181,
    "country_code": "RO",
    "latitude": "46.07063000",
    "longitude": "21.81371000",
    "wikiDataId": null
  },
  {
    "id": 96932,
    "name": "Vânători",
    "state_id": 4739,
    "state_code": "AR",
    "country_id": 181,
    "country_code": "RO",
    "latitude": "46.62456000",
    "longitude": "21.67332000",
    "wikiDataId": null
  },
  {
    "id": 96973,
    "name": "Vărădia de Mureş",
    "state_id": 4739,
    "state_code": "AR",
    "country_id": 181,
    "country_code": "RO",
    "latitude": "46.01667000",
    "longitude": "22.15000000",
    "wikiDataId": null
  },
  {
    "id": 96940,
    "name": "Vârfurile",
    "state_id": 4739,
    "state_code": "AR",
    "country_id": 181,
    "country_code": "RO",
    "latitude": "46.31667000",
    "longitude": "22.51667000",
    "wikiDataId": null
  },
  {
    "id": 96832,
    "name": "Vinga",
    "state_id": 4739,
    "state_code": "AR",
    "country_id": 181,
    "country_code": "RO",
    "latitude": "46.01667000",
    "longitude": "21.20000000",
    "wikiDataId": null
  },
  {
    "id": 96857,
    "name": "Vladimirescu",
    "state_id": 4739,
    "state_code": "AR",
    "country_id": 181,
    "country_code": "RO",
    "latitude": "46.16628000",
    "longitude": "21.40102000",
    "wikiDataId": null
  },
  {
    "id": 97009,
    "name": "Zăbrani",
    "state_id": 4739,
    "state_code": "AR",
    "country_id": 181,
    "country_code": "RO",
    "latitude": "46.06667000",
    "longitude": "21.55000000",
    "wikiDataId": null
  },
  {
    "id": 97010,
    "name": "Zădăreni",
    "state_id": 4739,
    "state_code": "AR",
    "country_id": 181,
    "country_code": "RO",
    "latitude": "46.13274000",
    "longitude": "21.21821000",
    "wikiDataId": null
  },
  {
    "id": 97014,
    "name": "Zărand",
    "state_id": 4739,
    "state_code": "AR",
    "country_id": 181,
    "country_code": "RO",
    "latitude": "46.40000000",
    "longitude": "21.65000000",
    "wikiDataId": null
  },
  {
    "id": 96989,
    "name": "Zerind",
    "state_id": 4739,
    "state_code": "AR",
    "country_id": 181,
    "country_code": "RO",
    "latitude": "46.61667000",
    "longitude": "21.51667000",
    "wikiDataId": null
  },
  {
    "id": 96993,
    "name": "Zimandu Nou",
    "state_id": 4739,
    "state_code": "AR",
    "country_id": 181,
    "country_code": "RO",
    "latitude": "46.28333000",
    "longitude": "21.40000000",
    "wikiDataId": null
  }
]