[
  {
    "id": 63470,
    "name": "Higashiōmi-shi",
    "state_id": 845,
    "state_code": "25",
    "country_id": 109,
    "country_code": "JP",
    "latitude": "35.10890000",
    "longitude": "136.17920000",
    "wikiDataId": null
  },
  {
    "id": 63476,
    "name": "Hikone",
    "state_id": 845,
    "state_code": "25",
    "country_id": 109,
    "country_code": "JP",
    "latitude": "35.25000000",
    "longitude": "136.25000000",
    "wikiDataId": null
  },
  {
    "id": 63477,
    "name": "Hikone-shi",
    "state_id": 845,
    "state_code": "25",
    "country_id": 109,
    "country_code": "JP",
    "latitude": "35.23036000",
    "longitude": "136.20760000",
    "wikiDataId": null
  },
  {
    "id": 63482,
    "name": "Hino",
    "state_id": 845,
    "state_code": "25",
    "country_id": 109,
    "country_code": "JP",
    "latitude": "35.00000000",
    "longitude": "136.25000000",
    "wikiDataId": null
  },
  {
    "id": 63799,
    "name": "Kitahama",
    "state_id": 845,
    "state_code": "25",
    "country_id": 109,
    "country_code": "JP",
    "latitude": "35.16667000",
    "longitude": "135.91667000",
    "wikiDataId": null
  },
  {
    "id": 63895,
    "name": "Kōka-shi",
    "state_id": 845,
    "state_code": "25",
    "country_id": 109,
    "country_code": "JP",
    "latitude": "34.91667000",
    "longitude": "136.16667000",
    "wikiDataId": null
  },
  {
    "id": 63843,
    "name": "Konan-shi",
    "state_id": 845,
    "state_code": "25",
    "country_id": 109,
    "country_code": "JP",
    "latitude": "35.01667000",
    "longitude": "136.08333000",
    "wikiDataId": null
  },
  {
    "id": 63881,
    "name": "Kusatsu",
    "state_id": 845,
    "state_code": "25",
    "country_id": 109,
    "country_code": "JP",
    "latitude": "35.01667000",
    "longitude": "135.96667000",
    "wikiDataId": null
  },
  {
    "id": 63882,
    "name": "Kusatsu-shi",
    "state_id": 845,
    "state_code": "25",
    "country_id": 109,
    "country_code": "JP",
    "latitude": "35.02758000",
    "longitude": "135.93840000",
    "wikiDataId": null
  },
  {
    "id": 63910,
    "name": "Maibara",
    "state_id": 845,
    "state_code": "25",
    "country_id": 109,
    "country_code": "JP",
    "latitude": "35.31667000",
    "longitude": "136.28333000",
    "wikiDataId": null
  },
  {
    "id": 63911,
    "name": "Maibara-shi",
    "state_id": 845,
    "state_code": "25",
    "country_id": 109,
    "country_code": "JP",
    "latitude": "35.38457000",
    "longitude": "136.37741000",
    "wikiDataId": null
  },
  {
    "id": 63958,
    "name": "Minakuchichō-matoba",
    "state_id": 845,
    "state_code": "25",
    "country_id": 109,
    "country_code": "JP",
    "latitude": "34.96667000",
    "longitude": "136.16667000",
    "wikiDataId": null
  },
  {
    "id": 64034,
    "name": "Moriyama",
    "state_id": 845,
    "state_code": "25",
    "country_id": 109,
    "country_code": "JP",
    "latitude": "35.06667000",
    "longitude": "135.98333000",
    "wikiDataId": null
  },
  {
    "id": 64035,
    "name": "Moriyama-shi",
    "state_id": 845,
    "state_code": "25",
    "country_id": 109,
    "country_code": "JP",
    "latitude": "35.08815000",
    "longitude": "135.96869000",
    "wikiDataId": null
  },
  {
    "id": 64059,
    "name": "Nagahama",
    "state_id": 845,
    "state_code": "25",
    "country_id": 109,
    "country_code": "JP",
    "latitude": "35.38333000",
    "longitude": "136.26667000",
    "wikiDataId": null
  },
  {
    "id": 64060,
    "name": "Nagahama-shi",
    "state_id": 845,
    "state_code": "25",
    "country_id": 109,
    "country_code": "JP",
    "latitude": "35.42256000",
    "longitude": "136.26272000",
    "wikiDataId": null
  },
  {
    "id": 64740,
    "name": "Ōmihachiman",
    "state_id": 845,
    "state_code": "25",
    "country_id": 109,
    "country_code": "JP",
    "latitude": "35.12861000",
    "longitude": "136.09760000",
    "wikiDataId": null
  },
  {
    "id": 64741,
    "name": "Ōmihachiman-shi",
    "state_id": 845,
    "state_code": "25",
    "country_id": 109,
    "country_code": "JP",
    "latitude": "35.15251000",
    "longitude": "136.06964000",
    "wikiDataId": null
  },
  {
    "id": 64764,
    "name": "Ōtsu-shi",
    "state_id": 845,
    "state_code": "25",
    "country_id": 109,
    "country_code": "JP",
    "latitude": "35.10203000",
    "longitude": "135.92452000",
    "wikiDataId": null
  },
  {
    "id": 64229,
    "name": "Rittō-shi",
    "state_id": 845,
    "state_code": "25",
    "country_id": 109,
    "country_code": "JP",
    "latitude": "34.99603000",
    "longitude": "136.01412000",
    "wikiDataId": null
  },
  {
    "id": 64438,
    "name": "Takashima",
    "state_id": 845,
    "state_code": "25",
    "country_id": 109,
    "country_code": "JP",
    "latitude": "35.41347000",
    "longitude": "136.01612000",
    "wikiDataId": null
  },
  {
    "id": 64439,
    "name": "Takashima-shi",
    "state_id": 845,
    "state_code": "25",
    "country_id": 109,
    "country_code": "JP",
    "latitude": "35.35448000",
    "longitude": "136.02859000",
    "wikiDataId": null
  },
  {
    "id": 64659,
    "name": "Yasu-shi",
    "state_id": 845,
    "state_code": "25",
    "country_id": 109,
    "country_code": "JP",
    "latitude": "35.06801000",
    "longitude": "136.02327000",
    "wikiDataId": null
  },
  {
    "id": 64692,
    "name": "Youkaichi",
    "state_id": 845,
    "state_code": "25",
    "country_id": 109,
    "country_code": "JP",
    "latitude": "35.11626000",
    "longitude": "136.19768000",
    "wikiDataId": null
  }
]