[
  {
    "id": 49387,
    "name": "East Boldon",
    "state_id": 2409,
    "state_code": "STY",
    "country_id": 232,
    "country_code": "GB",
    "latitude": "54.94452000",
    "longitude": "-1.42815000",
    "wikiDataId": null
  },
  {
    "id": 49880,
    "name": "Hebburn",
    "state_id": 2409,
    "state_code": "STY",
    "country_id": 232,
    "country_code": "GB",
    "latitude": "54.97302000",
    "longitude": "-1.51546000",
    "wikiDataId": null
  },
  {
    "id": 50093,
    "name": "Jarrow",
    "state_id": 2409,
    "state_code": "STY",
    "country_id": 232,
    "country_code": "GB",
    "latitude": "54.98036000",
    "longitude": "-1.48423000",
    "wikiDataId": null
  },
  {
    "id": 51365,
    "name": "South Shields",
    "state_id": 2409,
    "state_code": "STY",
    "country_id": 232,
    "country_code": "GB",
    "latitude": "54.99859000",
    "longitude": "-1.43230000",
    "wikiDataId": null
  },
  {
    "id": 51366,
    "name": "South Tyneside",
    "state_id": 2409,
    "state_code": "STY",
    "country_id": 232,
    "country_code": "GB",
    "latitude": "54.95000000",
    "longitude": "-1.41667000",
    "wikiDataId": null
  },
  {
    "id": 51588,
    "name": "The Boldons",
    "state_id": 2409,
    "state_code": "STY",
    "country_id": 232,
    "country_code": "GB",
    "latitude": "54.94260000",
    "longitude": "-1.45349000",
    "wikiDataId": null
  },
  {
    "id": 51763,
    "name": "Washington",
    "state_id": 2409,
    "state_code": "STY",
    "country_id": 232,
    "country_code": "GB",
    "latitude": "54.90000000",
    "longitude": "-1.51667000",
    "wikiDataId": null
  },
  {
    "id": 51867,
    "name": "Whitburn",
    "state_id": 2409,
    "state_code": "STY",
    "country_id": 232,
    "country_code": "GB",
    "latitude": "54.95333000",
    "longitude": "-1.36861000",
    "wikiDataId": null
  }
]