[
  {
    "id": 79677,
    "name": "Ål",
    "state_id": 5449,
    "state_code": "33",
    "country_id": 165,
    "country_code": "NO",
    "latitude": "60.63028000",
    "longitude": "8.56115000",
    "wikiDataId": null
  },
  {
    "id": 79685,
    "name": "Åros",
    "state_id": 5449,
    "state_code": "33",
    "country_id": 165,
    "country_code": "NO",
    "latitude": "59.70610000",
    "longitude": "10.51092000",
    "wikiDataId": null
  },
  {
    "id": 79104,
    "name": "Drammen",
    "state_id": 5449,
    "state_code": "33",
    "country_id": 165,
    "country_code": "NO",
    "latitude": "59.74389000",
    "longitude": "10.20449000",
    "wikiDataId": null
  },
  {
    "id": 79153,
    "name": "Flå",
    "state_id": 5449,
    "state_code": "33",
    "country_id": 165,
    "country_code": "NO",
    "latitude": "60.42910000",
    "longitude": "9.46611000",
    "wikiDataId": null
  },
  {
    "id": 79150,
    "name": "Flesberg",
    "state_id": 5449,
    "state_code": "33",
    "country_id": 165,
    "country_code": "NO",
    "latitude": "59.83283000",
    "longitude": "9.58308000",
    "wikiDataId": null
  },
  {
    "id": 79174,
    "name": "Geilo",
    "state_id": 5449,
    "state_code": "33",
    "country_id": 165,
    "country_code": "NO",
    "latitude": "60.53369000",
    "longitude": "8.20539000",
    "wikiDataId": null
  },
  {
    "id": 79184,
    "name": "Gol",
    "state_id": 5449,
    "state_code": "33",
    "country_id": 165,
    "country_code": "NO",
    "latitude": "60.69953000",
    "longitude": "8.95024000",
    "wikiDataId": null
  },
  {
    "id": 79217,
    "name": "Hemsedal",
    "state_id": 5449,
    "state_code": "33",
    "country_id": 165,
    "country_code": "NO",
    "latitude": "60.86114000",
    "longitude": "8.56537000",
    "wikiDataId": null
  },
  {
    "id": 79227,
    "name": "Hol",
    "state_id": 5449,
    "state_code": "33",
    "country_id": 165,
    "country_code": "NO",
    "latitude": "60.61528000",
    "longitude": "8.30194000",
    "wikiDataId": null
  },
  {
    "id": 79228,
    "name": "Hole",
    "state_id": 5449,
    "state_code": "33",
    "country_id": 165,
    "country_code": "NO",
    "latitude": "60.08017000",
    "longitude": "10.27840000",
    "wikiDataId": null
  },
  {
    "id": 79247,
    "name": "Hønefoss",
    "state_id": 5449,
    "state_code": "33",
    "country_id": 165,
    "country_code": "NO",
    "latitude": "60.16804000",
    "longitude": "10.25647000",
    "wikiDataId": null
  },
  {
    "id": 79240,
    "name": "Hurum",
    "state_id": 5449,
    "state_code": "33",
    "country_id": 165,
    "country_code": "NO",
    "latitude": "59.61401000",
    "longitude": "10.45763000",
    "wikiDataId": null
  },
  {
    "id": 79242,
    "name": "Hvittingfoss",
    "state_id": 5449,
    "state_code": "33",
    "country_id": 165,
    "country_code": "NO",
    "latitude": "59.48572000",
    "longitude": "10.01173000",
    "wikiDataId": null
  },
  {
    "id": 79281,
    "name": "Kongsberg",
    "state_id": 5449,
    "state_code": "33",
    "country_id": 165,
    "country_code": "NO",
    "latitude": "59.66516000",
    "longitude": "9.64653000",
    "wikiDataId": null
  },
  {
    "id": 79289,
    "name": "Krødsherad",
    "state_id": 5449,
    "state_code": "33",
    "country_id": 165,
    "country_code": "NO",
    "latitude": "60.17944000",
    "longitude": "9.62124000",
    "wikiDataId": null
  },
  {
    "id": 79320,
    "name": "Lier",
    "state_id": 5449,
    "state_code": "33",
    "country_id": 165,
    "country_code": "NO",
    "latitude": "59.78663000",
    "longitude": "10.24590000",
    "wikiDataId": null
  },
  {
    "id": 79368,
    "name": "Modum",
    "state_id": 5449,
    "state_code": "33",
    "country_id": 165,
    "country_code": "NO",
    "latitude": "59.97346000",
    "longitude": "10.00468000",
    "wikiDataId": null
  },
  {
    "id": 79388,
    "name": "Nedre Eiker",
    "state_id": 5449,
    "state_code": "33",
    "country_id": 165,
    "country_code": "NO",
    "latitude": "59.75023000",
    "longitude": "10.00736000",
    "wikiDataId": null
  },
  {
    "id": 79391,
    "name": "Nesbyen",
    "state_id": 5449,
    "state_code": "33",
    "country_id": 165,
    "country_code": "NO",
    "latitude": "60.56809000",
    "longitude": "9.10274000",
    "wikiDataId": null
  },
  {
    "id": 79411,
    "name": "Nore og Uvdal",
    "state_id": 5449,
    "state_code": "33",
    "country_id": 165,
    "country_code": "NO",
    "latitude": "60.26706000",
    "longitude": "8.94635000",
    "wikiDataId": null
  },
  {
    "id": 79412,
    "name": "Noresund",
    "state_id": 5449,
    "state_code": "33",
    "country_id": 165,
    "country_code": "NO",
    "latitude": "60.17985000",
    "longitude": "9.62411000",
    "wikiDataId": null
  },
  {
    "id": 79700,
    "name": "Øvre Eiker",
    "state_id": 5449,
    "state_code": "33",
    "country_id": 165,
    "country_code": "NO",
    "latitude": "59.77111000",
    "longitude": "9.90840000",
    "wikiDataId": null
  },
  {
    "id": 79432,
    "name": "Prestfoss",
    "state_id": 5449,
    "state_code": "33",
    "country_id": 165,
    "country_code": "NO",
    "latitude": "60.04343000",
    "longitude": "9.63520000",
    "wikiDataId": null
  },
  {
    "id": 79451,
    "name": "Ringerike",
    "state_id": 5449,
    "state_code": "33",
    "country_id": 165,
    "country_code": "NO",
    "latitude": "60.16018000",
    "longitude": "10.25660000",
    "wikiDataId": null
  },
  {
    "id": 79456,
    "name": "Rollag",
    "state_id": 5449,
    "state_code": "33",
    "country_id": 165,
    "country_code": "NO",
    "latitude": "59.98413000",
    "longitude": "9.29489000",
    "wikiDataId": null
  },
  {
    "id": 79471,
    "name": "Røyken",
    "state_id": 5449,
    "state_code": "33",
    "country_id": 165,
    "country_code": "NO",
    "latitude": "59.74019000",
    "longitude": "10.41321000",
    "wikiDataId": null
  },
  {
    "id": 79574,
    "name": "Sætre",
    "state_id": 5449,
    "state_code": "33",
    "country_id": 165,
    "country_code": "NO",
    "latitude": "59.68129000",
    "longitude": "10.52749000",
    "wikiDataId": null
  },
  {
    "id": 79497,
    "name": "Sigdal",
    "state_id": 5449,
    "state_code": "33",
    "country_id": 165,
    "country_code": "NO",
    "latitude": "60.04592000",
    "longitude": "9.63673000",
    "wikiDataId": null
  },
  {
    "id": 79515,
    "name": "Skoger",
    "state_id": 5449,
    "state_code": "33",
    "country_id": 165,
    "country_code": "NO",
    "latitude": "59.71327000",
    "longitude": "10.25356000",
    "wikiDataId": null
  },
  {
    "id": 79597,
    "name": "Tofte",
    "state_id": 5449,
    "state_code": "33",
    "country_id": 165,
    "country_code": "NO",
    "latitude": "59.54275000",
    "longitude": "10.56138000",
    "wikiDataId": null
  },
  {
    "id": 79601,
    "name": "Tomter",
    "state_id": 5449,
    "state_code": "33",
    "country_id": 165,
    "country_code": "NO",
    "latitude": "59.65910000",
    "longitude": "10.99487000",
    "wikiDataId": null
  },
  {
    "id": 79604,
    "name": "Tranby",
    "state_id": 5449,
    "state_code": "33",
    "country_id": 165,
    "country_code": "NO",
    "latitude": "59.80850000",
    "longitude": "10.26114000",
    "wikiDataId": null
  },
  {
    "id": 79653,
    "name": "Vikersund",
    "state_id": 5449,
    "state_code": "33",
    "country_id": 165,
    "country_code": "NO",
    "latitude": "59.96838000",
    "longitude": "9.99107000",
    "wikiDataId": null
  }
]