[
  {
    "id": 48271,
    "name": "Ardrishaig",
    "state_id": 2388,
    "state_code": "IVC",
    "country_id": 232,
    "country_code": "GB",
    "latitude": "56.01566000",
    "longitude": "-5.44806000",
    "wikiDataId": null
  },
  {
    "id": 48274,
    "name": "Argyll and Bute",
    "state_id": 2388,
    "state_code": "IVC",
    "country_id": 232,
    "country_code": "GB",
    "latitude": "56.03693000",
    "longitude": "-5.43679000",
    "wikiDataId": null
  },
  {
    "id": 49361,
    "name": "Dunoon",
    "state_id": 2388,
    "state_code": "IVC",
    "country_id": 232,
    "country_code": "GB",
    "latitude": "55.95031000",
    "longitude": "-4.92734000",
    "wikiDataId": null
  },
  {
    "id": 49626,
    "name": "Garelochhead",
    "state_id": 2388,
    "state_code": "IVC",
    "country_id": 232,
    "country_code": "GB",
    "latitude": "56.08203000",
    "longitude": "-4.82909000",
    "wikiDataId": null
  },
  {
    "id": 49692,
    "name": "Gourock",
    "state_id": 2388,
    "state_code": "IVC",
    "country_id": 232,
    "country_code": "GB",
    "latitude": "55.96157000",
    "longitude": "-4.81789000",
    "wikiDataId": null
  },
  {
    "id": 49747,
    "name": "Greenock",
    "state_id": 2388,
    "state_code": "IVC",
    "country_id": 232,
    "country_code": "GB",
    "latitude": "55.94838000",
    "longitude": "-4.76121000",
    "wikiDataId": null
  },
  {
    "id": 49888,
    "name": "Helensburgh",
    "state_id": 2388,
    "state_code": "IVC",
    "country_id": 232,
    "country_code": "GB",
    "latitude": "56.00614000",
    "longitude": "-4.72648000",
    "wikiDataId": null
  },
  {
    "id": 50059,
    "name": "Inverclyde",
    "state_id": 2388,
    "state_code": "IVC",
    "country_id": 232,
    "country_code": "GB",
    "latitude": "55.90000000",
    "longitude": "-4.75000000",
    "wikiDataId": null
  },
  {
    "id": 50063,
    "name": "Inverkip",
    "state_id": 2388,
    "state_code": "IVC",
    "country_id": 232,
    "country_code": "GB",
    "latitude": "55.90831000",
    "longitude": "-4.87051000",
    "wikiDataId": null
  },
  {
    "id": 50076,
    "name": "Isle of Bute",
    "state_id": 2388,
    "state_code": "IVC",
    "country_id": 232,
    "country_code": "GB",
    "latitude": "55.83663000",
    "longitude": "-5.05586000",
    "wikiDataId": null
  },
  {
    "id": 50142,
    "name": "Kilcreggan",
    "state_id": 2388,
    "state_code": "IVC",
    "country_id": 232,
    "country_code": "GB",
    "latitude": "55.98460000",
    "longitude": "-4.82100000",
    "wikiDataId": null
  },
  {
    "id": 50149,
    "name": "Kilmacolm",
    "state_id": 2388,
    "state_code": "IVC",
    "country_id": 232,
    "country_code": "GB",
    "latitude": "55.89470000",
    "longitude": "-4.62643000",
    "wikiDataId": null
  },
  {
    "id": 50378,
    "name": "Lochgilphead",
    "state_id": 2388,
    "state_code": "IVC",
    "country_id": 232,
    "country_code": "GB",
    "latitude": "56.03796000",
    "longitude": "-5.43206000",
    "wikiDataId": null
  },
  {
    "id": 50952,
    "name": "Port Bannatyne",
    "state_id": 2388,
    "state_code": "IVC",
    "country_id": 232,
    "country_code": "GB",
    "latitude": "55.85660000",
    "longitude": "-5.06503000",
    "wikiDataId": null
  },
  {
    "id": 50954,
    "name": "Port Glasgow",
    "state_id": 2388,
    "state_code": "IVC",
    "country_id": 232,
    "country_code": "GB",
    "latitude": "55.93464000",
    "longitude": "-4.68950000",
    "wikiDataId": null
  },
  {
    "id": 51072,
    "name": "Rhu",
    "state_id": 2388,
    "state_code": "IVC",
    "country_id": 232,
    "country_code": "GB",
    "latitude": "56.01667000",
    "longitude": "-4.76667000",
    "wikiDataId": null
  },
  {
    "id": 51109,
    "name": "Rosneath",
    "state_id": 2388,
    "state_code": "IVC",
    "country_id": 232,
    "country_code": "GB",
    "latitude": "56.00985000",
    "longitude": "-4.80151000",
    "wikiDataId": null
  },
  {
    "id": 51119,
    "name": "Rothesay",
    "state_id": 2388,
    "state_code": "IVC",
    "country_id": 232,
    "country_code": "GB",
    "latitude": "55.83648000",
    "longitude": "-5.05508000",
    "wikiDataId": null
  },
  {
    "id": 51192,
    "name": "Sandbank",
    "state_id": 2388,
    "state_code": "IVC",
    "country_id": 232,
    "country_code": "GB",
    "latitude": "55.98203000",
    "longitude": "-4.94973000",
    "wikiDataId": null
  },
  {
    "id": 51321,
    "name": "Skelmorlie",
    "state_id": 2388,
    "state_code": "IVC",
    "country_id": 232,
    "country_code": "GB",
    "latitude": "55.86950000",
    "longitude": "-4.88475000",
    "wikiDataId": null
  },
  {
    "id": 51558,
    "name": "Tarbert",
    "state_id": 2388,
    "state_code": "IVC",
    "country_id": 232,
    "country_code": "GB",
    "latitude": "55.86277000",
    "longitude": "-5.41622000",
    "wikiDataId": null
  },
  {
    "id": 51800,
    "name": "Wemyss Bay",
    "state_id": 2388,
    "state_code": "IVC",
    "country_id": 232,
    "country_code": "GB",
    "latitude": "55.87614000",
    "longitude": "-4.88950000",
    "wikiDataId": null
  }
]