[
  {
    "id": 38721,
    "name": "Ādīgrat",
    "state_id": 4,
    "state_code": "TI",
    "country_id": 70,
    "country_code": "ET",
    "latitude": "14.27700000",
    "longitude": "39.46200000",
    "wikiDataId": null
  },
  {
    "id": 38597,
    "name": "Axum",
    "state_id": 4,
    "state_code": "TI",
    "country_id": 70,
    "country_code": "ET",
    "latitude": "14.12109000",
    "longitude": "38.72337000",
    "wikiDataId": null
  },
  {
    "id": 38658,
    "name": "Inda Silasē",
    "state_id": 4,
    "state_code": "TI",
    "country_id": 70,
    "country_code": "ET",
    "latitude": "14.10307000",
    "longitude": "38.28289000",
    "wikiDataId": null
  },
  {
    "id": 38669,
    "name": "Korem",
    "state_id": 4,
    "state_code": "TI",
    "country_id": 70,
    "country_code": "ET",
    "latitude": "12.50583000",
    "longitude": "39.52278000",
    "wikiDataId": null
  },
  {
    "id": 38675,
    "name": "Maych’ew",
    "state_id": 4,
    "state_code": "TI",
    "country_id": 70,
    "country_code": "ET",
    "latitude": "12.78750000",
    "longitude": "39.54222000",
    "wikiDataId": null
  },
  {
    "id": 38676,
    "name": "Mek'ele",
    "state_id": 4,
    "state_code": "TI",
    "country_id": 70,
    "country_code": "ET",
    "latitude": "13.49667000",
    "longitude": "39.47528000",
    "wikiDataId": null
  },
  {
    "id": 38703,
    "name": "Southeastern Tigray Zone",
    "state_id": 4,
    "state_code": "TI",
    "country_id": 70,
    "country_code": "ET",
    "latitude": "13.24797000",
    "longitude": "39.53156000",
    "wikiDataId": null
  },
  {
    "id": 38704,
    "name": "Southern Tigray Zone",
    "state_id": 4,
    "state_code": "TI",
    "country_id": 70,
    "country_code": "ET",
    "latitude": "12.96033000",
    "longitude": "39.52831000",
    "wikiDataId": null
  }
]