[
  {
    "id": 63215,
    "name": "Adachi Ku",
    "state_id": 823,
    "state_code": "13",
    "country_id": 109,
    "country_code": "JP",
    "latitude": "35.77880000",
    "longitude": "139.79509000",
    "wikiDataId": null
  },
  {
    "id": 63231,
    "name": "Akiruno-shi",
    "state_id": 823,
    "state_code": "13",
    "country_id": 109,
    "country_code": "JP",
    "latitude": "35.73285000",
    "longitude": "139.22525000",
    "wikiDataId": null
  },
  {
    "id": 63232,
    "name": "Akishima-shi",
    "state_id": 823,
    "state_code": "13",
    "country_id": 109,
    "country_code": "JP",
    "latitude": "35.70782000",
    "longitude": "139.36418000",
    "wikiDataId": null
  },
  {
    "id": 63252,
    "name": "Arakawa Ku",
    "state_id": 823,
    "state_code": "13",
    "country_id": 109,
    "country_code": "JP",
    "latitude": "35.73993000",
    "longitude": "139.78130000",
    "wikiDataId": null
  },
  {
    "id": 63289,
    "name": "Bunkyō-ku",
    "state_id": 823,
    "state_code": "13",
    "country_id": 109,
    "country_code": "JP",
    "latitude": "35.71745000",
    "longitude": "139.74729000",
    "wikiDataId": null
  },
  {
    "id": 63311,
    "name": "Chiyoda-ku",
    "state_id": 823,
    "state_code": "13",
    "country_id": 109,
    "country_code": "JP",
    "latitude": "35.69402000",
    "longitude": "139.75363000",
    "wikiDataId": null
  },
  {
    "id": 63312,
    "name": "Chōfu",
    "state_id": 823,
    "state_code": "13",
    "country_id": 109,
    "country_code": "JP",
    "latitude": "35.65924000",
    "longitude": "139.54837000",
    "wikiDataId": null
  },
  {
    "id": 63313,
    "name": "Chōfu-shi",
    "state_id": 823,
    "state_code": "13",
    "country_id": 109,
    "country_code": "JP",
    "latitude": "35.65000000",
    "longitude": "139.55000000",
    "wikiDataId": null
  },
  {
    "id": 63315,
    "name": "Chūō Ku",
    "state_id": 823,
    "state_code": "13",
    "country_id": 109,
    "country_code": "JP",
    "latitude": "35.66993000",
    "longitude": "139.77705000",
    "wikiDataId": null
  },
  {
    "id": 63330,
    "name": "Edogawa Ku",
    "state_id": 823,
    "state_code": "13",
    "country_id": 109,
    "country_code": "JP",
    "latitude": "35.69242000",
    "longitude": "139.87567000",
    "wikiDataId": null
  },
  {
    "id": 63336,
    "name": "Fuchū-shi",
    "state_id": 823,
    "state_code": "13",
    "country_id": 109,
    "country_code": "JP",
    "latitude": "35.66667000",
    "longitude": "139.50000000",
    "wikiDataId": null
  },
  {
    "id": 63380,
    "name": "Fussa",
    "state_id": 823,
    "state_code": "13",
    "country_id": 109,
    "country_code": "JP",
    "latitude": "35.73667000",
    "longitude": "139.32361000",
    "wikiDataId": null
  },
  {
    "id": 63410,
    "name": "Hachiōji",
    "state_id": 823,
    "state_code": "13",
    "country_id": 109,
    "country_code": "JP",
    "latitude": "35.65583000",
    "longitude": "139.32389000",
    "wikiDataId": null
  },
  {
    "id": 63429,
    "name": "Hamura-shi",
    "state_id": 823,
    "state_code": "13",
    "country_id": 109,
    "country_code": "JP",
    "latitude": "35.76351000",
    "longitude": "139.31411000",
    "wikiDataId": null
  },
  {
    "id": 63458,
    "name": "Higashi-murayama-shi",
    "state_id": 823,
    "state_code": "13",
    "country_id": 109,
    "country_code": "JP",
    "latitude": "35.75529000",
    "longitude": "139.46972000",
    "wikiDataId": null
  },
  {
    "id": 63461,
    "name": "Higashikurume-shi",
    "state_id": 823,
    "state_code": "13",
    "country_id": 109,
    "country_code": "JP",
    "latitude": "35.75821000",
    "longitude": "139.52954000",
    "wikiDataId": null
  },
  {
    "id": 63465,
    "name": "Higashimurayama",
    "state_id": 823,
    "state_code": "13",
    "country_id": 109,
    "country_code": "JP",
    "latitude": "35.75459000",
    "longitude": "139.46852000",
    "wikiDataId": null
  },
  {
    "id": 63468,
    "name": "Higashiyamato",
    "state_id": 823,
    "state_code": "13",
    "country_id": 109,
    "country_code": "JP",
    "latitude": "35.76298000",
    "longitude": "139.44575000",
    "wikiDataId": null
  },
  {
    "id": 63469,
    "name": "Higashiyamato-shi",
    "state_id": 823,
    "state_code": "13",
    "country_id": 109,
    "country_code": "JP",
    "latitude": "35.75031000",
    "longitude": "139.42660000",
    "wikiDataId": null
  },
  {
    "id": 63483,
    "name": "Hino",
    "state_id": 823,
    "state_code": "13",
    "country_id": 109,
    "country_code": "JP",
    "latitude": "35.67306000",
    "longitude": "139.40028000",
    "wikiDataId": null
  },
  {
    "id": 63484,
    "name": "Hino-shi",
    "state_id": 823,
    "state_code": "13",
    "country_id": 109,
    "country_code": "JP",
    "latitude": "35.66333000",
    "longitude": "139.39865000",
    "wikiDataId": null
  },
  {
    "id": 63569,
    "name": "Inagi-shi",
    "state_id": 823,
    "state_code": "13",
    "country_id": 109,
    "country_code": "JP",
    "latitude": "35.63290000",
    "longitude": "139.49291000",
    "wikiDataId": null
  },
  {
    "id": 63605,
    "name": "Itabashi-ku",
    "state_id": 823,
    "state_code": "13",
    "country_id": 109,
    "country_code": "JP",
    "latitude": "35.75118000",
    "longitude": "139.70927000",
    "wikiDataId": null
  },
  {
    "id": 63615,
    "name": "Itsukaichi",
    "state_id": 823,
    "state_code": "13",
    "country_id": 109,
    "country_code": "JP",
    "latitude": "35.72528000",
    "longitude": "139.21778000",
    "wikiDataId": null
  },
  {
    "id": 63697,
    "name": "Kamirenjaku",
    "state_id": 823,
    "state_code": "13",
    "country_id": 109,
    "country_code": "JP",
    "latitude": "35.69423000",
    "longitude": "139.55495000",
    "wikiDataId": null
  },
  {
    "id": 63758,
    "name": "Katsushika Ku",
    "state_id": 823,
    "state_code": "13",
    "country_id": 109,
    "country_code": "JP",
    "latitude": "35.75324000",
    "longitude": "139.85567000",
    "wikiDataId": null
  },
  {
    "id": 63797,
    "name": "Kita-ku",
    "state_id": 823,
    "state_code": "13",
    "country_id": 109,
    "country_code": "JP",
    "latitude": "35.75264000",
    "longitude": "139.73348000",
    "wikiDataId": null
  },
  {
    "id": 63815,
    "name": "Kiyose-shi",
    "state_id": 823,
    "state_code": "13",
    "country_id": 109,
    "country_code": "JP",
    "latitude": "35.78551000",
    "longitude": "139.52628000",
    "wikiDataId": null
  },
  {
    "id": 63821,
    "name": "Kodaira-shi",
    "state_id": 823,
    "state_code": "13",
    "country_id": 109,
    "country_code": "JP",
    "latitude": "35.72738000",
    "longitude": "139.48173000",
    "wikiDataId": null
  },
  {
    "id": 63827,
    "name": "Koganei-shi",
    "state_id": 823,
    "state_code": "13",
    "country_id": 109,
    "country_code": "JP",
    "latitude": "35.70108000",
    "longitude": "139.51104000",
    "wikiDataId": null
  },
  {
    "id": 63830,
    "name": "Kokubunji",
    "state_id": 823,
    "state_code": "13",
    "country_id": 109,
    "country_code": "JP",
    "latitude": "35.70222000",
    "longitude": "139.47556000",
    "wikiDataId": null
  },
  {
    "id": 63831,
    "name": "Kokubunji-shi",
    "state_id": 823,
    "state_code": "13",
    "country_id": 109,
    "country_code": "JP",
    "latitude": "35.70552000",
    "longitude": "139.46125000",
    "wikiDataId": null
  },
  {
    "id": 63832,
    "name": "Komae-shi",
    "state_id": 823,
    "state_code": "13",
    "country_id": 109,
    "country_code": "JP",
    "latitude": "35.63487000",
    "longitude": "139.57723000",
    "wikiDataId": null
  },
  {
    "id": 63903,
    "name": "Kōtō-ku",
    "state_id": 823,
    "state_code": "13",
    "country_id": 109,
    "country_code": "JP",
    "latitude": "35.66667000",
    "longitude": "139.81667000",
    "wikiDataId": null
  },
  {
    "id": 63864,
    "name": "Kunitachi-shi",
    "state_id": 823,
    "state_code": "13",
    "country_id": 109,
    "country_code": "JP",
    "latitude": "35.68634000",
    "longitude": "139.43878000",
    "wikiDataId": null
  },
  {
    "id": 63905,
    "name": "Machida",
    "state_id": 823,
    "state_code": "13",
    "country_id": 109,
    "country_code": "JP",
    "latitude": "35.54028000",
    "longitude": "139.45083000",
    "wikiDataId": null
  },
  {
    "id": 63906,
    "name": "Machida-shi",
    "state_id": 823,
    "state_code": "13",
    "country_id": 109,
    "country_code": "JP",
    "latitude": "35.57626000",
    "longitude": "139.42998000",
    "wikiDataId": null
  },
  {
    "id": 63943,
    "name": "Meguro-ku",
    "state_id": 823,
    "state_code": "13",
    "country_id": 109,
    "country_code": "JP",
    "latitude": "35.64146000",
    "longitude": "139.69817000",
    "wikiDataId": null
  },
  {
    "id": 63974,
    "name": "Minato-ku",
    "state_id": 823,
    "state_code": "13",
    "country_id": 109,
    "country_code": "JP",
    "latitude": "35.65000000",
    "longitude": "139.73333000",
    "wikiDataId": null
  },
  {
    "id": 63988,
    "name": "Mitaka-shi",
    "state_id": 823,
    "state_code": "13",
    "country_id": 109,
    "country_code": "JP",
    "latitude": "35.68351000",
    "longitude": "139.55963000",
    "wikiDataId": null
  },
  {
    "id": 64051,
    "name": "Musashimurayama-shi",
    "state_id": 823,
    "state_code": "13",
    "country_id": 109,
    "country_code": "JP",
    "latitude": "35.75037000",
    "longitude": "139.38391000",
    "wikiDataId": null
  },
  {
    "id": 64052,
    "name": "Musashino",
    "state_id": 823,
    "state_code": "13",
    "country_id": 109,
    "country_code": "JP",
    "latitude": "35.70611000",
    "longitude": "139.55944000",
    "wikiDataId": null
  },
  {
    "id": 64053,
    "name": "Musashino-shi",
    "state_id": 823,
    "state_code": "13",
    "country_id": 109,
    "country_code": "JP",
    "latitude": "35.71771000",
    "longitude": "139.56600000",
    "wikiDataId": null
  },
  {
    "id": 64087,
    "name": "Nakano-ku",
    "state_id": 823,
    "state_code": "13",
    "country_id": 109,
    "country_code": "JP",
    "latitude": "35.71091000",
    "longitude": "139.66248000",
    "wikiDataId": null
  },
  {
    "id": 64122,
    "name": "Nerima-ku",
    "state_id": 823,
    "state_code": "13",
    "country_id": 109,
    "country_code": "JP",
    "latitude": "35.73551000",
    "longitude": "139.65168000",
    "wikiDataId": null
  },
  {
    "id": 64146,
    "name": "Nishi-Tokyo-shi",
    "state_id": 823,
    "state_code": "13",
    "country_id": 109,
    "country_code": "JP",
    "latitude": "35.72526000",
    "longitude": "139.53830000",
    "wikiDataId": null
  },
  {
    "id": 64155,
    "name": "Nishitōkyō-shi",
    "state_id": 823,
    "state_code": "13",
    "country_id": 109,
    "country_code": "JP",
    "latitude": "35.73485000",
    "longitude": "139.54624000",
    "wikiDataId": null
  },
  {
    "id": 64738,
    "name": "Ōme",
    "state_id": 823,
    "state_code": "13",
    "country_id": 109,
    "country_code": "JP",
    "latitude": "35.78389000",
    "longitude": "139.24306000",
    "wikiDataId": null
  },
  {
    "id": 64739,
    "name": "Ōme-shi",
    "state_id": 823,
    "state_code": "13",
    "country_id": 109,
    "country_code": "JP",
    "latitude": "35.78814000",
    "longitude": "139.27501000",
    "wikiDataId": null
  },
  {
    "id": 64758,
    "name": "Ōta-ku",
    "state_id": 823,
    "state_code": "13",
    "country_id": 109,
    "country_code": "JP",
    "latitude": "35.56126000",
    "longitude": "139.71605000",
    "wikiDataId": null
  },
  {
    "id": 64302,
    "name": "Setagaya-ku",
    "state_id": 823,
    "state_code": "13",
    "country_id": 109,
    "country_code": "JP",
    "latitude": "35.64657000",
    "longitude": "139.65325000",
    "wikiDataId": null
  },
  {
    "id": 64316,
    "name": "Shibuya-ku",
    "state_id": 823,
    "state_code": "13",
    "country_id": 109,
    "country_code": "JP",
    "latitude": "35.66404000",
    "longitude": "139.69821000",
    "wikiDataId": null
  },
  {
    "id": 64338,
    "name": "Shinagawa-ku",
    "state_id": 823,
    "state_code": "13",
    "country_id": 109,
    "country_code": "JP",
    "latitude": "35.60902000",
    "longitude": "139.73017000",
    "wikiDataId": null
  },
  {
    "id": 64342,
    "name": "Shinjuku-ku",
    "state_id": 823,
    "state_code": "13",
    "country_id": 109,
    "country_code": "JP",
    "latitude": "35.69384000",
    "longitude": "139.70355000",
    "wikiDataId": null
  },
  {
    "id": 64376,
    "name": "Suginami-ku",
    "state_id": 823,
    "state_code": "13",
    "country_id": 109,
    "country_code": "JP",
    "latitude": "35.69951000",
    "longitude": "139.63641000",
    "wikiDataId": null
  },
  {
    "id": 64383,
    "name": "Sumida-ku",
    "state_id": 823,
    "state_code": "13",
    "country_id": 109,
    "country_code": "JP",
    "latitude": "35.71072000",
    "longitude": "139.80150000",
    "wikiDataId": null
  },
  {
    "id": 64405,
    "name": "Tachikawa-shi",
    "state_id": 823,
    "state_code": "13",
    "country_id": 109,
    "country_code": "JP",
    "latitude": "35.71447000",
    "longitude": "139.40453000",
    "wikiDataId": null
  },
  {
    "id": 64414,
    "name": "Taitō-ku",
    "state_id": 823,
    "state_code": "13",
    "country_id": 109,
    "country_code": "JP",
    "latitude": "35.71261000",
    "longitude": "139.78000000",
    "wikiDataId": null
  },
  {
    "id": 64455,
    "name": "Tama-shi",
    "state_id": 823,
    "state_code": "13",
    "country_id": 109,
    "country_code": "JP",
    "latitude": "35.63054000",
    "longitude": "139.43976000",
    "wikiDataId": null
  },
  {
    "id": 64465,
    "name": "Tanashichō",
    "state_id": 823,
    "state_code": "13",
    "country_id": 109,
    "country_code": "JP",
    "latitude": "35.72922000",
    "longitude": "139.53813000",
    "wikiDataId": null
  },
  {
    "id": 64500,
    "name": "Tokyo",
    "state_id": 823,
    "state_code": "13",
    "country_id": 109,
    "country_code": "JP",
    "latitude": "35.68950000",
    "longitude": "139.69171000",
    "wikiDataId": null
  },
  {
    "id": 64517,
    "name": "Toshima-ku",
    "state_id": 823,
    "state_code": "13",
    "country_id": 109,
    "country_code": "JP",
    "latitude": "35.73246000",
    "longitude": "139.71540000",
    "wikiDataId": null
  },
  {
    "id": 64597,
    "name": "Urayasu",
    "state_id": 823,
    "state_code": "13",
    "country_id": 109,
    "country_code": "JP",
    "latitude": "35.67056000",
    "longitude": "139.88861000",
    "wikiDataId": null
  }
]