[
  {
    "id": 22112,
    "name": "Bakov nad Jizerou",
    "state_id": 4554,
    "state_code": "20",
    "country_id": 58,
    "country_code": "CZ",
    "latitude": "50.48230000",
    "longitude": "14.94149000",
    "wikiDataId": null
  },
  {
    "id": 22202,
    "name": "Bělá pod Bezdězem",
    "state_id": 4554,
    "state_code": "20",
    "country_id": 58,
    "country_code": "CZ",
    "latitude": "50.50121000",
    "longitude": "14.80418000",
    "wikiDataId": null
  },
  {
    "id": 22124,
    "name": "Benátky nad Jizerou",
    "state_id": 4554,
    "state_code": "20",
    "country_id": 58,
    "country_code": "CZ",
    "latitude": "50.29085000",
    "longitude": "14.82343000",
    "wikiDataId": null
  },
  {
    "id": 22121,
    "name": "Benešov",
    "state_id": 4554,
    "state_code": "20",
    "country_id": 58,
    "country_code": "CZ",
    "latitude": "49.78162000",
    "longitude": "14.68697000",
    "wikiDataId": null
  },
  {
    "id": 22126,
    "name": "Beroun",
    "state_id": 4554,
    "state_code": "20",
    "country_id": 58,
    "country_code": "CZ",
    "latitude": "49.96382000",
    "longitude": "14.07200000",
    "wikiDataId": null
  },
  {
    "id": 22141,
    "name": "Bohutín",
    "state_id": 4554,
    "state_code": "20",
    "country_id": 58,
    "country_code": "CZ",
    "latitude": "49.65551000",
    "longitude": "13.94389000",
    "wikiDataId": null
  },
  {
    "id": 22158,
    "name": "Brandýs nad Labem-Stará Boleslav",
    "state_id": 4554,
    "state_code": "20",
    "country_id": 58,
    "country_code": "CZ",
    "latitude": "50.18709000",
    "longitude": "14.66326000",
    "wikiDataId": null
  },
  {
    "id": 22160,
    "name": "Brandýsek",
    "state_id": 4554,
    "state_code": "20",
    "country_id": 58,
    "country_code": "CZ",
    "latitude": "50.18923000",
    "longitude": "14.16199000",
    "wikiDataId": null
  },
  {
    "id": 22206,
    "name": "Březnice",
    "state_id": 4554,
    "state_code": "20",
    "country_id": 58,
    "country_code": "CZ",
    "latitude": "49.55763000",
    "longitude": "13.95063000",
    "wikiDataId": null
  },
  {
    "id": 22181,
    "name": "Buštěhrad",
    "state_id": 4554,
    "state_code": "20",
    "country_id": 58,
    "country_code": "CZ",
    "latitude": "50.15594000",
    "longitude": "14.18897000",
    "wikiDataId": null
  },
  {
    "id": 22189,
    "name": "Byšice",
    "state_id": 4554,
    "state_code": "20",
    "country_id": 58,
    "country_code": "CZ",
    "latitude": "50.31044000",
    "longitude": "14.61136000",
    "wikiDataId": null
  },
  {
    "id": 22185,
    "name": "Bystřice",
    "state_id": 4554,
    "state_code": "20",
    "country_id": 58,
    "country_code": "CZ",
    "latitude": "49.73213000",
    "longitude": "14.66740000",
    "wikiDataId": null
  },
  {
    "id": 23398,
    "name": "Čáslav",
    "state_id": 4554,
    "state_code": "20",
    "country_id": 58,
    "country_code": "CZ",
    "latitude": "49.91099000",
    "longitude": "15.38972000",
    "wikiDataId": null
  },
  {
    "id": 23364,
    "name": "Čechtice",
    "state_id": 4554,
    "state_code": "20",
    "country_id": 58,
    "country_code": "CZ",
    "latitude": "49.62403000",
    "longitude": "15.04824000",
    "wikiDataId": null
  },
  {
    "id": 23369,
    "name": "Čelákovice",
    "state_id": 4554,
    "state_code": "20",
    "country_id": 58,
    "country_code": "CZ",
    "latitude": "50.16038000",
    "longitude": "14.75005000",
    "wikiDataId": null
  },
  {
    "id": 23382,
    "name": "Čerčany",
    "state_id": 4554,
    "state_code": "20",
    "country_id": 58,
    "country_code": "CZ",
    "latitude": "49.85293000",
    "longitude": "14.70299000",
    "wikiDataId": null
  },
  {
    "id": 22215,
    "name": "Cerhenice",
    "state_id": 4554,
    "state_code": "20",
    "country_id": 58,
    "country_code": "CZ",
    "latitude": "50.07127000",
    "longitude": "15.07203000",
    "wikiDataId": null
  },
  {
    "id": 23372,
    "name": "Černošice",
    "state_id": 4554,
    "state_code": "20",
    "country_id": 58,
    "country_code": "CZ",
    "latitude": "49.96008000",
    "longitude": "14.31979000",
    "wikiDataId": null
  },
  {
    "id": 23380,
    "name": "Červené Pečky",
    "state_id": 4554,
    "state_code": "20",
    "country_id": 58,
    "country_code": "CZ",
    "latitude": "49.97822000",
    "longitude": "15.20856000",
    "wikiDataId": null
  },
  {
    "id": 23391,
    "name": "Český Brod",
    "state_id": 4554,
    "state_code": "20",
    "country_id": 58,
    "country_code": "CZ",
    "latitude": "50.07420000",
    "longitude": "14.86081000",
    "wikiDataId": null
  },
  {
    "id": 22241,
    "name": "Chyňava",
    "state_id": 4554,
    "state_code": "20",
    "country_id": 58,
    "country_code": "CZ",
    "latitude": "50.02736000",
    "longitude": "14.07398000",
    "wikiDataId": null
  },
  {
    "id": 22246,
    "name": "Církvice",
    "state_id": 4554,
    "state_code": "20",
    "country_id": 58,
    "country_code": "CZ",
    "latitude": "49.94560000",
    "longitude": "15.33505000",
    "wikiDataId": null
  },
  {
    "id": 22247,
    "name": "Cítov",
    "state_id": 4554,
    "state_code": "20",
    "country_id": 58,
    "country_code": "CZ",
    "latitude": "50.37225000",
    "longitude": "14.39813000",
    "wikiDataId": null
  },
  {
    "id": 22251,
    "name": "Davle",
    "state_id": 4554,
    "state_code": "20",
    "country_id": 58,
    "country_code": "CZ",
    "latitude": "49.89218000",
    "longitude": "14.40037000",
    "wikiDataId": null
  },
  {
    "id": 22255,
    "name": "Divišov",
    "state_id": 4554,
    "state_code": "20",
    "country_id": 58,
    "country_code": "CZ",
    "latitude": "49.78849000",
    "longitude": "14.87579000",
    "wikiDataId": null
  },
  {
    "id": 22264,
    "name": "Dobřichovice",
    "state_id": 4554,
    "state_code": "20",
    "country_id": 58,
    "country_code": "CZ",
    "latitude": "49.92749000",
    "longitude": "14.27469000",
    "wikiDataId": null
  },
  {
    "id": 22266,
    "name": "Dobříš",
    "state_id": 4554,
    "state_code": "20",
    "country_id": 58,
    "country_code": "CZ",
    "latitude": "49.78113000",
    "longitude": "14.16717000",
    "wikiDataId": null
  },
  {
    "id": 22260,
    "name": "Dobrovice",
    "state_id": 4554,
    "state_code": "20",
    "country_id": 58,
    "country_code": "CZ",
    "latitude": "50.36933000",
    "longitude": "14.96233000",
    "wikiDataId": null
  },
  {
    "id": 22268,
    "name": "Doksy",
    "state_id": 4554,
    "state_code": "20",
    "country_id": 58,
    "country_code": "CZ",
    "latitude": "50.11900000",
    "longitude": "14.04782000",
    "wikiDataId": null
  },
  {
    "id": 22273,
    "name": "Dolní Beřkovice",
    "state_id": 4554,
    "state_code": "20",
    "country_id": 58,
    "country_code": "CZ",
    "latitude": "50.39313000",
    "longitude": "14.45024000",
    "wikiDataId": null
  },
  {
    "id": 22276,
    "name": "Dolní Bousov",
    "state_id": 4554,
    "state_code": "20",
    "country_id": 58,
    "country_code": "CZ",
    "latitude": "50.43825000",
    "longitude": "15.12812000",
    "wikiDataId": null
  },
  {
    "id": 22278,
    "name": "Dolní Břežany",
    "state_id": 4554,
    "state_code": "20",
    "country_id": 58,
    "country_code": "CZ",
    "latitude": "49.96321000",
    "longitude": "14.45850000",
    "wikiDataId": null
  },
  {
    "id": 22386,
    "name": "Horní Počaply",
    "state_id": 4554,
    "state_code": "20",
    "country_id": 58,
    "country_code": "CZ",
    "latitude": "50.42440000",
    "longitude": "14.38993000",
    "wikiDataId": null
  },
  {
    "id": 22395,
    "name": "Horoměřice",
    "state_id": 4554,
    "state_code": "20",
    "country_id": 58,
    "country_code": "CZ",
    "latitude": "50.13173000",
    "longitude": "14.33879000",
    "wikiDataId": null
  },
  {
    "id": 22408,
    "name": "Hořovice",
    "state_id": 4554,
    "state_code": "20",
    "country_id": 58,
    "country_code": "CZ",
    "latitude": "49.83597000",
    "longitude": "13.90268000",
    "wikiDataId": null
  },
  {
    "id": 22399,
    "name": "Hostivice",
    "state_id": 4554,
    "state_code": "20",
    "country_id": 58,
    "country_code": "CZ",
    "latitude": "50.08158000",
    "longitude": "14.25856000",
    "wikiDataId": null
  },
  {
    "id": 22401,
    "name": "Hostomice",
    "state_id": 4554,
    "state_code": "20",
    "country_id": 58,
    "country_code": "CZ",
    "latitude": "49.82526000",
    "longitude": "14.04560000",
    "wikiDataId": null
  },
  {
    "id": 22405,
    "name": "Hovorčovice",
    "state_id": 4554,
    "state_code": "20",
    "country_id": 58,
    "country_code": "CZ",
    "latitude": "50.17866000",
    "longitude": "14.51789000",
    "wikiDataId": null
  },
  {
    "id": 22415,
    "name": "Hradištko",
    "state_id": 4554,
    "state_code": "20",
    "country_id": 58,
    "country_code": "CZ",
    "latitude": "49.86828000",
    "longitude": "14.40935000",
    "wikiDataId": null
  },
  {
    "id": 22442,
    "name": "Hřebeč",
    "state_id": 4554,
    "state_code": "20",
    "country_id": 58,
    "country_code": "CZ",
    "latitude": "50.13595000",
    "longitude": "14.16446000",
    "wikiDataId": null
  },
  {
    "id": 22432,
    "name": "Hudlice",
    "state_id": 4554,
    "state_code": "20",
    "country_id": 58,
    "country_code": "CZ",
    "latitude": "49.96096000",
    "longitude": "13.97063000",
    "wikiDataId": null
  },
  {
    "id": 22441,
    "name": "Hýskov",
    "state_id": 4554,
    "state_code": "20",
    "country_id": 58,
    "country_code": "CZ",
    "latitude": "49.99072000",
    "longitude": "14.05055000",
    "wikiDataId": null
  },
  {
    "id": 22465,
    "name": "Jeneč",
    "state_id": 4554,
    "state_code": "20",
    "country_id": 58,
    "country_code": "CZ",
    "latitude": "50.08730000",
    "longitude": "14.21482000",
    "wikiDataId": null
  },
  {
    "id": 22466,
    "name": "Jesenice",
    "state_id": 4554,
    "state_code": "20",
    "country_id": 58,
    "country_code": "CZ",
    "latitude": "49.96814000",
    "longitude": "14.51350000",
    "wikiDataId": null
  },
  {
    "id": 22486,
    "name": "Jílové u Prahy",
    "state_id": 4554,
    "state_code": "20",
    "country_id": 58,
    "country_code": "CZ",
    "latitude": "49.89545000",
    "longitude": "14.49333000",
    "wikiDataId": null
  },
  {
    "id": 22474,
    "name": "Jince",
    "state_id": 4554,
    "state_code": "20",
    "country_id": 58,
    "country_code": "CZ",
    "latitude": "49.78624000",
    "longitude": "13.97867000",
    "wikiDataId": null
  },
  {
    "id": 22478,
    "name": "Jirny",
    "state_id": 4554,
    "state_code": "20",
    "country_id": 58,
    "country_code": "CZ",
    "latitude": "50.11578000",
    "longitude": "14.69923000",
    "wikiDataId": null
  },
  {
    "id": 22505,
    "name": "Kačice",
    "state_id": 4554,
    "state_code": "20",
    "country_id": 58,
    "country_code": "CZ",
    "latitude": "50.16261000",
    "longitude": "13.98815000",
    "wikiDataId": null
  },
  {
    "id": 22489,
    "name": "Kamenice",
    "state_id": 4554,
    "state_code": "20",
    "country_id": 58,
    "country_code": "CZ",
    "latitude": "49.90151000",
    "longitude": "14.58242000",
    "wikiDataId": null
  },
  {
    "id": 22492,
    "name": "Kamenné Žehrovice",
    "state_id": 4554,
    "state_code": "20",
    "country_id": 58,
    "country_code": "CZ",
    "latitude": "50.12697000",
    "longitude": "14.01809000",
    "wikiDataId": null
  },
  {
    "id": 22493,
    "name": "Kamenný Přívoz",
    "state_id": 4554,
    "state_code": "20",
    "country_id": 58,
    "country_code": "CZ",
    "latitude": "49.86299000",
    "longitude": "14.50339000",
    "wikiDataId": null
  },
  {
    "id": 22510,
    "name": "Kladno",
    "state_id": 4554,
    "state_code": "20",
    "country_id": 58,
    "country_code": "CZ",
    "latitude": "50.14734000",
    "longitude": "14.10285000",
    "wikiDataId": null
  },
  {
    "id": 22513,
    "name": "Klecany",
    "state_id": 4554,
    "state_code": "20",
    "country_id": 58,
    "country_code": "CZ",
    "latitude": "50.17599000",
    "longitude": "14.41148000",
    "wikiDataId": null
  },
  {
    "id": 22517,
    "name": "Klobuky",
    "state_id": 4554,
    "state_code": "20",
    "country_id": 58,
    "country_code": "CZ",
    "latitude": "50.29401000",
    "longitude": "13.98748000",
    "wikiDataId": null
  },
  {
    "id": 22522,
    "name": "Kněžmost",
    "state_id": 4554,
    "state_code": "20",
    "country_id": 58,
    "country_code": "CZ",
    "latitude": "50.48917000",
    "longitude": "15.03829000",
    "wikiDataId": null
  },
  {
    "id": 22529,
    "name": "Kolín",
    "state_id": 4554,
    "state_code": "20",
    "country_id": 58,
    "country_code": "CZ",
    "latitude": "50.02806000",
    "longitude": "15.19980000",
    "wikiDataId": null
  },
  {
    "id": 22531,
    "name": "Komárov",
    "state_id": 4554,
    "state_code": "20",
    "country_id": 58,
    "country_code": "CZ",
    "latitude": "49.80650000",
    "longitude": "13.85636000",
    "wikiDataId": null
  },
  {
    "id": 22536,
    "name": "Kosmonosy",
    "state_id": 4554,
    "state_code": "20",
    "country_id": 58,
    "country_code": "CZ",
    "latitude": "50.43850000",
    "longitude": "14.93000000",
    "wikiDataId": null
  },
  {
    "id": 22537,
    "name": "Kosova Hora",
    "state_id": 4554,
    "state_code": "20",
    "country_id": 58,
    "country_code": "CZ",
    "latitude": "49.65414000",
    "longitude": "14.47173000",
    "wikiDataId": null
  },
  {
    "id": 22541,
    "name": "Kostelec nad Černými Lesy",
    "state_id": 4554,
    "state_code": "20",
    "country_id": 58,
    "country_code": "CZ",
    "latitude": "49.99403000",
    "longitude": "14.85922000",
    "wikiDataId": null
  },
  {
    "id": 22539,
    "name": "Kostelec nad Labem",
    "state_id": 4554,
    "state_code": "20",
    "country_id": 58,
    "country_code": "CZ",
    "latitude": "50.22653000",
    "longitude": "14.58552000",
    "wikiDataId": null
  },
  {
    "id": 22544,
    "name": "Kouřim",
    "state_id": 4554,
    "state_code": "20",
    "country_id": 58,
    "country_code": "CZ",
    "latitude": "50.00306000",
    "longitude": "14.97703000",
    "wikiDataId": null
  },
  {
    "id": 22555,
    "name": "Kralupy nad Vltavou",
    "state_id": 4554,
    "state_code": "20",
    "country_id": 58,
    "country_code": "CZ",
    "latitude": "50.24107000",
    "longitude": "14.31149000",
    "wikiDataId": null
  },
  {
    "id": 22566,
    "name": "Králův Dvůr",
    "state_id": 4554,
    "state_code": "20",
    "country_id": 58,
    "country_code": "CZ",
    "latitude": "49.94981000",
    "longitude": "14.03445000",
    "wikiDataId": null
  },
  {
    "id": 22567,
    "name": "Krásná Hora nad Vltavou",
    "state_id": 4554,
    "state_code": "20",
    "country_id": 58,
    "country_code": "CZ",
    "latitude": "49.60461000",
    "longitude": "14.27742000",
    "wikiDataId": null
  },
  {
    "id": 22587,
    "name": "Křinec",
    "state_id": 4554,
    "state_code": "20",
    "country_id": 58,
    "country_code": "CZ",
    "latitude": "50.26449000",
    "longitude": "15.13782000",
    "wikiDataId": null
  },
  {
    "id": 22576,
    "name": "Kutná Hora",
    "state_id": 4554,
    "state_code": "20",
    "country_id": 58,
    "country_code": "CZ",
    "latitude": "49.94839000",
    "longitude": "15.26816000",
    "wikiDataId": null
  },
  {
    "id": 22661,
    "name": "Lány",
    "state_id": 4554,
    "state_code": "20",
    "country_id": 58,
    "country_code": "CZ",
    "latitude": "50.12471000",
    "longitude": "13.95041000",
    "wikiDataId": null
  },
  {
    "id": 22612,
    "name": "Libčice nad Vltavou",
    "state_id": 4554,
    "state_code": "20",
    "country_id": 58,
    "country_code": "CZ",
    "latitude": "50.19778000",
    "longitude": "14.36385000",
    "wikiDataId": null
  },
  {
    "id": 22665,
    "name": "Líbeznice",
    "state_id": 4554,
    "state_code": "20",
    "country_id": 58,
    "country_code": "CZ",
    "latitude": "50.19198000",
    "longitude": "14.49357000",
    "wikiDataId": null
  },
  {
    "id": 22606,
    "name": "Libice nad Cidlinou",
    "state_id": 4554,
    "state_code": "20",
    "country_id": 58,
    "country_code": "CZ",
    "latitude": "50.12677000",
    "longitude": "15.17820000",
    "wikiDataId": null
  },
  {
    "id": 22607,
    "name": "Libiš",
    "state_id": 4554,
    "state_code": "20",
    "country_id": 58,
    "country_code": "CZ",
    "latitude": "50.27417000",
    "longitude": "14.50240000",
    "wikiDataId": null
  },
  {
    "id": 22610,
    "name": "Libušín",
    "state_id": 4554,
    "state_code": "20",
    "country_id": 58,
    "country_code": "CZ",
    "latitude": "50.16819000",
    "longitude": "14.05458000",
    "wikiDataId": null
  },
  {
    "id": 22628,
    "name": "Lochovice",
    "state_id": 4554,
    "state_code": "20",
    "country_id": 58,
    "country_code": "CZ",
    "latitude": "49.85318000",
    "longitude": "13.98126000",
    "wikiDataId": null
  },
  {
    "id": 22629,
    "name": "Loděnice",
    "state_id": 4554,
    "state_code": "20",
    "country_id": 58,
    "country_code": "CZ",
    "latitude": "49.99486000",
    "longitude": "14.15785000",
    "wikiDataId": null
  },
  {
    "id": 22638,
    "name": "Loučeň",
    "state_id": 4554,
    "state_code": "20",
    "country_id": 58,
    "country_code": "CZ",
    "latitude": "50.28537000",
    "longitude": "15.02049000",
    "wikiDataId": null
  },
  {
    "id": 22654,
    "name": "Luštěnice",
    "state_id": 4554,
    "state_code": "20",
    "country_id": 58,
    "country_code": "CZ",
    "latitude": "50.32296000",
    "longitude": "14.93667000",
    "wikiDataId": null
  },
  {
    "id": 22656,
    "name": "Lužec nad Vltavou",
    "state_id": 4554,
    "state_code": "20",
    "country_id": 58,
    "country_code": "CZ",
    "latitude": "50.32138000",
    "longitude": "14.40022000",
    "wikiDataId": null
  },
  {
    "id": 22658,
    "name": "Lužná",
    "state_id": 4554,
    "state_code": "20",
    "country_id": 58,
    "country_code": "CZ",
    "latitude": "50.12377000",
    "longitude": "13.77004000",
    "wikiDataId": null
  },
  {
    "id": 22660,
    "name": "Lysá nad Labem",
    "state_id": 4554,
    "state_code": "20",
    "country_id": 58,
    "country_code": "CZ",
    "latitude": "50.20143000",
    "longitude": "14.83281000",
    "wikiDataId": null
  },
  {
    "id": 22736,
    "name": "Mělník",
    "state_id": 4554,
    "state_code": "20",
    "country_id": 58,
    "country_code": "CZ",
    "latitude": "50.35050000",
    "longitude": "14.47411000",
    "wikiDataId": null
  },
  {
    "id": 22747,
    "name": "Měšice",
    "state_id": 4554,
    "state_code": "20",
    "country_id": 58,
    "country_code": "CZ",
    "latitude": "50.19799000",
    "longitude": "14.51992000",
    "wikiDataId": null
  },
  {
    "id": 22738,
    "name": "Městec Králové",
    "state_id": 4554,
    "state_code": "20",
    "country_id": 58,
    "country_code": "CZ",
    "latitude": "50.20718000",
    "longitude": "15.29758000",
    "wikiDataId": null
  },
  {
    "id": 22693,
    "name": "Milín",
    "state_id": 4554,
    "state_code": "20",
    "country_id": 58,
    "country_code": "CZ",
    "latitude": "49.63192000",
    "longitude": "14.04600000",
    "wikiDataId": null
  },
  {
    "id": 22691,
    "name": "Milovice",
    "state_id": 4554,
    "state_code": "20",
    "country_id": 58,
    "country_code": "CZ",
    "latitude": "50.22596000",
    "longitude": "14.88863000",
    "wikiDataId": null
  },
  {
    "id": 22701,
    "name": "Mladá Boleslav",
    "state_id": 4554,
    "state_code": "20",
    "country_id": 58,
    "country_code": "CZ",
    "latitude": "50.41135000",
    "longitude": "14.90318000",
    "wikiDataId": null
  },
  {
    "id": 22704,
    "name": "Mnichovice",
    "state_id": 4554,
    "state_code": "20",
    "country_id": 58,
    "country_code": "CZ",
    "latitude": "49.93601000",
    "longitude": "14.70907000",
    "wikiDataId": null
  },
  {
    "id": 22705,
    "name": "Mnichovo Hradiště",
    "state_id": 4554,
    "state_code": "20",
    "country_id": 58,
    "country_code": "CZ",
    "latitude": "50.52720000",
    "longitude": "14.97134000",
    "wikiDataId": null
  },
  {
    "id": 22707,
    "name": "Mníšek pod Brdy",
    "state_id": 4554,
    "state_code": "20",
    "country_id": 58,
    "country_code": "CZ",
    "latitude": "49.86650000",
    "longitude": "14.26176000",
    "wikiDataId": null
  },
  {
    "id": 22748,
    "name": "Mšeno",
    "state_id": 4554,
    "state_code": "20",
    "country_id": 58,
    "country_code": "CZ",
    "latitude": "50.43809000",
    "longitude": "14.63250000",
    "wikiDataId": null
  },
  {
    "id": 22732,
    "name": "Mukařov",
    "state_id": 4554,
    "state_code": "20",
    "country_id": 58,
    "country_code": "CZ",
    "latitude": "49.99115000",
    "longitude": "14.74155000",
    "wikiDataId": null
  },
  {
    "id": 22751,
    "name": "Načeradec",
    "state_id": 4554,
    "state_code": "20",
    "country_id": 58,
    "country_code": "CZ",
    "latitude": "49.61018000",
    "longitude": "14.90633000",
    "wikiDataId": null
  },
  {
    "id": 22756,
    "name": "Nehvizdy",
    "state_id": 4554,
    "state_code": "20",
    "country_id": 58,
    "country_code": "CZ",
    "latitude": "50.13056000",
    "longitude": "14.72993000",
    "wikiDataId": null
  },
  {
    "id": 22758,
    "name": "Nelahozeves",
    "state_id": 4554,
    "state_code": "20",
    "country_id": 58,
    "country_code": "CZ",
    "latitude": "50.26148000",
    "longitude": "14.29881000",
    "wikiDataId": null
  },
  {
    "id": 22760,
    "name": "Neratovice",
    "state_id": 4554,
    "state_code": "20",
    "country_id": 58,
    "country_code": "CZ",
    "latitude": "50.25926000",
    "longitude": "14.51759000",
    "wikiDataId": null
  },
  {
    "id": 22763,
    "name": "Netvořice",
    "state_id": 4554,
    "state_code": "20",
    "country_id": 58,
    "country_code": "CZ",
    "latitude": "49.81569000",
    "longitude": "14.51827000",
    "wikiDataId": null
  },
  {
    "id": 22764,
    "name": "Neveklov",
    "state_id": 4554,
    "state_code": "20",
    "country_id": 58,
    "country_code": "CZ",
    "latitude": "49.75373000",
    "longitude": "14.53291000",
    "wikiDataId": null
  },
  {
    "id": 22768,
    "name": "Nižbor",
    "state_id": 4554,
    "state_code": "20",
    "country_id": 58,
    "country_code": "CZ",
    "latitude": "49.99995000",
    "longitude": "14.00237000",
    "wikiDataId": null
  },
  {
    "id": 22782,
    "name": "Nové Strašecí",
    "state_id": 4554,
    "state_code": "20",
    "country_id": 58,
    "country_code": "CZ",
    "latitude": "50.15272000",
    "longitude": "13.90043000",
    "wikiDataId": null
  },
  {
    "id": 22789,
    "name": "Nový Knín",
    "state_id": 4554,
    "state_code": "20",
    "country_id": 58,
    "country_code": "CZ",
    "latitude": "49.78800000",
    "longitude": "14.29355000",
    "wikiDataId": null
  },
  {
    "id": 22791,
    "name": "Nymburk",
    "state_id": 4554,
    "state_code": "20",
    "country_id": 58,
    "country_code": "CZ",
    "latitude": "50.18605000",
    "longitude": "15.04167000",
    "wikiDataId": null
  },
  {
    "id": 22801,
    "name": "Obecnice",
    "state_id": 4554,
    "state_code": "20",
    "country_id": 58,
    "country_code": "CZ",
    "latitude": "49.71615000",
    "longitude": "13.94731000",
    "wikiDataId": null
  },
  {
    "id": 22803,
    "name": "Odolena Voda",
    "state_id": 4554,
    "state_code": "20",
    "country_id": 58,
    "country_code": "CZ",
    "latitude": "50.23341000",
    "longitude": "14.41078000",
    "wikiDataId": null
  },
  {
    "id": 22806,
    "name": "Okres Benešov",
    "state_id": 4554,
    "state_code": "20",
    "country_id": 58,
    "country_code": "CZ",
    "latitude": "49.66667000",
    "longitude": "14.75000000",
    "wikiDataId": null
  },
  {
    "id": 22807,
    "name": "Okres Beroun",
    "state_id": 4554,
    "state_code": "20",
    "country_id": 58,
    "country_code": "CZ",
    "latitude": "49.83333000",
    "longitude": "14.08333000",
    "wikiDataId": null
  },
  {
    "id": 22828,
    "name": "Okres Kladno",
    "state_id": 4554,
    "state_code": "20",
    "country_id": 58,
    "country_code": "CZ",
    "latitude": "50.16667000",
    "longitude": "14.16667000",
    "wikiDataId": null
  },
  {
    "id": 22830,
    "name": "Okres Kolín",
    "state_id": 4554,
    "state_code": "20",
    "country_id": 58,
    "country_code": "CZ",
    "latitude": "50.00000000",
    "longitude": "15.00000000",
    "wikiDataId": null
  },
  {
    "id": 22832,
    "name": "Okres Kutná Hora",
    "state_id": 4554,
    "state_code": "20",
    "country_id": 58,
    "country_code": "CZ",
    "latitude": "49.83333000",
    "longitude": "15.25000000",
    "wikiDataId": null
  },
  {
    "id": 22838,
    "name": "Okres Mělník",
    "state_id": 4554,
    "state_code": "20",
    "country_id": 58,
    "country_code": "CZ",
    "latitude": "50.33333000",
    "longitude": "14.50000000",
    "wikiDataId": null
  },
  {
    "id": 22836,
    "name": "Okres Mladá Boleslav",
    "state_id": 4554,
    "state_code": "20",
    "country_id": 58,
    "country_code": "CZ",
    "latitude": "50.41667000",
    "longitude": "14.91667000",
    "wikiDataId": null
  },
  {
    "id": 22840,
    "name": "Okres Nymburk",
    "state_id": 4554,
    "state_code": "20",
    "country_id": 58,
    "country_code": "CZ",
    "latitude": "50.16667000",
    "longitude": "15.16667000",
    "wikiDataId": null
  },
  {
    "id": 22851,
    "name": "Okres Praha-východ",
    "state_id": 4554,
    "state_code": "20",
    "country_id": 58,
    "country_code": "CZ",
    "latitude": "50.11768000",
    "longitude": "14.70836000",
    "wikiDataId": null
  },
  {
    "id": 22852,
    "name": "Okres Praha-západ",
    "state_id": 4554,
    "state_code": "20",
    "country_id": 58,
    "country_code": "CZ",
    "latitude": "49.83333000",
    "longitude": "14.33333000",
    "wikiDataId": null
  },
  {
    "id": 22856,
    "name": "Okres Příbram",
    "state_id": 4554,
    "state_code": "20",
    "country_id": 58,
    "country_code": "CZ",
    "latitude": "49.66667000",
    "longitude": "14.16667000",
    "wikiDataId": null
  },
  {
    "id": 22857,
    "name": "Okres Rakovník",
    "state_id": 4554,
    "state_code": "20",
    "country_id": 58,
    "country_code": "CZ",
    "latitude": "50.10000000",
    "longitude": "13.70000000",
    "wikiDataId": null
  },
  {
    "id": 22889,
    "name": "Ondřejov",
    "state_id": 4554,
    "state_code": "20",
    "country_id": 58,
    "country_code": "CZ",
    "latitude": "49.90461000",
    "longitude": "14.78420000",
    "wikiDataId": null
  },
  {
    "id": 22922,
    "name": "Pavlíkov",
    "state_id": 4554,
    "state_code": "20",
    "country_id": 58,
    "country_code": "CZ",
    "latitude": "50.05599000",
    "longitude": "13.73636000",
    "wikiDataId": null
  },
  {
    "id": 22923,
    "name": "Pchery",
    "state_id": 4554,
    "state_code": "20",
    "country_id": 58,
    "country_code": "CZ",
    "latitude": "50.19378000",
    "longitude": "14.11782000",
    "wikiDataId": null
  },
  {
    "id": 22932,
    "name": "Pečky",
    "state_id": 4554,
    "state_code": "20",
    "country_id": 58,
    "country_code": "CZ",
    "latitude": "50.09043000",
    "longitude": "15.03017000",
    "wikiDataId": null
  },
  {
    "id": 22929,
    "name": "Petrovice",
    "state_id": 4554,
    "state_code": "20",
    "country_id": 58,
    "country_code": "CZ",
    "latitude": "49.55426000",
    "longitude": "14.33737000",
    "wikiDataId": null
  },
  {
    "id": 22939,
    "name": "Plaňany",
    "state_id": 4554,
    "state_code": "20",
    "country_id": 58,
    "country_code": "CZ",
    "latitude": "50.05010000",
    "longitude": "15.02944000",
    "wikiDataId": null
  },
  {
    "id": 22947,
    "name": "Poděbrady",
    "state_id": 4554,
    "state_code": "20",
    "country_id": 58,
    "country_code": "CZ",
    "latitude": "50.14242000",
    "longitude": "15.11881000",
    "wikiDataId": null
  },
  {
    "id": 22966,
    "name": "Poříčany",
    "state_id": 4554,
    "state_code": "20",
    "country_id": 58,
    "country_code": "CZ",
    "latitude": "50.10806000",
    "longitude": "14.91818000",
    "wikiDataId": null
  },
  {
    "id": 22967,
    "name": "Poříčí nad Sázavou",
    "state_id": 4554,
    "state_code": "20",
    "country_id": 58,
    "country_code": "CZ",
    "latitude": "49.83895000",
    "longitude": "14.67446000",
    "wikiDataId": null
  },
  {
    "id": 22958,
    "name": "Postupice",
    "state_id": 4554,
    "state_code": "20",
    "country_id": 58,
    "country_code": "CZ",
    "latitude": "49.72798000",
    "longitude": "14.77722000",
    "wikiDataId": null
  },
  {
    "id": 23002,
    "name": "Přerov nad Labem",
    "state_id": 4554,
    "state_code": "20",
    "country_id": 58,
    "country_code": "CZ",
    "latitude": "50.16027000",
    "longitude": "14.82502000",
    "wikiDataId": null
  },
  {
    "id": 23008,
    "name": "Příbram",
    "state_id": 4554,
    "state_code": "20",
    "country_id": 58,
    "country_code": "CZ",
    "latitude": "49.68988000",
    "longitude": "14.01043000",
    "wikiDataId": null
  },
  {
    "id": 22986,
    "name": "Průhonice",
    "state_id": 4554,
    "state_code": "20",
    "country_id": 58,
    "country_code": "CZ",
    "latitude": "49.99962000",
    "longitude": "14.55017000",
    "wikiDataId": null
  },
  {
    "id": 22987,
    "name": "Psáry",
    "state_id": 4554,
    "state_code": "20",
    "country_id": 58,
    "country_code": "CZ",
    "latitude": "49.93622000",
    "longitude": "14.51276000",
    "wikiDataId": null
  },
  {
    "id": 22991,
    "name": "Pyšely",
    "state_id": 4554,
    "state_code": "20",
    "country_id": 58,
    "country_code": "CZ",
    "latitude": "49.87678000",
    "longitude": "14.67713000",
    "wikiDataId": null
  },
  {
    "id": 23019,
    "name": "Rakovník",
    "state_id": 4554,
    "state_code": "20",
    "country_id": 58,
    "country_code": "CZ",
    "latitude": "50.10370000",
    "longitude": "13.73340000",
    "wikiDataId": null
  },
  {
    "id": 23402,
    "name": "Řevnice",
    "state_id": 4554,
    "state_code": "20",
    "country_id": 58,
    "country_code": "CZ",
    "latitude": "49.91395000",
    "longitude": "14.23589000",
    "wikiDataId": null
  },
  {
    "id": 23403,
    "name": "Řevničov",
    "state_id": 4554,
    "state_code": "20",
    "country_id": 58,
    "country_code": "CZ",
    "latitude": "50.18489000",
    "longitude": "13.80823000",
    "wikiDataId": null
  },
  {
    "id": 23405,
    "name": "Řež",
    "state_id": 4554,
    "state_code": "20",
    "country_id": 58,
    "country_code": "CZ",
    "latitude": "50.17734000",
    "longitude": "14.35733000",
    "wikiDataId": null
  },
  {
    "id": 23406,
    "name": "Říčany",
    "state_id": 4554,
    "state_code": "20",
    "country_id": 58,
    "country_code": "CZ",
    "latitude": "49.99168000",
    "longitude": "14.65427000",
    "wikiDataId": null
  },
  {
    "id": 23044,
    "name": "Rožďalovice",
    "state_id": 4554,
    "state_code": "20",
    "country_id": 58,
    "country_code": "CZ",
    "latitude": "50.30476000",
    "longitude": "15.16962000",
    "wikiDataId": null
  },
  {
    "id": 23042,
    "name": "Rožmitál pod Třemšínem",
    "state_id": 4554,
    "state_code": "20",
    "country_id": 58,
    "country_code": "CZ",
    "latitude": "49.60196000",
    "longitude": "13.86430000",
    "wikiDataId": null
  },
  {
    "id": 23041,
    "name": "Roztoky",
    "state_id": 4554,
    "state_code": "20",
    "country_id": 58,
    "country_code": "CZ",
    "latitude": "50.15841000",
    "longitude": "14.39760000",
    "wikiDataId": null
  },
  {
    "id": 23047,
    "name": "Rudná",
    "state_id": 4554,
    "state_code": "20",
    "country_id": 58,
    "country_code": "CZ",
    "latitude": "50.03502000",
    "longitude": "14.23435000",
    "wikiDataId": null
  },
  {
    "id": 23059,
    "name": "Sadská",
    "state_id": 4554,
    "state_code": "20",
    "country_id": 58,
    "country_code": "CZ",
    "latitude": "50.13596000",
    "longitude": "14.98633000",
    "wikiDataId": null
  },
  {
    "id": 23154,
    "name": "Sázava",
    "state_id": 4554,
    "state_code": "20",
    "country_id": 58,
    "country_code": "CZ",
    "latitude": "49.87164000",
    "longitude": "14.89674000",
    "wikiDataId": null
  },
  {
    "id": 23066,
    "name": "Sedlčany",
    "state_id": 4554,
    "state_code": "20",
    "country_id": 58,
    "country_code": "CZ",
    "latitude": "49.66057000",
    "longitude": "14.42664000",
    "wikiDataId": null
  },
  {
    "id": 23062,
    "name": "Sedlec",
    "state_id": 4554,
    "state_code": "20",
    "country_id": 58,
    "country_code": "CZ",
    "latitude": "49.96391000",
    "longitude": "15.28846000",
    "wikiDataId": null
  },
  {
    "id": 23413,
    "name": "Šestajovice",
    "state_id": 4554,
    "state_code": "20",
    "country_id": 58,
    "country_code": "CZ",
    "latitude": "50.10845000",
    "longitude": "14.68013000",
    "wikiDataId": null
  },
  {
    "id": 23077,
    "name": "Slaný",
    "state_id": 4554,
    "state_code": "20",
    "country_id": 58,
    "country_code": "CZ",
    "latitude": "50.23046000",
    "longitude": "14.08693000",
    "wikiDataId": null
  },
  {
    "id": 23085,
    "name": "Smečno",
    "state_id": 4554,
    "state_code": "20",
    "country_id": 58,
    "country_code": "CZ",
    "latitude": "50.18844000",
    "longitude": "14.04037000",
    "wikiDataId": null
  },
  {
    "id": 23100,
    "name": "Stará Huť",
    "state_id": 4554,
    "state_code": "20",
    "country_id": 58,
    "country_code": "CZ",
    "latitude": "49.78225000",
    "longitude": "14.19735000",
    "wikiDataId": null
  },
  {
    "id": 23112,
    "name": "Starý Kolín",
    "state_id": 4554,
    "state_code": "20",
    "country_id": 58,
    "country_code": "CZ",
    "latitude": "50.00977000",
    "longitude": "15.29388000",
    "wikiDataId": null
  },
  {
    "id": 23426,
    "name": "Štěchovice",
    "state_id": 4554,
    "state_code": "20",
    "country_id": 58,
    "country_code": "CZ",
    "latitude": "49.85109000",
    "longitude": "14.40543000",
    "wikiDataId": null
  },
  {
    "id": 23117,
    "name": "Stochov",
    "state_id": 4554,
    "state_code": "20",
    "country_id": 58,
    "country_code": "CZ",
    "latitude": "50.14631000",
    "longitude": "13.96345000",
    "wikiDataId": null
  },
  {
    "id": 23121,
    "name": "Strančice",
    "state_id": 4554,
    "state_code": "20",
    "country_id": 58,
    "country_code": "CZ",
    "latitude": "49.94811000",
    "longitude": "14.67745000",
    "wikiDataId": null
  },
  {
    "id": 23140,
    "name": "Suchdol",
    "state_id": 4554,
    "state_code": "20",
    "country_id": 58,
    "country_code": "CZ",
    "latitude": "49.95247000",
    "longitude": "15.16651000",
    "wikiDataId": null
  },
  {
    "id": 23165,
    "name": "Tišice",
    "state_id": 4554,
    "state_code": "20",
    "country_id": 58,
    "country_code": "CZ",
    "latitude": "50.26980000",
    "longitude": "14.55411000",
    "wikiDataId": null
  },
  {
    "id": 23199,
    "name": "Třebotov",
    "state_id": 4554,
    "state_code": "20",
    "country_id": 58,
    "country_code": "CZ",
    "latitude": "49.97244000",
    "longitude": "14.29127000",
    "wikiDataId": null
  },
  {
    "id": 23174,
    "name": "Trhový Štěpánov",
    "state_id": 4554,
    "state_code": "20",
    "country_id": 58,
    "country_code": "CZ",
    "latitude": "49.71147000",
    "longitude": "15.01356000",
    "wikiDataId": null
  },
  {
    "id": 23183,
    "name": "Tuchlovice",
    "state_id": 4554,
    "state_code": "20",
    "country_id": 58,
    "country_code": "CZ",
    "latitude": "50.13803000",
    "longitude": "13.99115000",
    "wikiDataId": null
  },
  {
    "id": 23184,
    "name": "Tuchoměřice",
    "state_id": 4554,
    "state_code": "20",
    "country_id": 58,
    "country_code": "CZ",
    "latitude": "50.13543000",
    "longitude": "14.28218000",
    "wikiDataId": null
  },
  {
    "id": 23192,
    "name": "Týnec nad Labem",
    "state_id": 4554,
    "state_code": "20",
    "country_id": 58,
    "country_code": "CZ",
    "latitude": "50.04202000",
    "longitude": "15.35836000",
    "wikiDataId": null
  },
  {
    "id": 23193,
    "name": "Týnec nad Sázavou",
    "state_id": 4554,
    "state_code": "20",
    "country_id": 58,
    "country_code": "CZ",
    "latitude": "49.83348000",
    "longitude": "14.58983000",
    "wikiDataId": null
  },
  {
    "id": 23209,
    "name": "Uhlířské Janovice",
    "state_id": 4554,
    "state_code": "20",
    "country_id": 58,
    "country_code": "CZ",
    "latitude": "49.88019000",
    "longitude": "15.06481000",
    "wikiDataId": null
  },
  {
    "id": 23210,
    "name": "Unhošť",
    "state_id": 4554,
    "state_code": "20",
    "country_id": 58,
    "country_code": "CZ",
    "latitude": "50.08535000",
    "longitude": "14.13007000",
    "wikiDataId": null
  },
  {
    "id": 23360,
    "name": "Úvaly",
    "state_id": 4554,
    "state_code": "20",
    "country_id": 58,
    "country_code": "CZ",
    "latitude": "50.07394000",
    "longitude": "14.73080000",
    "wikiDataId": null
  },
  {
    "id": 23229,
    "name": "Velim",
    "state_id": 4554,
    "state_code": "20",
    "country_id": 58,
    "country_code": "CZ",
    "latitude": "50.05965000",
    "longitude": "15.10711000",
    "wikiDataId": null
  },
  {
    "id": 23232,
    "name": "Velká Dobrá",
    "state_id": 4554,
    "state_code": "20",
    "country_id": 58,
    "country_code": "CZ",
    "latitude": "50.10964000",
    "longitude": "14.06980000",
    "wikiDataId": null
  },
  {
    "id": 23247,
    "name": "Velké Popovice",
    "state_id": 4554,
    "state_code": "20",
    "country_id": 58,
    "country_code": "CZ",
    "latitude": "49.92252000",
    "longitude": "14.63934000",
    "wikiDataId": null
  },
  {
    "id": 23249,
    "name": "Velké Přílepy",
    "state_id": 4554,
    "state_code": "20",
    "country_id": 58,
    "country_code": "CZ",
    "latitude": "50.16050000",
    "longitude": "14.31447000",
    "wikiDataId": null
  },
  {
    "id": 23252,
    "name": "Velký Osek",
    "state_id": 4554,
    "state_code": "20",
    "country_id": 58,
    "country_code": "CZ",
    "latitude": "50.09867000",
    "longitude": "15.18629000",
    "wikiDataId": null
  },
  {
    "id": 23256,
    "name": "Veltruby",
    "state_id": 4554,
    "state_code": "20",
    "country_id": 58,
    "country_code": "CZ",
    "latitude": "50.07059000",
    "longitude": "15.18454000",
    "wikiDataId": null
  },
  {
    "id": 23257,
    "name": "Veltrusy",
    "state_id": 4554,
    "state_code": "20",
    "country_id": 58,
    "country_code": "CZ",
    "latitude": "50.27046000",
    "longitude": "14.32857000",
    "wikiDataId": null
  },
  {
    "id": 23258,
    "name": "Velvary",
    "state_id": 4554,
    "state_code": "20",
    "country_id": 58,
    "country_code": "CZ",
    "latitude": "50.28152000",
    "longitude": "14.23616000",
    "wikiDataId": null
  },
  {
    "id": 23263,
    "name": "Vestec",
    "state_id": 4554,
    "state_code": "20",
    "country_id": 58,
    "country_code": "CZ",
    "latitude": "49.98050000",
    "longitude": "14.50487000",
    "wikiDataId": null
  },
  {
    "id": 23272,
    "name": "Vinařice",
    "state_id": 4554,
    "state_code": "20",
    "country_id": 58,
    "country_code": "CZ",
    "latitude": "50.17585000",
    "longitude": "14.09106000",
    "wikiDataId": null
  },
  {
    "id": 23281,
    "name": "Vlašim",
    "state_id": 4554,
    "state_code": "20",
    "country_id": 58,
    "country_code": "CZ",
    "latitude": "49.70632000",
    "longitude": "14.89881000",
    "wikiDataId": null
  },
  {
    "id": 23290,
    "name": "Votice",
    "state_id": 4554,
    "state_code": "20",
    "country_id": 58,
    "country_code": "CZ",
    "latitude": "49.64013000",
    "longitude": "14.63809000",
    "wikiDataId": null
  },
  {
    "id": 23293,
    "name": "Vrané nad Vltavou",
    "state_id": 4554,
    "state_code": "20",
    "country_id": 58,
    "country_code": "CZ",
    "latitude": "49.93585000",
    "longitude": "14.37706000",
    "wikiDataId": null
  },
  {
    "id": 23301,
    "name": "Vrdy",
    "state_id": 4554,
    "state_code": "20",
    "country_id": 58,
    "country_code": "CZ",
    "latitude": "49.92153000",
    "longitude": "15.47243000",
    "wikiDataId": null
  },
  {
    "id": 23318,
    "name": "Všenory",
    "state_id": 4554,
    "state_code": "20",
    "country_id": 58,
    "country_code": "CZ",
    "latitude": "49.92883000",
    "longitude": "14.30392000",
    "wikiDataId": null
  },
  {
    "id": 23321,
    "name": "Všetaty",
    "state_id": 4554,
    "state_code": "20",
    "country_id": 58,
    "country_code": "CZ",
    "latitude": "50.28187000",
    "longitude": "14.59297000",
    "wikiDataId": null
  },
  {
    "id": 23324,
    "name": "Zaječov",
    "state_id": 4554,
    "state_code": "20",
    "country_id": 58,
    "country_code": "CZ",
    "latitude": "49.77435000",
    "longitude": "13.84072000",
    "wikiDataId": null
  },
  {
    "id": 23351,
    "name": "Zásmuky",
    "state_id": 4554,
    "state_code": "20",
    "country_id": 58,
    "country_code": "CZ",
    "latitude": "49.95470000",
    "longitude": "15.03058000",
    "wikiDataId": null
  },
  {
    "id": 23331,
    "name": "Zbraslavice",
    "state_id": 4554,
    "state_code": "20",
    "country_id": 58,
    "country_code": "CZ",
    "latitude": "49.81179000",
    "longitude": "15.18319000",
    "wikiDataId": null
  },
  {
    "id": 23458,
    "name": "Žďár",
    "state_id": 4554,
    "state_code": "20",
    "country_id": 58,
    "country_code": "CZ",
    "latitude": "50.54366000",
    "longitude": "15.08034000",
    "wikiDataId": null
  },
  {
    "id": 23334,
    "name": "Zdiby",
    "state_id": 4554,
    "state_code": "20",
    "country_id": 58,
    "country_code": "CZ",
    "latitude": "50.16799000",
    "longitude": "14.45118000",
    "wikiDataId": null
  },
  {
    "id": 23335,
    "name": "Zdice",
    "state_id": 4554,
    "state_code": "20",
    "country_id": 58,
    "country_code": "CZ",
    "latitude": "49.91207000",
    "longitude": "13.97747000",
    "wikiDataId": null
  },
  {
    "id": 23441,
    "name": "Žebrák",
    "state_id": 4554,
    "state_code": "20",
    "country_id": 58,
    "country_code": "CZ",
    "latitude": "49.87574000",
    "longitude": "13.89735000",
    "wikiDataId": null
  },
  {
    "id": 23338,
    "name": "Zeleneč",
    "state_id": 4554,
    "state_code": "20",
    "country_id": 58,
    "country_code": "CZ",
    "latitude": "50.13362000",
    "longitude": "14.66070000",
    "wikiDataId": null
  },
  {
    "id": 23453,
    "name": "Žiželice",
    "state_id": 4554,
    "state_code": "20",
    "country_id": 58,
    "country_code": "CZ",
    "latitude": "50.13192000",
    "longitude": "15.39320000",
    "wikiDataId": null
  },
  {
    "id": 23454,
    "name": "Žleby",
    "state_id": 4554,
    "state_code": "20",
    "country_id": 58,
    "country_code": "CZ",
    "latitude": "49.88958000",
    "longitude": "15.48853000",
    "wikiDataId": null
  },
  {
    "id": 23342,
    "name": "Zlonice",
    "state_id": 4554,
    "state_code": "20",
    "country_id": 58,
    "country_code": "CZ",
    "latitude": "50.28750000",
    "longitude": "14.09214000",
    "wikiDataId": null
  },
  {
    "id": 23345,
    "name": "Zruč nad Sázavou",
    "state_id": 4554,
    "state_code": "20",
    "country_id": 58,
    "country_code": "CZ",
    "latitude": "49.74010000",
    "longitude": "15.10606000",
    "wikiDataId": null
  },
  {
    "id": 23347,
    "name": "Zvole",
    "state_id": 4554,
    "state_code": "20",
    "country_id": 58,
    "country_code": "CZ",
    "latitude": "49.93466000",
    "longitude": "14.41769000",
    "wikiDataId": null
  }
]