[
  {
    "id": 54415,
    "name": "Brestovac",
    "state_id": 724,
    "state_code": "11",
    "country_id": 55,
    "country_code": "HR",
    "latitude": "45.33056000",
    "longitude": "17.59694000",
    "wikiDataId": null
  },
  {
    "id": 54541,
    "name": "Grad Pakrac",
    "state_id": 724,
    "state_code": "11",
    "country_id": 55,
    "country_code": "HR",
    "latitude": "45.43333000",
    "longitude": "17.20000000",
    "wikiDataId": null
  },
  {
    "id": 54545,
    "name": "Grad Požega",
    "state_id": 724,
    "state_code": "11",
    "country_id": 55,
    "country_code": "HR",
    "latitude": "45.33333000",
    "longitude": "17.66667000",
    "wikiDataId": null
  },
  {
    "id": 54612,
    "name": "Jakšić",
    "state_id": 724,
    "state_code": "11",
    "country_id": 55,
    "country_code": "HR",
    "latitude": "45.35765000",
    "longitude": "17.76502000",
    "wikiDataId": null
  },
  {
    "id": 54631,
    "name": "Kaptol",
    "state_id": 724,
    "state_code": "11",
    "country_id": 55,
    "country_code": "HR",
    "latitude": "45.43472000",
    "longitude": "17.72611000",
    "wikiDataId": null
  },
  {
    "id": 54677,
    "name": "Kutjevo",
    "state_id": 724,
    "state_code": "11",
    "country_id": 55,
    "country_code": "HR",
    "latitude": "45.42611000",
    "longitude": "17.88250000",
    "wikiDataId": null
  },
  {
    "id": 54688,
    "name": "Lipik",
    "state_id": 724,
    "state_code": "11",
    "country_id": 55,
    "country_code": "HR",
    "latitude": "45.41139000",
    "longitude": "17.15222000",
    "wikiDataId": null
  },
  {
    "id": 54799,
    "name": "Pakrac",
    "state_id": 724,
    "state_code": "11",
    "country_id": 55,
    "country_code": "HR",
    "latitude": "45.43639000",
    "longitude": "17.18889000",
    "wikiDataId": null
  },
  {
    "id": 54811,
    "name": "Pleternica",
    "state_id": 724,
    "state_code": "11",
    "country_id": 55,
    "country_code": "HR",
    "latitude": "45.28861000",
    "longitude": "17.80639000",
    "wikiDataId": null
  },
  {
    "id": 54830,
    "name": "Požega",
    "state_id": 724,
    "state_code": "11",
    "country_id": 55,
    "country_code": "HR",
    "latitude": "45.34028000",
    "longitude": "17.68528000",
    "wikiDataId": null
  },
  {
    "id": 54955,
    "name": "Velika",
    "state_id": 724,
    "state_code": "11",
    "country_id": 55,
    "country_code": "HR",
    "latitude": "45.45444000",
    "longitude": "17.66139000",
    "wikiDataId": null
  },
  {
    "id": 54964,
    "name": "Vidovci",
    "state_id": 724,
    "state_code": "11",
    "country_id": 55,
    "country_code": "HR",
    "latitude": "45.33250000",
    "longitude": "17.71472000",
    "wikiDataId": null
  }
]