[
  {
    "id": 62294,
    "name": "Adelphi",
    "state_id": 3745,
    "state_code": "08",
    "country_id": 108,
    "country_code": "JM",
    "latitude": "18.45060000",
    "longitude": "-77.78590000",
    "wikiDataId": null
  },
  {
    "id": 62298,
    "name": "Albion",
    "state_id": 3745,
    "state_code": "08",
    "country_id": 108,
    "country_code": "JM",
    "latitude": "18.48471000",
    "longitude": "-77.91408000",
    "wikiDataId": null
  },
  {
    "id": 62312,
    "name": "Anchovy",
    "state_id": 3745,
    "state_code": "08",
    "country_id": 108,
    "country_code": "JM",
    "latitude": "18.41030000",
    "longitude": "-77.93166000",
    "wikiDataId": null
  },
  {
    "id": 62315,
    "name": "Arcadia",
    "state_id": 3745,
    "state_code": "08",
    "country_id": 108,
    "country_code": "JM",
    "latitude": "18.24993000",
    "longitude": "-77.79228000",
    "wikiDataId": null
  },
  {
    "id": 62337,
    "name": "Barrett Town",
    "state_id": 3745,
    "state_code": "08",
    "country_id": 108,
    "country_code": "JM",
    "latitude": "18.50871000",
    "longitude": "-77.79625000",
    "wikiDataId": null
  },
  {
    "id": 62358,
    "name": "Bickersteth",
    "state_id": 3745,
    "state_code": "08",
    "country_id": 108,
    "country_code": "JM",
    "latitude": "18.36335000",
    "longitude": "-77.93651000",
    "wikiDataId": null
  },
  {
    "id": 62370,
    "name": "Bogue",
    "state_id": 3745,
    "state_code": "08",
    "country_id": 108,
    "country_code": "JM",
    "latitude": "18.43722000",
    "longitude": "-77.92022000",
    "wikiDataId": null
  },
  {
    "id": 62386,
    "name": "Brandon Hill",
    "state_id": 3745,
    "state_code": "08",
    "country_id": 108,
    "country_code": "JM",
    "latitude": "18.47767000",
    "longitude": "-77.91117000",
    "wikiDataId": null
  },
  {
    "id": 62415,
    "name": "Cambridge",
    "state_id": 3745,
    "state_code": "08",
    "country_id": 108,
    "country_code": "JM",
    "latitude": "18.31308000",
    "longitude": "-77.89546000",
    "wikiDataId": null
  },
  {
    "id": 62418,
    "name": "Canterbury",
    "state_id": 3745,
    "state_code": "08",
    "country_id": 108,
    "country_code": "JM",
    "latitude": "18.47919000",
    "longitude": "-77.91655000",
    "wikiDataId": null
  },
  {
    "id": 62429,
    "name": "Catadupa",
    "state_id": 3745,
    "state_code": "08",
    "country_id": 108,
    "country_code": "JM",
    "latitude": "18.28052000",
    "longitude": "-77.86579000",
    "wikiDataId": null
  },
  {
    "id": 62430,
    "name": "Catherine Hall",
    "state_id": 3745,
    "state_code": "08",
    "country_id": 108,
    "country_code": "JM",
    "latitude": "18.46258000",
    "longitude": "-77.92286000",
    "wikiDataId": null
  },
  {
    "id": 62431,
    "name": "Catherine Mount",
    "state_id": 3745,
    "state_code": "08",
    "country_id": 108,
    "country_code": "JM",
    "latitude": "18.45672000",
    "longitude": "-77.89691000",
    "wikiDataId": null
  },
  {
    "id": 62469,
    "name": "Comfort Hall",
    "state_id": 3745,
    "state_code": "08",
    "country_id": 108,
    "country_code": "JM",
    "latitude": "18.41270000",
    "longitude": "-77.91814000",
    "wikiDataId": null
  },
  {
    "id": 62480,
    "name": "Coral Gardens",
    "state_id": 3745,
    "state_code": "08",
    "country_id": 108,
    "country_code": "JM",
    "latitude": "18.50791000",
    "longitude": "-77.88034000",
    "wikiDataId": null
  },
  {
    "id": 62481,
    "name": "Cornwall",
    "state_id": 3745,
    "state_code": "08",
    "country_id": 108,
    "country_code": "JM",
    "latitude": "18.48930000",
    "longitude": "-77.81016000",
    "wikiDataId": null
  },
  {
    "id": 62516,
    "name": "Down Town Montego Bay",
    "state_id": 3745,
    "state_code": "08",
    "country_id": 108,
    "country_code": "JM",
    "latitude": "18.47726000",
    "longitude": "-77.92031000",
    "wikiDataId": null
  },
  {
    "id": 62525,
    "name": "Dumfries",
    "state_id": 3745,
    "state_code": "08",
    "country_id": 108,
    "country_code": "JM",
    "latitude": "18.42973000",
    "longitude": "-77.75593000",
    "wikiDataId": null
  },
  {
    "id": 62546,
    "name": "Fairfield",
    "state_id": 3745,
    "state_code": "08",
    "country_id": 108,
    "country_code": "JM",
    "latitude": "18.45079000",
    "longitude": "-77.91235000",
    "wikiDataId": null
  },
  {
    "id": 62551,
    "name": "Farm Heights",
    "state_id": 3745,
    "state_code": "08",
    "country_id": 108,
    "country_code": "JM",
    "latitude": "18.46869000",
    "longitude": "-77.87760000",
    "wikiDataId": null
  },
  {
    "id": 62555,
    "name": "Flagstaff",
    "state_id": 3745,
    "state_code": "08",
    "country_id": 108,
    "country_code": "JM",
    "latitude": "18.35412000",
    "longitude": "-77.77132000",
    "wikiDataId": null
  },
  {
    "id": 62556,
    "name": "Flamstead",
    "state_id": 3745,
    "state_code": "08",
    "country_id": 108,
    "country_code": "JM",
    "latitude": "18.31409000",
    "longitude": "-77.81316000",
    "wikiDataId": null
  },
  {
    "id": 62557,
    "name": "Flankers",
    "state_id": 3745,
    "state_code": "08",
    "country_id": 108,
    "country_code": "JM",
    "latitude": "18.50265000",
    "longitude": "-77.90831000",
    "wikiDataId": null
  },
  {
    "id": 62560,
    "name": "Flower Hill",
    "state_id": 3745,
    "state_code": "08",
    "country_id": 108,
    "country_code": "JM",
    "latitude": "18.48426000",
    "longitude": "-77.83913000",
    "wikiDataId": null
  },
  {
    "id": 62572,
    "name": "Friendship",
    "state_id": 3745,
    "state_code": "08",
    "country_id": 108,
    "country_code": "JM",
    "latitude": "18.44590000",
    "longitude": "-77.86242000",
    "wikiDataId": null
  },
  {
    "id": 62579,
    "name": "Garlands",
    "state_id": 3745,
    "state_code": "08",
    "country_id": 108,
    "country_code": "JM",
    "latitude": "18.27811000",
    "longitude": "-77.78908000",
    "wikiDataId": null
  },
  {
    "id": 62588,
    "name": "Glendevon",
    "state_id": 3745,
    "state_code": "08",
    "country_id": 108,
    "country_code": "JM",
    "latitude": "18.48488000",
    "longitude": "-77.89710000",
    "wikiDataId": null
  },
  {
    "id": 62597,
    "name": "Goodwill",
    "state_id": 3745,
    "state_code": "08",
    "country_id": 108,
    "country_code": "JM",
    "latitude": "18.46950000",
    "longitude": "-77.75646000",
    "wikiDataId": null
  },
  {
    "id": 62604,
    "name": "Granville",
    "state_id": 3745,
    "state_code": "08",
    "country_id": 108,
    "country_code": "JM",
    "latitude": "18.44191000",
    "longitude": "-77.89402000",
    "wikiDataId": null
  },
  {
    "id": 62611,
    "name": "Green Pond",
    "state_id": 3745,
    "state_code": "08",
    "country_id": 108,
    "country_code": "JM",
    "latitude": "18.47361000",
    "longitude": "-77.87779000",
    "wikiDataId": null
  },
  {
    "id": 62615,
    "name": "Greenwood",
    "state_id": 3745,
    "state_code": "08",
    "country_id": 108,
    "country_code": "JM",
    "latitude": "18.49768000",
    "longitude": "-77.75243000",
    "wikiDataId": null
  },
  {
    "id": 62656,
    "name": "Hopeton",
    "state_id": 3745,
    "state_code": "08",
    "country_id": 108,
    "country_code": "JM",
    "latitude": "18.39858000",
    "longitude": "-77.86826000",
    "wikiDataId": null
  },
  {
    "id": 62664,
    "name": "Ironshore",
    "state_id": 3745,
    "state_code": "08",
    "country_id": 108,
    "country_code": "JM",
    "latitude": "18.51323000",
    "longitude": "-77.85108000",
    "wikiDataId": null
  },
  {
    "id": 62665,
    "name": "Irwin",
    "state_id": 3745,
    "state_code": "08",
    "country_id": 108,
    "country_code": "JM",
    "latitude": "18.44949000",
    "longitude": "-77.87722000",
    "wikiDataId": null
  },
  {
    "id": 62675,
    "name": "John's Hall",
    "state_id": 3745,
    "state_code": "08",
    "country_id": 108,
    "country_code": "JM",
    "latitude": "18.42849000",
    "longitude": "-77.85010000",
    "wikiDataId": null
  },
  {
    "id": 62709,
    "name": "Lilliput",
    "state_id": 3745,
    "state_code": "08",
    "country_id": 108,
    "country_code": "JM",
    "latitude": "18.50591000",
    "longitude": "-77.77686000",
    "wikiDataId": null
  },
  {
    "id": 62730,
    "name": "Lottery",
    "state_id": 3745,
    "state_code": "08",
    "country_id": 108,
    "country_code": "JM",
    "latitude": "18.41499000",
    "longitude": "-77.80696000",
    "wikiDataId": null
  },
  {
    "id": 62742,
    "name": "Maldon",
    "state_id": 3745,
    "state_code": "08",
    "country_id": 108,
    "country_code": "JM",
    "latitude": "18.33831000",
    "longitude": "-77.80998000",
    "wikiDataId": null
  },
  {
    "id": 62754,
    "name": "Maroon Town",
    "state_id": 3745,
    "state_code": "08",
    "country_id": 108,
    "country_code": "JM",
    "latitude": "18.34464000",
    "longitude": "-77.79544000",
    "wikiDataId": null
  },
  {
    "id": 62779,
    "name": "Mocho",
    "state_id": 3745,
    "state_code": "08",
    "country_id": 108,
    "country_code": "JM",
    "latitude": "18.29135000",
    "longitude": "-77.82580000",
    "wikiDataId": null
  },
  {
    "id": 62784,
    "name": "Montego Bay",
    "state_id": 3745,
    "state_code": "08",
    "country_id": 108,
    "country_code": "JM",
    "latitude": "18.47116000",
    "longitude": "-77.91883000",
    "wikiDataId": null
  },
  {
    "id": 62785,
    "name": "Montego Hill",
    "state_id": 3745,
    "state_code": "08",
    "country_id": 108,
    "country_code": "JM",
    "latitude": "18.48038000",
    "longitude": "-77.88150000",
    "wikiDataId": null
  },
  {
    "id": 62786,
    "name": "Montpelier",
    "state_id": 3745,
    "state_code": "08",
    "country_id": 108,
    "country_code": "JM",
    "latitude": "18.37612000",
    "longitude": "-77.91357000",
    "wikiDataId": null
  },
  {
    "id": 62794,
    "name": "Mount Carey",
    "state_id": 3745,
    "state_code": "08",
    "country_id": 108,
    "country_code": "JM",
    "latitude": "18.38888000",
    "longitude": "-77.94374000",
    "wikiDataId": null
  },
  {
    "id": 62795,
    "name": "Mount Horeb",
    "state_id": 3745,
    "state_code": "08",
    "country_id": 108,
    "country_code": "JM",
    "latitude": "18.33322000",
    "longitude": "-77.86675000",
    "wikiDataId": null
  },
  {
    "id": 62801,
    "name": "Mount Salem",
    "state_id": 3745,
    "state_code": "08",
    "country_id": 108,
    "country_code": "JM",
    "latitude": "18.46601000",
    "longitude": "-77.90793000",
    "wikiDataId": null
  },
  {
    "id": 62828,
    "name": "Niagara",
    "state_id": 3745,
    "state_code": "08",
    "country_id": 108,
    "country_code": "JM",
    "latitude": "18.26534000",
    "longitude": "-77.81879000",
    "wikiDataId": null
  },
  {
    "id": 62833,
    "name": "Norwood",
    "state_id": 3745,
    "state_code": "08",
    "country_id": 108,
    "country_code": "JM",
    "latitude": "18.49217000",
    "longitude": "-77.88634000",
    "wikiDataId": null
  },
  {
    "id": 62842,
    "name": "Orange",
    "state_id": 3745,
    "state_code": "08",
    "country_id": 108,
    "country_code": "JM",
    "latitude": "18.45395000",
    "longitude": "-77.82779000",
    "wikiDataId": null
  },
  {
    "id": 62852,
    "name": "Paradise",
    "state_id": 3745,
    "state_code": "08",
    "country_id": 108,
    "country_code": "JM",
    "latitude": "18.49401000",
    "longitude": "-77.90982000",
    "wikiDataId": null
  },
  {
    "id": 62885,
    "name": "Pitfour",
    "state_id": 3745,
    "state_code": "08",
    "country_id": 108,
    "country_code": "JM",
    "latitude": "18.43206000",
    "longitude": "-77.89007000",
    "wikiDataId": null
  },
  {
    "id": 62899,
    "name": "Porto Bello",
    "state_id": 3745,
    "state_code": "08",
    "country_id": 108,
    "country_code": "JM",
    "latitude": "18.46607000",
    "longitude": "-77.86989000",
    "wikiDataId": null
  },
  {
    "id": 62914,
    "name": "Reading",
    "state_id": 3745,
    "state_code": "08",
    "country_id": 108,
    "country_code": "JM",
    "latitude": "18.43723000",
    "longitude": "-77.94730000",
    "wikiDataId": null
  },
  {
    "id": 62922,
    "name": "Retirement",
    "state_id": 3745,
    "state_code": "08",
    "country_id": 108,
    "country_code": "JM",
    "latitude": "18.43742000",
    "longitude": "-77.88004000",
    "wikiDataId": null
  },
  {
    "id": 62926,
    "name": "Retrieve",
    "state_id": 3745,
    "state_code": "08",
    "country_id": 108,
    "country_code": "JM",
    "latitude": "18.28901000",
    "longitude": "-77.90081000",
    "wikiDataId": null
  },
  {
    "id": 62948,
    "name": "Roehampton",
    "state_id": 3745,
    "state_code": "08",
    "country_id": 108,
    "country_code": "JM",
    "latitude": "18.39897000",
    "longitude": "-77.89926000",
    "wikiDataId": null
  },
  {
    "id": 62950,
    "name": "Rose Hall",
    "state_id": 3745,
    "state_code": "08",
    "country_id": 108,
    "country_code": "JM",
    "latitude": "18.51228000",
    "longitude": "-77.81833000",
    "wikiDataId": null
  },
  {
    "id": 62952,
    "name": "Rose Heights",
    "state_id": 3745,
    "state_code": "08",
    "country_id": 108,
    "country_code": "JM",
    "latitude": "18.46945000",
    "longitude": "-77.89533000",
    "wikiDataId": null
  },
  {
    "id": 62954,
    "name": "Rose Mount Garden",
    "state_id": 3745,
    "state_code": "08",
    "country_id": 108,
    "country_code": "JM",
    "latitude": "18.46394000",
    "longitude": "-77.89397000",
    "wikiDataId": null
  },
  {
    "id": 62956,
    "name": "Rosemount",
    "state_id": 3745,
    "state_code": "08",
    "country_id": 108,
    "country_code": "JM",
    "latitude": "18.47484000",
    "longitude": "-77.89216000",
    "wikiDataId": null
  },
  {
    "id": 62965,
    "name": "Salt Spring",
    "state_id": 3745,
    "state_code": "08",
    "country_id": 108,
    "country_code": "JM",
    "latitude": "18.48687000",
    "longitude": "-77.86554000",
    "wikiDataId": null
  },
  {
    "id": 62985,
    "name": "Seven Rivers",
    "state_id": 3745,
    "state_code": "08",
    "country_id": 108,
    "country_code": "JM",
    "latitude": "18.34702000",
    "longitude": "-77.91378000",
    "wikiDataId": null
  },
  {
    "id": 63003,
    "name": "Somerton",
    "state_id": 3745,
    "state_code": "08",
    "country_id": 108,
    "country_code": "JM",
    "latitude": "18.40496000",
    "longitude": "-77.77071000",
    "wikiDataId": null
  },
  {
    "id": 63010,
    "name": "Spot Valley",
    "state_id": 3745,
    "state_code": "08",
    "country_id": 108,
    "country_code": "JM",
    "latitude": "18.47869000",
    "longitude": "-77.79106000",
    "wikiDataId": null
  },
  {
    "id": 63032,
    "name": "Stonehenge",
    "state_id": 3745,
    "state_code": "08",
    "country_id": 108,
    "country_code": "JM",
    "latitude": "18.24231000",
    "longitude": "-77.85042000",
    "wikiDataId": null
  },
  {
    "id": 63039,
    "name": "Summer Hill",
    "state_id": 3745,
    "state_code": "08",
    "country_id": 108,
    "country_code": "JM",
    "latitude": "18.37360000",
    "longitude": "-77.79350000",
    "wikiDataId": null
  },
  {
    "id": 63041,
    "name": "Sunderland",
    "state_id": 3745,
    "state_code": "08",
    "country_id": 108,
    "country_code": "JM",
    "latitude": "18.39794000",
    "longitude": "-77.82734000",
    "wikiDataId": null
  },
  {
    "id": 63046,
    "name": "Tangle River",
    "state_id": 3745,
    "state_code": "08",
    "country_id": 108,
    "country_code": "JM",
    "latitude": "18.34337000",
    "longitude": "-77.83621000",
    "wikiDataId": null
  },
  {
    "id": 63057,
    "name": "Tower Hill/Moy Hall",
    "state_id": 3745,
    "state_code": "08",
    "country_id": 108,
    "country_code": "JM",
    "latitude": "18.44044000",
    "longitude": "-77.96022000",
    "wikiDataId": null
  },
  {
    "id": 63070,
    "name": "Tucker",
    "state_id": 3745,
    "state_code": "08",
    "country_id": 108,
    "country_code": "JM",
    "latitude": "18.44900000",
    "longitude": "-77.89438000",
    "wikiDataId": null
  },
  {
    "id": 63073,
    "name": "Unity Hall",
    "state_id": 3745,
    "state_code": "08",
    "country_id": 108,
    "country_code": "JM",
    "latitude": "18.43304000",
    "longitude": "-77.97684000",
    "wikiDataId": null
  },
  {
    "id": 63075,
    "name": "Vaughnsfield",
    "state_id": 3745,
    "state_code": "08",
    "country_id": 108,
    "country_code": "JM",
    "latitude": "18.32135000",
    "longitude": "-77.78051000",
    "wikiDataId": null
  },
  {
    "id": 63094,
    "name": "Welcome Hall",
    "state_id": 3745,
    "state_code": "08",
    "country_id": 108,
    "country_code": "JM",
    "latitude": "18.36898000",
    "longitude": "-77.83673000",
    "wikiDataId": null
  },
  {
    "id": 63097,
    "name": "West Green",
    "state_id": 3745,
    "state_code": "08",
    "country_id": 108,
    "country_code": "JM",
    "latitude": "18.46244000",
    "longitude": "-77.91757000",
    "wikiDataId": null
  }
]